Time (sec) ,X(m) ,Y(m) ,Z(m) ,Roll (deg) ,Pitch (deg) ,Yaw (deg) ,U(m/s) ,V(m/s) ,W(m/s) ,P(rad/s) ,Q(rad/s) ,R(rad/s) ,Mx(Gauss) ,My(Gauss) ,Mz(Gauss) ,GPS Latitude (deg) ,GPS Longitude (deg) ,GPS Altitude (m) ,GPS Heading (deg) ,Yaw (deg) ,Analog 1 (V) ,Analog 2 (V) ,Analog 3 (V) ,Analog 4 (V) ,Analog 5 (V) ,Analog 6 (V) ,Pressure (Pa) ,Pressure Altitude (m) ,Temperature (C) ,RC Channel #1 ,RC Channel #2 ,RC Channel #3 ,RC Channel #4 ,RC Channel #5 ,PWM Model 1 ,PWM Model 2 ,PWM Model 3 
 0.000000,6871393.000000,0.000000,0.000000,0.000000,0.000000,0.000000,0.000000,7616.180000,0.000000,0.200000,0.200000,0.200000,0.000000,0.000000,0.000000,0.000000,0.000000,500000.000000,0.000000,0.000000,0.000000,0.000000,0.000000,0.000000,0.000000,0.000000,1013.250000,-0.000000,25.500000,992,1500,1500,1500,992,1500.000000,1500.000000,1500.000000
0.010100,6871392.999569,76.923418,0.000000,0.077238,0.098802,0.098857,13.055553,7616.161920,-10.244550,0.081610,0.144035,0.143796,0.000000,0.000000,0.000000,0.000000,0.000641,500000.000000,90.000638,0.098857,0.000000,0.000000,0.000000,0.000000,0.000000,0.000000,1013.250000,-0.000000,25.500000,992,1500,1500,1500,992,1494.894000,1491.834174,1491.847514
0.020200,6871392.998278,153.846836,0.000000,0.108321,0.169548,0.169694,22.386390,7616.133614,-14.332576,0.032625,0.103140,0.102903,0.000000,0.000000,0.000000,0.000000,0.001283,500000.000000,90.001280,0.169694,0.000000,0.000000,0.000000,0.000000,0.000000,0.000000,1013.250000,-0.000000,25.500000,992,1500,1500,1500,992,1497.958793,1494.152596,1494.166008
0.030300,6871392.996125,230.770254,0.000000,0.120854,0.220184,0.220411,29.042538,7616.107918,-15.953026,0.013042,0.073842,0.073653,0.000000,0.000000,0.000000,0.000000,0.001924,500000.000000,90.001921,0.220411,0.000000,0.000000,0.000000,0.000000,0.000000,0.000000,1013.250000,-0.000000,25.500000,992,1500,1500,1500,992,1499.183994,1495.813607,1495.824313
0.040300,6871392.993145,306.932054,0.000000,0.125914,0.256127,0.256415,33.743876,7616.087187,-16.586439,0.005261,0.053037,0.052896,0.000000,0.000000,0.000000,0.000000,0.002559,500000.000000,90.002556,0.256415,0.000000,0.000000,0.000000,0.000000,0.000000,0.000000,1013.250000,-0.000000,25.500000,992,1500,1500,1500,992,1499.670813,1496.993094,1497.001099
0.050300,6871392.989321,383.093854,0.000000,0.128017,0.281941,0.282274,37.096745,7616.071050,-16.834188,0.002123,0.038093,0.037990,0.000000,0.000000,0.000000,0.000000,0.003194,500000.000000,90.003191,0.282274,0.000000,0.000000,0.000000,0.000000,0.000000,0.000000,1013.250000,-0.000000,25.500000,992,1500,1500,1500,992,1499.867202,1497.840336,1497.846177
0.060300,6871392.984653,459.255654,0.000000,0.128910,0.300481,0.300847,39.481068,7616.058854,-16.928437,0.000856,0.027360,0.027285,0.000000,0.000000,0.000000,0.000000,0.003829,500000.000000,90.003826,0.300847,0.000000,0.000000,0.000000,0.000000,0.000000,0.000000,1013.250000,-0.000000,25.500000,992,1500,1500,1500,992,1499.946428,1498.448875,1498.453096
0.070300,6871392.979140,535.417453,0.000000,0.129304,0.313797,0.314187,41.169750,7616.049837,-16.962355,0.000345,0.019650,0.019597,0.000000,0.000000,0.000000,0.000000,0.004464,500000.000000,90.004461,0.314187,0.000000,0.000000,0.000000,0.000000,0.000000,0.000000,1013.250000,-0.000000,25.500000,992,1500,1500,1500,992,1499.978388,1498.885948,1498.888988
0.080300,6871392.972784,611.579253,0.000000,0.129488,0.323360,0.323767,42.358807,7616.043293,-16.973127,0.000139,0.014113,0.014075,0.000000,0.000000,0.000000,0.000000,0.005100,500000.000000,90.005096,0.323767,0.000000,0.000000,0.000000,0.000000,0.000000,0.000000,1013.250000,-0.000000,25.500000,992,1500,1500,1500,992,1499.991282,1499.199865,1499.202051
0.090300,6871392.965583,687.741053,0.000000,0.129579,0.330229,0.330649,43.189024,7616.038625,-16.975445,0.000056,0.010136,0.010109,0.000000,0.000000,0.000000,0.000000,0.005735,500000.000000,90.005731,0.330649,0.000000,0.000000,0.000000,0.000000,0.000000,0.000000,1013.250000,-0.000000,25.500000,992,1500,1500,1500,992,1499.996483,1499.425327,1499.426898
0.100300,6871392.957538,763.902852,0.000000,0.129629,0.335162,0.335591,43.761515,7616.035358,-16.974998,0.000023,0.007280,0.007260,0.000000,0.000000,0.000000,0.000000,0.006370,500000.000000,90.006367,0.335591,0.000000,0.000000,0.000000,0.000000,0.000000,0.000000,1013.250000,-0.000000,25.500000,992,1500,1500,1500,992,1499.998581,1499.587259,1499.588387
0.110300,6871392.948649,840.064652,0.000000,0.129659,0.338705,0.339140,44.148903,7616.033124,-16.973907,0.000009,0.005229,0.005214,0.000000,0.000000,0.000000,0.000000,0.007005,500000.000000,90.007002,0.339140,0.000000,0.000000,0.000000,0.000000,0.000000,0.000000,1013.250000,-0.000000,25.500000,992,1500,1500,1500,992,1499.999428,1499.703561,1499.704372
0.120300,6871392.938916,916.226451,0.000000,0.129677,0.341250,0.341690,44.403346,7616.031648,-16.972895,0.000004,0.003755,0.003745,0.000000,0.000000,0.000000,0.000000,0.007640,500000.000000,90.007637,0.341690,0.000000,0.000000,0.000000,0.000000,0.000000,0.000000,1013.250000,-0.000000,25.500000,992,1500,1500,1500,992,1499.999769,1499.787092,1499.787674
0.130400,6871392.928228,993.149869,0.000000,0.129690,0.343093,0.343536,44.563511,7616.030714,-16.972157,0.000001,0.002688,0.002681,0.000000,0.000000,0.000000,0.000000,0.008281,500000.000000,90.008278,0.343536,0.000000,0.000000,0.000000,0.000000,0.000000,0.000000,1013.250000,-0.000000,25.500000,992,1500,1500,1500,992,1499.999908,1499.847591,1499.848007
0.140500,6871392.916679,1070.073286,0.000000,0.129698,0.344413,0.344858,44.653938,7616.030185,-16.971715,0.000001,0.001924,0.001919,0.000000,0.000000,0.000000,0.000000,0.008923,500000.000000,90.008919,0.344858,0.000000,0.000000,0.000000,0.000000,0.000000,0.000000,1013.250000,-0.000000,25.500000,992,1500,1500,1500,992,1499.999963,1499.890898,1499.891197
0.150600,6871392.904270,1146.996703,0.000000,0.129704,0.345357,0.345804,44.694443,7616.029948,-16.971521,0.000000,0.001378,0.001374,0.000000,0.000000,0.000000,0.000000,0.009564,500000.000000,90.009561,0.345804,0.000000,0.000000,0.000000,0.000000,0.000000,0.000000,1013.250000,-0.000000,25.500000,992,1500,1500,1500,992,1499.999985,1499.921900,1499.922114
0.160700,6871392.890999,1223.920120,0.000000,0.129708,0.346033,0.346481,44.699213,7616.029920,-16.971520,0.000000,0.000986,0.000983,0.000000,0.000000,0.000000,0.000000,0.010205,500000.000000,90.010202,0.346481,0.000000,0.000000,0.000000,0.000000,0.000000,0.000000,1013.250000,-0.000000,25.500000,992,1500,1500,1500,992,1499.999994,1499.944092,1499.944245
0.170800,6871392.876867,1300.843536,0.000000,0.129711,0.346517,0.346966,44.678400,7616.030042,-16.971662,0.000000,0.000706,0.000704,0.000000,0.000000,0.000000,0.000000,0.010847,500000.000000,90.010844,0.346966,0.000000,0.000000,0.000000,0.000000,0.000000,0.000000,1013.250000,-0.000000,25.500000,992,1500,1500,1500,992,1499.999998,1499.959979,1499.960088
0.180900,6871392.861874,1377.766953,0.000000,0.129713,0.346864,0.347313,44.639276,7616.030271,-16.971911,0.000000,0.000505,0.000504,0.000000,0.000000,0.000000,0.000000,0.011488,500000.000000,90.011485,0.347313,0.000000,0.000000,0.000000,0.000000,0.000000,0.000000,1013.250000,-0.000000,25.500000,992,1500,1500,1500,992,1499.999999,1499.971351,1499.971429
0.191000,6871392.846019,1454.690369,0.000000,0.129715,0.347112,0.347562,44.587042,7616.030576,-16.972235,0.000000,0.000362,0.000361,0.000000,0.000000,0.000000,0.000000,0.012130,500000.000000,90.012126,0.347562,0.000000,0.000000,0.000000,0.000000,0.000000,0.000000,1013.250000,-0.000000,25.500000,992,1500,1500,1500,992,1500.000000,1499.979492,1499.979548
0.201100,6871392.829304,1531.613785,0.000000,0.129716,0.347289,0.347740,44.525424,7616.030935,-16.972615,0.000000,0.000259,0.000258,0.000000,0.000000,0.000000,0.000000,0.012771,500000.000000,90.012768,0.347740,0.000000,0.000000,0.000000,0.000000,0.000000,0.000000,1013.250000,-0.000000,25.500000,992,1500,1500,1500,992,1500.000000,1499.985319,1499.985359
0.211200,6871392.811727,1608.537201,-0.000000,0.129717,0.347416,0.347867,44.457089,7616.031334,-16.973034,0.000000,0.000185,0.000185,0.000000,0.000000,0.000000,0.000000,0.013412,500000.000000,90.013409,0.347867,0.000000,0.000000,0.000000,0.000000,0.000000,0.000000,1013.250000,0.000000,25.500000,992,1500,1500,1500,992,1500.000000,1499.989491,1499.989520
0.221300,6871392.793290,1685.460617,-0.000000,0.129717,0.347507,0.347958,44.383945,7616.031759,-16.973482,0.000000,0.000133,0.000132,0.000000,0.000000,0.000000,0.000000,0.014054,500000.000000,90.014051,0.347958,0.000000,0.000000,0.000000,0.000000,0.000000,0.000000,1013.250000,0.000000,25.500000,992,1500,1500,1500,992,1500.000000,1499.992477,1499.992498
0.231400,6871392.773991,1762.384033,-0.000000,0.129718,0.347572,0.348023,44.307359,7616.032204,-16.973950,0.000000,0.000095,0.000095,0.000000,0.000000,0.000000,0.000000,0.014695,500000.000000,90.014692,0.348023,0.000000,0.000000,0.000000,0.000000,0.000000,0.000000,1013.250000,0.000000,25.500000,992,1500,1500,1500,992,1500.000000,1499.994615,1499.994629
0.241500,6871392.753831,1839.307448,-0.000000,0.129718,0.347619,0.348070,44.228308,7616.032663,-16.974432,0.000000,0.000068,0.000068,0.000000,0.000000,0.000000,0.000000,0.015337,500000.000000,90.015334,0.348070,0.000000,0.000000,0.000000,0.000000,0.000000,0.000000,1013.250000,0.000000,25.500000,992,1500,1500,1500,992,1500.000000,1499.996145,1499.996156
0.251600,6871392.732810,1916.230863,-0.000000,0.129718,0.347652,0.348103,44.147494,7616.033130,-16.974924,0.000000,0.000049,0.000049,0.000000,0.000000,0.000000,0.000000,0.015978,500000.000000,90.015975,0.348103,0.000000,0.000000,0.000000,0.000000,0.000000,0.000000,1013.250000,0.000000,25.500000,992,1500,1500,1500,992,1500.000000,1499.997240,1499.997248
0.261700,6871392.710927,1993.154278,-0.000000,0.129718,0.347676,0.348127,44.065417,7616.033605,-16.975425,0.000000,0.000035,0.000035,0.000000,0.000000,0.000000,0.000000,0.016620,500000.000000,90.016616,0.348127,0.000000,0.000000,0.000000,0.000000,0.000000,0.000000,1013.250000,0.000000,25.500000,992,1500,1500,1500,992,1500.000000,1499.998025,1499.998030
0.271800,6871392.688184,2070.077693,-0.000000,0.129718,0.347693,0.348144,43.982436,7616.034083,-16.975930,0.000000,0.000025,0.000025,0.000000,0.000000,0.000000,0.000000,0.017261,500000.000000,90.017258,0.348144,0.000000,0.000000,0.000000,0.000000,0.000000,0.000000,1013.250000,0.000000,25.500000,992,1500,1500,1500,992,1500.000000,1499.998586,1499.998590
0.281900,6871392.664580,2147.001107,-0.000000,0.129719,0.347705,0.348157,43.898808,7616.034564,-16.976439,0.000000,0.000018,0.000018,0.000000,0.000000,0.000000,0.000000,0.017902,500000.000000,90.017899,0.348157,0.000000,0.000000,0.000000,0.000000,0.000000,0.000000,1013.250000,0.000000,25.500000,992,1500,1500,1500,992,1500.000000,1499.998988,1499.998990
0.292000,6871392.640114,2223.924521,-0.000000,0.129719,0.347714,0.348165,43.814717,7616.035048,-16.976951,0.000000,0.000013,0.000013,0.000000,0.000000,0.000000,0.000000,0.018544,500000.000000,90.018541,0.348165,0.000000,0.000000,0.000000,0.000000,0.000000,0.000000,1013.250000,0.000000,25.500000,992,1500,1500,1500,992,1500.000000,1499.999275,1499.999277
0.302100,6871392.614787,2300.847935,-0.000000,0.129719,0.347721,0.348172,43.730294,7616.035532,-16.977464,0.000000,0.000009,0.000009,0.000000,0.000000,0.000000,0.000000,0.019185,500000.000000,90.019182,0.348172,0.000000,0.000000,0.000000,0.000000,0.000000,0.000000,1013.250000,0.000000,25.500000,992,1500,1500,1500,992,1500.000000,1499.999481,1499.999483
0.312200,6871392.588599,2377.771349,-0.000000,0.129719,0.347725,0.348176,43.645634,7616.036016,-16.977980,0.000000,0.000007,0.000007,0.000000,0.000000,0.000000,0.000000,0.019827,500000.000000,90.019823,0.348176,0.000000,0.000000,0.000000,0.000000,0.000000,0.000000,1013.250000,0.000000,25.500000,992,1500,1500,1500,992,1500.000000,1499.999629,1499.999630
0.322300,6871392.561550,2454.694762,-0.000000,0.129719,0.347728,0.348179,43.560804,7616.036501,-16.978496,0.000000,0.000005,0.000005,0.000000,0.000000,0.000000,0.000000,0.020468,500000.000000,90.020465,0.348179,0.000000,0.000000,0.000000,0.000000,0.000000,0.000000,1013.250000,0.000000,25.500000,992,1500,1500,1500,992,1500.000000,1499.999734,1499.999735
0.332400,6871392.533640,2531.618175,-0.000000,0.129719,0.347731,0.348182,43.475852,7616.036985,-16.979012,0.000000,0.000003,0.000003,0.000000,0.000000,0.000000,0.000000,0.021109,500000.000000,90.021106,0.348182,0.000000,0.000000,0.000000,0.000000,0.000000,0.000000,1013.250000,0.000000,25.500000,992,1500,1500,1500,992,1500.000000,1499.999810,1499.999810
0.342500,6871392.504868,2608.541587,-0.000000,0.129719,0.347732,0.348183,43.390814,7616.037469,-16.979530,0.000000,0.000002,0.000002,0.000000,0.000000,0.000000,0.000000,0.021751,500000.000000,90.021748,0.348183,0.000000,0.000000,0.000000,0.000000,0.000000,0.000000,1013.250000,0.000000,25.500000,992,1500,1500,1500,992,1500.000000,1499.999864,1499.999864
0.352600,6871392.475236,2685.465000,-0.000000,0.129719,0.347733,0.348185,43.305712,7616.037952,-16.980047,0.000000,0.000002,0.000002,0.000000,0.000000,0.000000,0.000000,0.022392,500000.000000,90.022389,0.348185,0.000000,0.000000,0.000000,0.000000,0.000000,0.000000,1013.250000,0.000000,25.500000,992,1500,1500,1500,992,1500.000000,1499.999902,1499.999903
0.362700,6871392.444742,2762.388412,-0.000000,0.129719,0.347734,0.348185,43.220567,7616.038434,-16.980565,0.000000,0.000001,0.000001,0.000000,0.000000,0.000000,0.000000,0.023034,500000.000000,90.023030,0.348185,0.000000,0.000000,0.000000,0.000000,0.000000,0.000000,1013.250000,0.000000,25.500000,992,1500,1500,1500,992,1500.000000,1499.999930,1499.999930
0.372800,6871392.413388,2839.311823,-0.000000,0.129719,0.347735,0.348186,43.135389,7616.038916,-16.981083,0.000000,0.000001,0.000001,0.000000,0.000000,0.000000,0.000000,0.023675,500000.000000,90.023672,0.348186,0.000000,0.000000,0.000000,0.000000,0.000000,0.000000,1013.250000,0.000000,25.500000,992,1500,1500,1500,992,1500.000000,1499.999950,1499.999950
0.382900,6871392.381172,2916.235234,-0.000000,0.129719,0.347735,0.348187,43.050188,7616.039397,-16.981602,0.000000,0.000001,0.000001,0.000000,0.000000,0.000000,0.000000,0.024316,500000.000000,90.024313,0.348187,0.000000,0.000000,0.000000,0.000000,0.000000,0.000000,1013.250000,0.000000,25.500000,992,1500,1500,1500,992,1500.000000,1499.999964,1499.999964
0.393000,6871392.348095,2993.158645,-0.000000,0.129719,0.347736,0.348187,42.964972,7616.039877,-16.982120,0.000000,0.000000,0.000000,0.000000,0.000000,0.000000,0.000000,0.024958,500000.000000,90.024955,0.348187,0.000000,0.000000,0.000000,0.000000,0.000000,0.000000,1013.250000,0.000000,25.500000,992,1500,1500,1500,992,1500.000000,1499.999974,1499.999974
0.403100,6871392.314156,3070.082056,-0.000000,0.129719,0.347736,0.348187,42.879743,7616.040356,-16.982638,0.000000,0.000000,0.000000,0.000000,0.000000,0.000000,0.000000,0.025599,500000.000000,90.025596,0.348187,0.000000,0.000000,0.000000,0.000000,0.000000,0.000000,1013.250000,0.000000,25.500000,992,1500,1500,1500,992,1500.000000,1499.999982,1499.999982
0.413200,6871392.279357,3147.005466,-0.000000,0.129719,0.347736,0.348187,42.794506,7616.040835,-16.983157,0.000000,0.000000,0.000000,0.000000,0.000000,0.000000,0.000000,0.026241,500000.000000,90.026237,0.348187,0.000000,0.000000,0.000000,0.000000,0.000000,0.000000,1013.250000,0.000000,25.500000,992,1500,1500,1500,992,1500.000000,1499.999987,1499.999987
0.423300,6871392.243697,3223.928876,-0.000000,0.129719,0.347736,0.348187,42.709263,7616.041312,-16.983675,0.000000,0.000000,0.000000,0.000000,0.000000,0.000000,0.000000,0.026882,500000.000000,90.026879,0.348187,0.000000,0.000000,0.000000,0.000000,0.000000,0.000000,1013.250000,0.000000,25.500000,992,1500,1500,1500,992,1500.000000,1499.999991,1499.999991
0.433400,6871392.207175,3300.852285,-0.000000,0.129719,0.347736,0.348187,42.624016,7616.041788,-16.984194,0.000000,0.000000,0.000000,0.000000,0.000000,0.000000,0.000000,0.027524,500000.000000,90.027520,0.348187,0.000000,0.000000,0.000000,0.000000,0.000000,0.000000,1013.250000,0.000000,25.500000,992,1500,1500,1500,992,1500.000000,1499.999993,1499.999993
0.443500,6871392.169792,3377.775694,-0.000000,0.129719,0.347736,0.348187,42.538765,7616.042264,-16.984712,0.000000,0.000000,0.000000,0.000000,0.000000,0.000000,0.000000,0.028165,500000.000000,90.028162,0.348187,0.000000,0.000000,0.000000,0.000000,0.000000,0.000000,1013.250000,0.000000,25.500000,992,1500,1500,1500,992,1500.000000,1499.999995,1499.999995
0.453600,6871392.131549,3454.699102,-0.000000,0.129719,0.347736,0.348187,42.453512,7616.042738,-16.985231,0.000000,0.000000,0.000000,0.000000,0.000000,0.000000,0.000000,0.028806,500000.000000,90.028803,0.348187,0.000000,0.000000,0.000000,0.000000,0.000000,0.000000,1013.250000,0.000000,25.500000,992,1500,1500,1500,992,1500.000000,1499.999997,1499.999997
0.463700,6871392.092444,3531.622511,-0.000000,0.129719,0.347736,0.348188,42.368258,7616.043212,-16.985749,0.000000,0.000000,0.000000,0.000000,0.000000,0.000000,0.000000,0.029448,500000.000000,90.029445,0.348188,0.000000,0.000000,0.000000,0.000000,0.000000,0.000000,1013.250000,0.000000,25.500000,992,1500,1500,1500,992,1500.000000,1499.999998,1499.999998
0.473800,6871392.052477,3608.545918,-0.000000,0.129719,0.347736,0.348188,42.283003,7616.043685,-16.986268,0.000000,0.000000,0.000000,0.000000,0.000000,0.000000,0.000000,0.030089,500000.000000,90.030086,0.348188,0.000000,0.000000,0.000000,0.000000,0.000000,0.000000,1013.250000,0.000000,25.500000,992,1500,1500,1500,992,1500.000000,1499.999998,1499.999998
0.483900,6871392.011650,3685.469325,-0.000000,0.129719,0.347736,0.348188,42.197747,7616.044156,-16.986786,0.000000,0.000000,0.000000,0.000000,0.000000,0.000000,0.000000,0.030731,500000.000000,90.030727,0.348188,0.000000,0.000000,0.000000,0.000000,0.000000,0.000000,1013.250000,0.000000,25.500000,992,1500,1500,1500,992,1500.000000,1499.999999,1499.999999
0.494000,6871391.969962,3762.392732,-0.000000,0.129719,0.347736,0.348188,42.112490,7616.044627,-16.987305,0.000000,0.000000,0.000000,0.000000,0.000000,0.000000,0.000000,0.031372,500000.000000,90.031369,0.348188,0.000000,0.000000,0.000000,0.000000,0.000000,0.000000,1013.250000,0.000000,25.500000,992,1500,1500,1500,992,1500.000000,1499.999999,1499.999999
0.504100,6871391.927412,3839.316138,-0.000000,0.129719,0.347736,0.348188,42.027233,7616.045097,-16.987823,0.000000,0.000000,0.000000,0.000000,0.000000,0.000000,0.000000,0.032013,500000.000000,90.032010,0.348188,0.000000,0.000000,0.000000,0.000000,0.000000,0.000000,1013.250000,0.000000,25.500000,992,1500,1500,1500,992,1500.000000,1499.999999,1499.999999
0.514200,6871391.884002,3916.239544,-0.000000,0.129719,0.347736,0.348188,41.941975,7616.045566,-16.988342,0.000000,0.000000,0.000000,0.000000,0.000000,0.000000,0.000000,0.032655,500000.000000,90.032652,0.348188,0.000000,0.000000,0.000000,0.000000,0.000000,0.000000,1013.250000,0.000000,25.500000,992,1500,1500,1500,992,1500.000000,1500.000000,1500.000000
0.524300,6871391.839730,3993.162949,-0.000000,0.129719,0.347736,0.348188,41.856718,7616.046034,-16.988860,0.000000,0.000000,0.000000,0.000000,0.000000,0.000000,0.000000,0.033296,500000.000000,90.033293,0.348188,0.000000,0.000000,0.000000,0.000000,0.000000,0.000000,1013.250000,0.000000,25.500000,992,1500,1500,1500,992,1500.000000,1500.000000,1500.000000
0.534400,6871391.794597,4070.086354,-0.000000,0.129719,0.347736,0.348188,41.771460,7616.046501,-16.989379,0.000000,0.000000,0.000000,0.000000,0.000000,0.000000,0.000000,0.033938,500000.000000,90.033934,0.348188,0.000000,0.000000,0.000000,0.000000,0.000000,0.000000,1013.250000,0.000000,25.500000,992,1500,1500,1500,992,1500.000000,1500.000000,1500.000000
0.544500,6871391.748603,4147.009758,-0.000000,0.129719,0.347736,0.348188,41.686202,7616.046967,-16.989897,0.000000,0.000000,0.000000,0.000000,0.000000,0.000000,0.000000,0.034579,500000.000000,90.034576,0.348188,0.000000,0.000000,0.000000,0.000000,0.000000,0.000000,1013.250000,0.000000,25.500000,992,1500,1500,1500,992,1500.000000,1500.000000,1500.000000
0.554600,6871391.701748,4223.933162,-0.000000,0.129719,0.347736,0.348188,41.600944,7616.047432,-16.990416,0.000000,0.000000,0.000000,0.000000,0.000000,0.000000,0.000000,0.035220,500000.000001,90.035217,0.348188,0.000000,0.000000,0.000000,0.000000,0.000000,0.000000,1013.250000,0.000000,25.500000,992,1500,1500,1500,992,1500.000000,1500.000000,1500.000000
0.564700,6871391.654031,4300.856565,-0.000000,0.129719,0.347736,0.348188,41.515686,7616.047896,-16.990934,0.000000,0.000000,0.000000,0.000000,0.000000,0.000000,0.000000,0.035862,500000.000001,90.035859,0.348188,0.000000,0.000000,0.000000,0.000000,0.000000,0.000000,1013.250000,0.000000,25.500000,992,1500,1500,1500,992,1500.000000,1500.000000,1500.000000
0.574800,6871391.605454,4377.779968,-0.000000,0.129719,0.347736,0.348188,41.430428,7616.048359,-16.991453,0.000000,0.000000,0.000000,0.000000,0.000000,0.000000,0.000000,0.036503,500000.000001,90.036500,0.348188,0.000000,0.000000,0.000000,0.000000,0.000000,0.000000,1013.250000,0.000000,25.500000,992,1500,1500,1500,992,1500.000000,1500.000000,1500.000000
0.584900,6871391.556015,4454.703370,-0.000000,0.129719,0.347736,0.348188,41.345169,7616.048821,-16.991971,0.000000,0.000000,0.000000,0.000000,0.000000,0.000000,0.000000,0.037145,500000.000001,90.037141,0.348188,0.000000,0.000000,0.000000,0.000000,0.000000,0.000000,1013.250000,0.000000,25.500000,992,1500,1500,1500,992,1500.000000,1500.000000,1500.000000
0.595000,6871391.505715,4531.626772,-0.000000,0.129719,0.347736,0.348188,41.259911,7616.049282,-16.992490,0.000000,0.000000,0.000000,0.000000,0.000000,0.000000,0.000000,0.037786,500000.000001,90.037783,0.348188,0.000000,0.000000,0.000000,0.000000,0.000000,0.000000,1013.250000,0.000000,25.500000,992,1500,1500,1500,992,1500.000000,1500.000000,1500.000000
0.605100,6871391.454554,4608.550172,-0.000000,0.129719,0.347736,0.348188,41.174653,7616.049742,-16.993008,0.000000,0.000000,0.000000,0.000000,0.000000,0.000000,0.000000,0.038428,500000.000001,90.038424,0.348188,0.000000,0.000000,0.000000,0.000000,0.000000,0.000000,1013.250000,0.000000,25.500000,992,1500,1500,1500,992,1500.000000,1500.000000,1500.000000
0.615200,6871391.402532,4685.473573,-0.000000,0.129719,0.347736,0.348188,41.089395,7616.050202,-16.993527,0.000000,0.000000,0.000000,0.000000,0.000000,0.000000,0.000000,0.039069,500000.000001,90.039066,0.348188,0.000000,0.000000,0.000000,0.000000,0.000000,0.000000,1013.250000,0.000000,25.500000,992,1500,1500,1500,992,1500.000000,1500.000000,1500.000000
0.625300,6871391.349649,4762.396973,-0.000000,0.129719,0.347736,0.348188,41.004137,7616.050660,-16.994045,0.000000,0.000000,0.000000,0.000000,0.000000,0.000000,0.000000,0.039710,500000.000001,90.039707,0.348188,0.000000,0.000000,0.000000,0.000000,0.000000,0.000000,1013.250000,0.000000,25.500000,992,1500,1500,1500,992,1500.000000,1500.000000,1500.000000
0.635400,6871391.295905,4839.320372,-0.000000,0.129719,0.347736,0.348188,40.918878,7616.051117,-16.994564,0.000000,0.000000,0.000000,0.000000,0.000000,0.000000,0.000000,0.040352,500000.000001,90.040349,0.348188,0.000000,0.000000,0.000000,0.000000,0.000000,0.000000,1013.250000,0.000000,25.500000,992,1500,1500,1500,992,1500.000000,1500.000000,1500.000000
0.645500,6871391.241299,4916.243771,-0.000000,0.129719,0.347736,0.348188,40.833620,7616.051574,-16.995082,0.000000,0.000000,0.000000,0.000000,0.000000,0.000000,0.000000,0.040993,500000.000001,90.040990,0.348188,0.000000,0.000000,0.000000,0.000000,0.000000,0.000000,1013.250000,0.000000,25.500000,992,1500,1500,1500,992,1500.000000,1500.000000,1500.000000
0.655600,6871391.185833,4993.167169,-0.000000,0.129719,0.347736,0.348188,40.748362,7616.052029,-16.995601,0.000000,0.000000,0.000000,0.000000,0.000000,0.000000,0.000000,0.041635,500000.000001,90.041631,0.348188,0.000000,0.000000,0.000000,0.000000,0.000000,0.000000,1013.250000,0.000000,25.500000,992,1500,1500,1500,992,1500.000000,1500.000000,1500.000000
0.665700,6871391.129505,5070.090566,-0.000000,0.129719,0.347736,0.348188,40.663103,7616.052484,-16.996119,0.000000,0.000000,0.000000,0.000000,0.000000,0.000000,0.000000,0.042276,500000.000001,90.042273,0.348188,0.000000,0.000000,0.000000,0.000000,0.000000,0.000000,1013.250000,0.000000,25.500000,992,1500,1500,1500,992,1500.000000,1500.000000,1500.000000
0.675800,6871391.072316,5147.013963,-0.000000,0.129719,0.347736,0.348188,40.577845,7616.052937,-16.996638,0.000000,0.000000,0.000000,0.000000,0.000000,0.000000,0.000000,0.042917,500000.000001,90.042914,0.348188,0.000000,0.000000,0.000000,0.000000,0.000000,0.000000,1013.250000,0.000000,25.500000,992,1500,1500,1500,992,1500.000000,1500.000000,1500.000000
0.685900,6871391.014266,5223.937359,-0.000000,0.129719,0.347736,0.348188,40.492587,7616.053390,-16.997156,0.000000,0.000000,0.000000,0.000000,0.000000,0.000000,0.000000,0.043559,500000.000001,90.043556,0.348188,0.000000,0.000000,0.000000,0.000000,0.000000,0.000000,1013.250000,0.000000,25.500000,992,1500,1500,1500,992,1500.000000,1500.000000,1500.000000
0.696000,6871390.955355,5300.860754,-0.000000,0.129719,0.347736,0.348188,40.407329,7616.053842,-16.997674,0.000000,0.000000,0.000000,0.000000,0.000000,0.000000,0.000000,0.044200,500000.000001,90.044197,0.348188,0.000000,0.000000,0.000000,0.000000,0.000000,0.000000,1013.250000,0.000000,25.500000,992,1500,1500,1500,992,1500.000000,1500.000000,1500.000000
0.706100,6871390.895583,5377.784149,-0.000000,0.129719,0.347736,0.348188,40.322070,7616.054292,-16.998193,0.000000,0.000000,0.000000,0.000000,0.000000,0.000000,0.000000,0.044842,500000.000001,90.044838,0.348188,0.000000,0.000000,0.000000,0.000000,0.000000,0.000000,1013.250000,0.000000,25.500000,992,1500,1500,1500,992,1500.000000,1500.000000,1500.000000
0.716200,6871390.834949,5454.707543,-0.000000,0.129719,0.347736,0.348188,40.236812,7616.054742,-16.998711,0.000000,0.000000,0.000000,0.000000,0.000000,0.000000,0.000000,0.045483,500000.000001,90.045480,0.348188,0.000000,0.000000,0.000000,0.000000,0.000000,0.000000,1013.250000,0.000000,25.500000,992,1500,1500,1500,992,1500.000000,1500.000000,1500.000000
0.726300,6871390.773455,5531.630937,-0.000000,0.129719,0.347736,0.348188,40.151554,7616.055191,-16.999230,0.000000,0.000000,0.000000,0.000000,0.000000,0.000000,0.000000,0.046124,500000.000001,90.046121,0.348188,0.000000,0.000000,0.000000,0.000000,0.000000,0.000000,1013.250000,0.000000,25.500000,992,1500,1500,1500,992,1500.000000,1500.000000,1500.000000
0.736400,6871390.711099,5608.554329,-0.000000,0.129719,0.347736,0.348188,40.066295,7616.055639,-16.999748,0.000000,0.000000,0.000000,0.000000,0.000000,0.000000,0.000000,0.046766,500000.000001,90.046763,0.348188,0.000000,0.000000,0.000000,0.000000,0.000000,0.000000,1013.250000,0.000000,25.500000,992,1500,1500,1500,992,1500.000000,1500.000000,1500.000000
0.746500,6871390.647882,5685.477721,-0.000000,0.129719,0.347736,0.348188,39.981037,7616.056086,-17.000267,0.000000,0.000000,0.000000,0.000000,0.000000,0.000000,0.000000,0.047407,500000.000001,90.047404,0.348188,0.000000,0.000000,0.000000,0.000000,0.000000,0.000000,1013.250000,0.000000,25.500000,992,1500,1500,1500,992,1500.000000,1500.000000,1500.000000
0.756600,6871390.583804,5762.401113,-0.000000,0.129719,0.347736,0.348188,39.895779,7616.056532,-17.000785,0.000000,0.000000,0.000000,0.000000,0.000000,0.000000,0.000000,0.048049,500000.000001,90.048045,0.348188,0.000000,0.000000,0.000000,0.000000,0.000000,0.000000,1013.250000,0.000000,25.500000,992,1500,1500,1500,992,1500.000000,1500.000000,1500.000000
0.766700,6871390.518865,5839.324503,-0.000000,0.129719,0.347736,0.348188,39.810520,7616.056977,-17.001304,0.000000,0.000000,0.000000,0.000000,0.000000,0.000000,0.000000,0.048690,500000.000001,90.048687,0.348188,0.000000,0.000000,0.000000,0.000000,0.000000,0.000000,1013.250000,0.000000,25.500000,992,1500,1500,1500,992,1500.000000,1500.000000,1500.000000
0.776800,6871390.453065,5916.247893,-0.000000,0.129719,0.347736,0.348188,39.725262,7616.057421,-17.001822,0.000000,0.000000,0.000000,0.000000,0.000000,0.000000,0.000000,0.049331,500000.000001,90.049328,0.348188,0.000000,0.000000,0.000000,0.000000,0.000000,0.000000,1013.250000,0.000000,25.500000,992,1500,1500,1500,992,1500.000000,1500.000000,1500.000000
0.786900,6871390.386404,5993.171282,-0.000000,0.129719,0.347736,0.348188,39.640004,7616.057864,-17.002341,0.000000,0.000000,0.000000,0.000000,0.000000,0.000000,0.000000,0.049973,500000.000001,90.049970,0.348188,0.000000,0.000000,0.000000,0.000000,0.000000,0.000000,1013.250000,0.000000,25.500000,992,1500,1500,1500,992,1500.000000,1500.000000,1500.000000
0.797000,6871390.318881,6070.094671,-0.000000,0.129719,0.347736,0.348188,39.554745,7616.058306,-17.002859,0.000000,0.000000,0.000000,0.000000,0.000000,0.000000,0.000000,0.050614,500000.000001,90.050611,0.348188,0.000000,0.000000,0.000000,0.000000,0.000000,0.000000,1013.250000,0.000000,25.500000,992,1500,1500,1500,992,1500.000000,1500.000000,1500.000000
0.807100,6871390.250498,6147.018058,-0.000000,0.129719,0.347736,0.348188,39.469487,7616.058747,-17.003378,0.000000,0.000000,0.000000,0.000000,0.000000,0.000000,0.000000,0.051256,500000.000001,90.051253,0.348188,0.000000,0.000000,0.000000,0.000000,0.000000,0.000000,1013.250000,0.000000,25.500000,992,1500,1500,1500,992,1500.000000,1500.000000,1500.000000
0.817200,6871390.181253,6223.941445,-0.000000,0.129719,0.347736,0.348188,39.384229,7616.059187,-17.003896,0.000000,0.000000,0.000000,0.000000,0.000000,0.000000,0.000000,0.051897,500000.000001,90.051894,0.348188,0.000000,0.000000,0.000000,0.000000,0.000000,0.000000,1013.250000,0.000000,25.500000,992,1500,1500,1500,992,1500.000000,1500.000000,1500.000000
0.827300,6871390.111147,6300.864831,-0.000000,0.129719,0.347736,0.348188,39.298970,7616.059626,-17.004414,0.000000,0.000000,0.000000,0.000000,0.000000,0.000000,0.000000,0.052539,500000.000001,90.052535,0.348188,0.000000,0.000000,0.000000,0.000000,0.000000,0.000000,1013.250000,0.000000,25.500000,992,1500,1500,1500,992,1500.000000,1500.000000,1500.000000
0.837400,6871390.040180,6377.788216,-0.000000,0.129719,0.347736,0.348188,39.213712,7616.060065,-17.004933,0.000000,0.000000,0.000000,0.000000,0.000000,0.000000,0.000000,0.053180,500000.000001,90.053177,0.348188,0.000000,0.000000,0.000000,0.000000,0.000000,0.000000,1013.250000,0.000000,25.500000,992,1500,1500,1500,992,1500.000000,1500.000000,1500.000000
0.847500,6871389.968352,6454.711601,-0.000000,0.129719,0.347736,0.348188,39.128453,7616.060502,-17.005451,0.000000,0.000000,0.000000,0.000000,0.000000,0.000000,0.000000,0.053821,500000.000001,90.053818,0.348188,0.000000,0.000000,0.000000,0.000000,0.000000,0.000000,1013.250000,0.000000,25.500000,992,1500,1500,1500,992,1500.000000,1500.000000,1500.000000
0.857600,6871389.895662,6531.634984,-0.000000,0.129719,0.347736,0.348188,39.043195,7616.060938,-17.005970,0.000000,0.000000,0.000000,0.000000,0.000000,0.000000,0.000000,0.054463,500000.000001,90.054460,0.348188,0.000000,0.000000,0.000000,0.000000,0.000000,0.000000,1013.250000,0.000000,25.500000,992,1500,1500,1500,992,1500.000000,1500.000000,1500.000000
0.867700,6871389.822112,6608.558367,-0.000000,0.129719,0.347736,0.348188,38.957937,7616.061374,-17.006488,0.000000,0.000000,0.000000,0.000000,0.000000,0.000000,0.000000,0.055104,500000.000001,90.055101,0.348188,0.000000,0.000000,0.000000,0.000000,0.000000,0.000000,1013.250000,0.000000,25.500000,992,1500,1500,1500,992,1500.000000,1500.000000,1500.000000
0.877800,6871389.747700,6685.481749,-0.000000,0.129719,0.347736,0.348188,38.872678,7616.061808,-17.007007,0.000000,0.000000,0.000000,0.000000,0.000000,0.000000,0.000000,0.055746,500000.000001,90.055742,0.348188,0.000000,0.000000,0.000000,0.000000,0.000000,0.000000,1013.250000,0.000000,25.500000,992,1500,1500,1500,992,1500.000000,1500.000000,1500.000000
0.887900,6871389.672428,6762.405130,-0.000000,0.129719,0.347736,0.348188,38.787420,7616.062242,-17.007525,0.000000,0.000000,0.000000,0.000000,0.000000,0.000000,0.000000,0.056387,500000.000001,90.056384,0.348188,0.000000,0.000000,0.000000,0.000000,0.000000,0.000000,1013.250000,0.000000,25.500000,992,1500,1500,1500,992,1500.000000,1500.000000,1500.000000
0.898000,6871389.596294,6839.328511,-0.000000,0.129719,0.347736,0.348188,38.702161,7616.062674,-17.008044,0.000000,0.000000,0.000000,0.000000,0.000000,0.000000,0.000000,0.057028,500000.000001,90.057025,0.348188,0.000000,0.000000,0.000000,0.000000,0.000000,0.000000,1013.250000,0.000000,25.500000,992,1500,1500,1500,992,1500.000000,1500.000000,1500.000000
0.908100,6871389.519299,6916.251890,-0.000000,0.129719,0.347736,0.348188,38.616903,7616.063106,-17.008562,0.000000,0.000000,0.000000,0.000000,0.000000,0.000000,0.000000,0.057670,500000.000001,90.057667,0.348188,0.000000,0.000000,0.000000,0.000000,0.000000,0.000000,1013.250000,0.000000,25.500000,992,1500,1500,1500,992,1500.000000,1500.000000,1500.000000
0.918200,6871389.441443,6993.175269,-0.000000,0.129719,0.347736,0.348188,38.531645,7616.063537,-17.009080,0.000000,0.000000,0.000000,0.000000,0.000000,0.000000,0.000000,0.058311,500000.000001,90.058308,0.348188,0.000000,0.000000,0.000000,0.000000,0.000000,0.000000,1013.250000,0.000000,25.500000,992,1500,1500,1500,992,1500.000000,1500.000000,1500.000000
0.928300,6871389.362725,7070.098647,-0.000000,0.129719,0.347736,0.348188,38.446386,7616.063966,-17.009599,0.000000,0.000000,0.000000,0.000000,0.000000,0.000000,0.000000,0.058953,500000.000001,90.058949,0.348188,0.000000,0.000000,0.000000,0.000000,0.000000,0.000000,1013.250000,0.000000,25.500000,992,1500,1500,1500,992,1500.000000,1500.000000,1500.000000
0.938400,6871389.283147,7147.022023,-0.000000,0.129719,0.347736,0.348188,38.361128,7616.064395,-17.010117,0.000000,0.000000,0.000000,0.000000,0.000000,0.000000,0.000000,0.059594,500000.000001,90.059591,0.348188,0.000000,0.000000,0.000000,0.000000,0.000000,0.000000,1013.250000,0.000000,25.500000,992,1500,1500,1500,992,1500.000000,1500.000000,1500.000000
0.948500,6871389.202707,7223.945399,-0.000000,0.129719,0.347736,0.348188,38.275869,7616.064823,-17.010636,0.000000,0.000000,0.000000,0.000000,0.000000,0.000000,0.000000,0.060235,500000.000002,90.060232,0.348188,0.000000,0.000000,0.000000,0.000000,0.000000,0.000000,1013.250000,0.000000,25.500000,992,1500,1500,1500,992,1500.000000,1500.000000,1500.000000
0.958600,6871389.121407,7300.868774,-0.000000,0.129719,0.347736,0.348188,38.190611,7616.065250,-17.011154,0.000000,0.000000,0.000000,0.000000,0.000000,0.000000,0.000000,0.060877,500000.000002,90.060874,0.348188,0.000000,0.000000,0.000000,0.000000,0.000000,0.000000,1013.250000,0.000000,25.500000,992,1500,1500,1500,992,1500.000000,1500.000000,1500.000000
0.968700,6871389.039245,7377.792148,-0.000000,0.129719,0.347736,0.348188,38.105352,7616.065676,-17.011672,0.000000,0.000000,0.000000,0.000000,0.000000,0.000000,0.000000,0.061518,500000.000002,90.061515,0.348188,0.000000,0.000000,0.000000,0.000000,0.000000,0.000000,1013.250000,0.000000,25.500000,992,1500,1500,1500,992,1500.000000,1500.000000,1500.000000
0.978800,6871388.956222,7454.715522,-0.000000,0.129719,0.347736,0.348188,38.020094,7616.066101,-17.012191,0.000000,0.000000,0.000000,0.000000,0.000000,0.000000,0.000000,0.062160,500000.000002,90.062157,0.348188,0.000000,0.000000,0.000000,0.000000,0.000000,0.000000,1013.250000,0.000000,25.500000,992,1500,1500,1500,992,1500.000000,1500.000000,1500.000000
0.988900,6871388.872338,7531.638894,-0.000000,0.129719,0.347736,0.348188,37.934836,7616.066525,-17.012709,0.000000,0.000000,0.000000,0.000000,0.000000,0.000000,0.000000,0.062801,500000.000002,90.062798,0.348188,0.000000,0.000000,0.000000,0.000000,0.000000,0.000000,1013.250000,0.000000,25.500000,992,1500,1500,1500,992,1500.000000,1500.000000,1500.000000
0.999000,6871388.787593,7608.562265,-0.000000,0.129719,0.347736,0.348188,37.849577,7616.066948,-17.013228,0.000000,0.000000,0.000000,0.000000,0.000000,0.000000,0.000000,0.063443,500000.000002,90.063439,0.348188,0.000000,0.000000,0.000000,0.000000,0.000000,0.000000,1013.250000,0.000000,25.500000,992,1500,1500,1500,992,1500.000000,1500.000000,1500.000000
1.009100,6871388.701986,7685.485636,-0.000000,0.129719,0.347736,0.348188,37.764319,7616.067370,-17.013746,0.000000,0.000000,0.000000,0.000000,0.000000,0.000000,0.000000,0.064084,500000.000002,90.064081,0.348188,0.000000,0.000000,0.000000,0.000000,0.000000,0.000000,1013.250000,0.000000,25.500000,992,1500,1500,1500,992,1500.000000,1500.000000,1500.000000
1.019200,6871388.615519,7762.409005,-0.000000,0.129719,0.347736,0.348188,37.679060,7616.067791,-17.014265,0.000000,0.000000,0.000000,0.000000,0.000000,0.000000,0.000000,0.064725,500000.000002,90.064722,0.348188,0.000000,0.000000,0.000000,0.000000,0.000000,0.000000,1013.250000,0.000000,25.500000,992,1500,1500,1500,992,1500.000000,1500.000000,1500.000000
1.029300,6871388.528190,7839.332373,-0.000000,0.129719,0.347736,0.348188,37.593802,7616.068211,-17.014783,0.000000,0.000000,0.000000,0.000000,0.000000,0.000000,0.000000,0.065367,500000.000002,90.065364,0.348188,0.000000,0.000000,0.000000,0.000000,0.000000,0.000000,1013.250000,0.000000,25.500000,992,1500,1500,1500,992,1500.000000,1500.000000,1500.000000
1.039400,6871388.440000,7916.255741,-0.000000,0.129719,0.347736,0.348188,37.508543,7616.068630,-17.015301,0.000000,0.000000,0.000000,0.000000,0.000000,0.000000,0.000000,0.066008,500000.000002,90.066005,0.348188,0.000000,0.000000,0.000000,0.000000,0.000000,0.000000,1013.250000,0.000000,25.500000,992,1500,1500,1500,992,1500.000000,1500.000000,1500.000000
1.049500,6871388.350949,7993.179107,-0.000000,0.129719,0.347736,0.348188,37.423285,7616.069049,-17.015820,0.000000,0.000000,0.000000,0.000000,0.000000,0.000000,0.000000,0.066650,500000.000002,90.066646,0.348188,0.000000,0.000000,0.000000,0.000000,0.000000,0.000000,1013.250000,0.000000,25.500000,992,1500,1500,1500,992,1500.000000,1500.000000,1500.000000
1.059600,6871388.261037,8070.102473,-0.000000,0.129719,0.347736,0.348188,37.338026,7616.069466,-17.016338,0.000000,0.000000,0.000000,0.000000,0.000000,0.000000,0.000000,0.067291,500000.000002,90.067288,0.348188,0.000000,0.000000,0.000000,0.000000,0.000000,0.000000,1013.250000,0.000000,25.500000,992,1500,1500,1500,992,1500.000000,1500.000000,1500.000000
1.069700,6871388.170264,8147.025837,-0.000000,0.129719,0.347736,0.348188,37.252768,7616.069882,-17.016857,0.000000,0.000000,0.000000,0.000000,0.000000,0.000000,0.000000,0.067932,500000.000002,90.067929,0.348188,0.000000,0.000000,0.000000,0.000000,0.000000,0.000000,1013.250000,0.000000,25.500000,992,1500,1500,1500,992,1500.000000,1500.000000,1500.000000
1.079800,6871388.078630,8223.949201,-0.000000,0.129719,0.347736,0.348188,37.167509,7616.070298,-17.017375,0.000000,0.000000,0.000000,0.000000,0.000000,0.000000,0.000000,0.068574,500000.000002,90.068571,0.348188,0.000000,0.000000,0.000000,0.000000,0.000000,0.000000,1013.250000,0.000000,25.500000,992,1500,1500,1500,992,1500.000000,1500.000000,1500.000000
1.089900,6871387.986134,8300.872563,-0.000000,0.129719,0.347736,0.348188,37.082251,7616.070712,-17.017893,0.000000,0.000000,0.000000,0.000000,0.000000,0.000000,0.000000,0.069215,500000.000002,90.069212,0.348188,0.000000,0.000000,0.000000,0.000000,0.000000,0.000000,1013.250000,0.000000,25.500000,992,1500,1500,1500,992,1500.000000,1500.000000,1500.000000
1.100000,6871387.892778,8377.795924,-0.000000,0.129719,0.347736,0.348188,36.996992,7616.071125,-17.018412,0.000000,0.000000,0.000000,0.000000,0.000000,0.000000,0.000000,0.069857,500000.000002,90.069853,0.348188,0.000000,0.000000,0.000000,0.000000,0.000000,0.000000,1013.250000,0.000000,25.500000,992,1500,1500,1500,992,1500.000000,1500.000000,1500.000000
1.110100,6871387.798560,8454.719285,-0.000000,0.129719,0.347736,0.348188,36.911734,7616.071538,-17.018930,0.000000,0.000000,0.000000,0.000000,0.000000,0.000000,0.000000,0.070498,500000.000002,90.070495,0.348188,0.000000,0.000000,0.000000,0.000000,0.000000,0.000000,1013.250000,0.000000,25.500000,992,1500,1500,1500,992,1500.000000,1500.000000,1500.000000
1.120200,6871387.703481,8531.642644,-0.000000,0.129719,0.347736,0.348188,36.826475,7616.071950,-17.019448,0.000000,0.000000,0.000000,0.000000,0.000000,0.000000,0.000000,0.071139,500000.000002,90.071136,0.348188,0.000000,0.000000,0.000000,0.000000,0.000000,0.000000,1013.250000,0.000000,25.500000,992,1500,1500,1500,992,1500.000000,1500.000000,1500.000000
1.130300,6871387.607541,8608.566002,-0.000000,0.129719,0.347736,0.348188,36.741217,7616.072360,-17.019967,0.000000,0.000000,0.000000,0.000000,0.000000,0.000000,0.000000,0.071781,500000.000002,90.071778,0.348188,0.000000,0.000000,0.000000,0.000000,0.000000,0.000000,1013.250000,0.000000,25.500000,992,1500,1500,1500,992,1500.000000,1500.000000,1500.000000
1.140400,6871387.510740,8685.489359,-0.000000,0.129719,0.347736,0.348188,36.655958,7616.072770,-17.020485,0.000000,0.000000,0.000000,0.000000,0.000000,0.000000,0.000000,0.072422,500000.000002,90.072419,0.348188,0.000000,0.000000,0.000000,0.000000,0.000000,0.000000,1013.250000,0.000000,25.500000,992,1500,1500,1500,992,1500.000000,1500.000000,1500.000000
1.150500,6871387.413078,8762.412715,-0.000000,0.129719,0.347736,0.348188,36.570700,7616.073179,-17.021004,0.000000,0.000000,0.000000,0.000000,0.000000,0.000000,0.000000,0.073064,500000.000002,90.073060,0.348188,0.000000,0.000000,0.000000,0.000000,0.000000,0.000000,1013.250000,0.000000,25.500000,992,1500,1500,1500,992,1500.000000,1500.000000,1500.000000
1.160600,6871387.314554,8839.336070,-0.000000,0.129719,0.347736,0.348188,36.485441,7616.073586,-17.021522,0.000000,0.000000,0.000000,0.000000,0.000000,0.000000,0.000000,0.073705,500000.000002,90.073702,0.348188,0.000000,0.000000,0.000000,0.000000,0.000000,0.000000,1013.250000,0.000000,25.500000,992,1500,1500,1500,992,1500.000000,1500.000000,1500.000000
1.170700,6871387.215170,8916.259424,-0.000000,0.129719,0.347736,0.348188,36.400183,7616.073993,-17.022040,0.000000,0.000000,0.000000,0.000000,0.000000,0.000000,0.000000,0.074347,500000.000002,90.074343,0.348188,0.000000,0.000000,0.000000,0.000000,0.000000,0.000000,1013.250000,0.000000,25.500000,992,1500,1500,1500,992,1500.000000,1500.000000,1500.000000
1.180800,6871387.114924,8993.182777,-0.000000,0.129719,0.347736,0.348188,36.314924,7616.074399,-17.022559,0.000000,0.000000,0.000000,0.000000,0.000000,0.000000,0.000000,0.074988,500000.000002,90.074985,0.348188,0.000000,0.000000,0.000000,0.000000,0.000000,0.000000,1013.250000,0.000000,25.500000,992,1500,1500,1500,992,1500.000000,1500.000000,1500.000000
1.190900,6871387.013817,9070.106128,-0.000000,0.129719,0.347736,0.348188,36.229666,7616.074804,-17.023077,0.000000,0.000000,0.000000,0.000000,0.000000,0.000000,0.000000,0.075629,500000.000002,90.075626,0.348188,0.000000,0.000000,0.000000,0.000000,0.000000,0.000000,1013.250000,0.000000,25.500000,992,1500,1500,1500,992,1500.000000,1500.000000,1500.000000
1.201000,6871386.911849,9147.029479,-0.000000,0.129719,0.347736,0.348188,36.144407,7616.075208,-17.023596,0.000000,0.000000,0.000000,0.000000,0.000000,0.000000,0.000000,0.076271,500000.000002,90.076268,0.348188,0.000000,0.000000,0.000000,0.000000,0.000000,0.000000,1013.250000,0.000000,25.500000,992,1500,1500,1500,992,1500.000000,1500.000000,1500.000000
1.211100,6871386.809020,9223.952828,-0.000000,0.129719,0.347736,0.348188,36.059149,7616.075611,-17.024114,0.000000,0.000000,0.000000,0.000000,0.000000,0.000000,0.000000,0.076912,500000.000002,90.076909,0.348188,0.000000,0.000000,0.000000,0.000000,0.000000,0.000000,1013.250000,0.000000,25.500000,992,1500,1500,1500,992,1500.000000,1500.000000,1500.000000
1.221200,6871386.705330,9300.876176,-0.000000,0.129719,0.347736,0.348188,35.973890,7616.076013,-17.024632,0.000000,0.000000,0.000000,0.000000,0.000000,0.000000,0.000000,0.077554,500000.000002,90.077550,0.348188,0.000000,0.000000,0.000000,0.000000,0.000000,0.000000,1013.250000,0.000000,25.500000,992,1500,1500,1500,992,1500.000000,1500.000000,1500.000000
1.231300,6871386.600779,9377.799523,-0.000000,0.129719,0.347736,0.348188,35.888631,7616.076414,-17.025151,0.000000,0.000000,0.000000,0.000000,0.000000,0.000000,0.000000,0.078195,500000.000003,90.078192,0.348188,0.000000,0.000000,0.000000,0.000000,0.000000,0.000000,1013.250000,0.000000,25.500000,992,1500,1500,1500,992,1500.000000,1500.000000,1500.000000
1.241400,6871386.495366,9454.722869,-0.000000,0.129719,0.347736,0.348188,35.803373,7616.076814,-17.025669,0.000000,0.000000,0.000000,0.000000,0.000000,0.000000,0.000000,0.078836,500000.000003,90.078833,0.348188,0.000000,0.000000,0.000000,0.000000,0.000000,0.000000,1013.250000,0.000000,25.500000,992,1500,1500,1500,992,1500.000000,1500.000000,1500.000000
1.251500,6871386.389092,9531.646213,-0.000000,0.129719,0.347736,0.348188,35.718114,7616.077213,-17.026187,0.000000,0.000000,0.000000,0.000000,0.000000,0.000000,0.000000,0.079478,500000.000003,90.079475,0.348188,0.000000,0.000000,0.000000,0.000000,0.000000,0.000000,1013.250000,0.000000,25.500000,992,1500,1500,1500,992,1500.000000,1500.000000,1500.000000
1.261600,6871386.281958,9608.569557,-0.000000,0.129719,0.347736,0.348188,35.632856,7616.077611,-17.026706,0.000000,0.000000,0.000000,0.000000,0.000000,0.000000,0.000000,0.080119,500000.000003,90.080116,0.348188,0.000000,0.000000,0.000000,0.000000,0.000000,0.000000,1013.250000,0.000000,25.500000,992,1500,1500,1500,992,1500.000000,1500.000000,1500.000000
1.271700,6871386.173962,9685.492899,-0.000000,0.129719,0.347736,0.348188,35.547597,7616.078009,-17.027224,0.000000,0.000000,0.000000,0.000000,0.000000,0.000000,0.000000,0.080761,500000.000003,90.080757,0.348188,0.000000,0.000000,0.000000,0.000000,0.000000,0.000000,1013.250000,0.000000,25.500000,992,1500,1500,1500,992,1500.000000,1500.000000,1500.000000
1.281800,6871386.065105,9762.416240,-0.000000,0.129719,0.347736,0.348188,35.462339,7616.078405,-17.027742,0.000000,0.000000,0.000000,0.000000,0.000000,0.000000,0.000000,0.081402,500000.000003,90.081399,0.348188,0.000000,0.000000,0.000000,0.000000,0.000000,0.000000,1013.250000,0.000000,25.500000,992,1500,1500,1500,992,1500.000000,1500.000000,1500.000000
1.291900,6871385.955387,9839.339580,-0.000000,0.129719,0.347736,0.348188,35.377080,7616.078800,-17.028261,0.000000,0.000000,0.000000,0.000000,0.000000,0.000000,0.000000,0.082043,500000.000003,90.082040,0.348188,0.000000,0.000000,0.000000,0.000000,0.000000,0.000000,1013.250000,0.000000,25.500000,992,1500,1500,1500,992,1500.000000,1500.000000,1500.000000
1.302000,6871385.844807,9916.262918,-0.000000,0.129719,0.347736,0.348188,35.291821,7616.079195,-17.028779,0.000000,0.000000,0.000000,0.000000,0.000000,0.000000,0.000000,0.082685,500000.000003,90.082682,0.348188,0.000000,0.000000,0.000000,0.000000,0.000000,0.000000,1013.250000,0.000000,25.500000,992,1500,1500,1500,992,1500.000000,1500.000000,1500.000000
1.312100,6871385.733367,9993.186255,-0.000000,0.129719,0.347736,0.348188,35.206563,7616.079588,-17.029297,0.000000,0.000000,0.000000,0.000000,0.000000,0.000000,0.000000,0.083326,500000.000003,90.083323,0.348188,0.000000,0.000000,0.000000,0.000000,0.000000,0.000000,1013.250000,0.000000,25.500000,992,1500,1500,1500,992,1500.000000,1500.000000,1500.000000
1.322200,6871385.621065,10070.109591,-0.000000,0.129719,0.347736,0.348188,35.121304,7616.079981,-17.029816,0.000000,0.000000,0.000000,0.000000,0.000000,0.000000,0.000000,0.083968,500000.000003,90.083964,0.348188,0.000000,0.000000,0.000000,0.000000,0.000000,0.000000,1013.250000,0.000000,25.500000,992,1500,1500,1500,992,1500.000000,1500.000000,1500.000000
1.332300,6871385.507902,10147.032926,-0.000000,0.129719,0.347736,0.348188,35.036046,7616.080372,-17.030334,0.000000,0.000000,0.000000,0.000000,0.000000,0.000000,0.000000,0.084609,500000.000003,90.084606,0.348188,0.000000,0.000000,0.000000,0.000000,0.000000,0.000000,1013.250000,0.000000,25.500000,992,1500,1500,1500,992,1500.000000,1500.000000,1500.000000
1.342400,6871385.393879,10223.956260,-0.000000,0.129719,0.347736,0.348188,34.950787,7616.080763,-17.030852,0.000000,0.000000,0.000000,0.000000,0.000000,0.000000,0.000000,0.085251,500000.000003,90.085247,0.348188,0.000000,0.000000,0.000000,0.000000,0.000000,0.000000,1013.250000,0.000000,25.500000,992,1500,1500,1500,992,1500.000000,1500.000000,1500.000000
1.352500,6871385.278994,10300.879592,-0.000000,0.129719,0.347736,0.348188,34.865528,7616.081152,-17.031371,0.000000,0.000000,0.000000,0.000000,0.000000,0.000000,0.000000,0.085892,500000.000003,90.085889,0.348188,0.000000,0.000000,0.000000,0.000000,0.000000,0.000000,1013.250000,0.000000,25.500000,992,1500,1500,1500,992,1500.000000,1500.000000,1500.000000
1.362600,6871385.163248,10377.802923,-0.000000,0.129719,0.347736,0.348188,34.780270,7616.081541,-17.031889,0.000000,0.000000,0.000000,0.000000,0.000000,0.000000,0.000000,0.086533,500000.000003,90.086530,0.348188,0.000000,0.000000,0.000000,0.000000,0.000000,0.000000,1013.250000,0.000000,25.500000,992,1500,1500,1500,992,1500.000000,1500.000000,1500.000000
1.372700,6871385.046640,10454.726252,-0.000000,0.129719,0.347736,0.348188,34.695011,7616.081929,-17.032407,0.000000,0.000000,0.000000,0.000000,0.000000,0.000000,0.000000,0.087175,500000.000003,90.087172,0.348188,0.000000,0.000000,0.000000,0.000000,0.000000,0.000000,1013.250000,0.000000,25.500000,992,1500,1500,1500,992,1500.000000,1500.000000,1500.000000
1.382800,6871384.929172,10531.649581,-0.000000,0.129719,0.347736,0.348188,34.609753,7616.082316,-17.032926,0.000000,0.000000,0.000000,0.000000,0.000000,0.000000,0.000000,0.087816,500000.000003,90.087813,0.348188,0.000000,0.000000,0.000000,0.000000,0.000000,0.000000,1013.250000,0.000000,25.500000,992,1500,1500,1500,992,1500.000000,1500.000000,1500.000000
1.392900,6871384.810842,10608.572908,-0.000000,0.129719,0.347736,0.348188,34.524494,7616.082701,-17.033444,0.000000,0.000000,0.000000,0.000000,0.000000,0.000000,0.000000,0.088458,500000.000003,90.088454,0.348188,0.000000,0.000000,0.000000,0.000000,0.000000,0.000000,1013.250000,0.000000,25.500000,992,1500,1500,1500,992,1500.000000,1500.000000,1500.000000
1.403000,6871384.691652,10685.496233,-0.000000,0.129719,0.347736,0.348188,34.439235,7616.083086,-17.033962,0.000000,0.000000,0.000000,0.000000,0.000000,0.000000,0.000000,0.089099,500000.000003,90.089096,0.348188,0.000000,0.000000,0.000000,0.000000,0.000000,0.000000,1013.250000,0.000000,25.500000,992,1500,1500,1500,992,1500.000000,1500.000000,1500.000000
1.413100,6871384.571600,10762.419558,-0.000000,0.129719,0.347736,0.348188,34.353977,7616.083470,-17.034481,0.000000,0.000000,0.000000,0.000000,0.000000,0.000000,0.000000,0.089740,500000.000003,90.089737,0.348188,0.000000,0.000000,0.000000,0.000000,0.000000,0.000000,1013.250000,0.000000,25.500000,992,1500,1500,1500,992,1500.000000,1500.000000,1500.000000
1.423200,6871384.450687,10839.342881,-0.000000,0.129719,0.347736,0.348188,34.268718,7616.083853,-17.034999,0.000000,0.000000,0.000000,0.000000,0.000000,0.000000,0.000000,0.090382,500000.000003,90.090379,0.348188,0.000000,0.000000,0.000000,0.000000,0.000000,0.000000,1013.250000,0.000000,25.500000,992,1500,1500,1500,992,1500.000000,1500.000000,1500.000000
1.433300,6871384.328913,10916.266202,-0.000000,0.129719,0.347736,0.348188,34.183459,7616.084235,-17.035517,0.000000,0.000000,0.000000,0.000000,0.000000,0.000000,0.000000,0.091023,500000.000003,90.091020,0.348188,0.000000,0.000000,0.000000,0.000000,0.000000,0.000000,1013.250000,0.000000,25.500000,992,1500,1500,1500,992,1500.000000,1500.000000,1500.000000
1.443400,6871384.206278,10993.189522,-0.000000,0.129719,0.347736,0.348188,34.098201,7616.084616,-17.036036,0.000000,0.000000,0.000000,0.000000,0.000000,0.000000,0.000000,0.091665,500000.000003,90.091661,0.348188,0.000000,0.000000,0.000000,0.000000,0.000000,0.000000,1013.250000,0.000000,25.500000,992,1500,1500,1500,992,1500.000000,1500.000000,1500.000000
1.453500,6871384.082781,11070.112841,-0.000000,0.129719,0.347736,0.348188,34.012942,7616.084996,-17.036554,0.000000,0.000000,0.000000,0.000000,0.000000,0.000000,0.000000,0.092306,500000.000004,90.092303,0.348188,0.000000,0.000000,0.000000,0.000000,0.000000,0.000000,1013.250000,0.000000,25.500000,992,1500,1500,1500,992,1500.000000,1500.000000,1500.000000
1.463600,6871383.958424,11147.036159,-0.000000,0.129719,0.347736,0.348188,33.927683,7616.085375,-17.037072,0.000000,0.000000,0.000000,0.000000,0.000000,0.000000,0.000000,0.092947,500000.000004,90.092944,0.348188,0.000000,0.000000,0.000000,0.000000,0.000000,0.000000,1013.250000,0.000000,25.500000,992,1500,1500,1500,992,1500.000000,1500.000000,1500.000000
1.473700,6871383.833205,11223.959475,-0.000000,0.129719,0.347736,0.348188,33.842425,7616.085753,-17.037591,0.000000,0.000000,0.000000,0.000000,0.000000,0.000000,0.000000,0.093589,500000.000004,90.093586,0.348188,0.000000,0.000000,0.000000,0.000000,0.000000,0.000000,1013.250000,0.000000,25.500000,992,1500,1500,1500,992,1500.000000,1500.000000,1500.000000
1.483800,6871383.707125,11300.882790,-0.000000,0.129719,0.347736,0.348188,33.757166,7616.086131,-17.038109,0.000000,0.000000,0.000000,0.000000,0.000000,0.000000,0.000000,0.094230,500000.000004,90.094227,0.348188,0.000000,0.000000,0.000000,0.000000,0.000000,0.000000,1013.250000,0.000000,25.500000,992,1500,1500,1500,992,1500.000000,1500.000000,1500.000000
1.493900,6871383.580184,11377.806103,-0.000000,0.129719,0.347736,0.348188,33.671907,7616.086507,-17.038627,0.000000,0.000000,0.000000,0.000000,0.000000,0.000000,0.000000,0.094872,500000.000004,90.094868,0.348188,0.000000,0.000000,0.000000,0.000000,0.000000,0.000000,1013.250000,0.000000,25.500000,992,1500,1500,1500,992,1500.000000,1500.000000,1500.000000
1.504000,6871383.452382,11454.729415,-0.000000,0.129719,0.347736,0.348188,33.586649,7616.086882,-17.039146,0.000000,0.000000,0.000000,0.000000,0.000000,0.000000,0.000000,0.095513,500000.000004,90.095510,0.348188,0.000000,0.000000,0.000000,0.000000,0.000000,0.000000,1013.250000,0.000000,25.500000,992,1500,1500,1500,992,1500.000000,1500.000000,1500.000000
1.514100,6871383.323719,11531.652725,-0.000000,0.129719,0.347736,0.348188,33.501390,7616.087257,-17.039664,0.000000,0.000000,0.000000,0.000000,0.000000,0.000000,0.000000,0.096154,500000.000004,90.096151,0.348188,0.000000,0.000000,0.000000,0.000000,0.000000,0.000000,1013.250000,0.000000,25.500000,992,1500,1500,1500,992,1500.000000,1500.000000,1500.000000
1.524200,6871383.194195,11608.576034,-0.000000,0.129719,0.347736,0.348188,33.416131,7616.087630,-17.040182,0.000000,0.000000,0.000000,0.000000,0.000000,0.000000,0.000000,0.096796,500000.000004,90.096793,0.348188,0.000000,0.000000,0.000000,0.000000,0.000000,0.000000,1013.250000,0.000000,25.500000,992,1500,1500,1500,992,1500.000000,1500.000000,1500.000000
1.534300,6871383.063810,11685.499341,-0.000000,0.129719,0.347736,0.348188,33.330873,7616.088002,-17.040700,0.000000,0.000000,0.000000,0.000000,0.000000,0.000000,0.000000,0.097437,500000.000004,90.097434,0.348188,0.000000,0.000000,0.000000,0.000000,0.000000,0.000000,1013.250000,0.000000,25.500000,992,1500,1500,1500,992,1500.000000,1500.000000,1500.000000
1.544400,6871382.932563,11762.422648,-0.000000,0.129719,0.347736,0.348188,33.245614,7616.088374,-17.041219,0.000000,0.000000,0.000000,0.000000,0.000000,0.000000,0.000000,0.098079,500000.000004,90.098075,0.348188,0.000000,0.000000,0.000000,0.000000,0.000000,0.000000,1013.250000,0.000000,25.500000,992,1500,1500,1500,992,1500.000000,1500.000000,1500.000000
1.554500,6871382.800455,11839.345952,-0.000000,0.129719,0.347736,0.348188,33.160355,7616.088744,-17.041737,0.000000,0.000000,0.000000,0.000000,0.000000,0.000000,0.000000,0.098720,500000.000004,90.098717,0.348188,0.000000,0.000000,0.000000,0.000000,0.000000,0.000000,1013.250000,0.000000,25.500000,992,1500,1500,1500,992,1500.000000,1500.000000,1500.000000
1.564600,6871382.667486,11916.269255,-0.000000,0.129719,0.347736,0.348188,33.075097,7616.089114,-17.042255,0.000000,0.000000,0.000000,0.000000,0.000000,0.000000,0.000000,0.099362,500000.000004,90.099358,0.348188,0.000000,0.000000,0.000000,0.000000,0.000000,0.000000,1013.250000,0.000000,25.500000,992,1500,1500,1500,992,1500.000000,1500.000000,1500.000000
1.574700,6871382.533656,11993.192557,-0.000000,0.129719,0.347736,0.348188,32.989838,7616.089483,-17.042774,0.000000,0.000000,0.000000,0.000000,0.000000,0.000000,0.000000,0.100003,500000.000004,90.100000,0.348188,0.000000,0.000000,0.000000,0.000000,0.000000,0.000000,1013.250000,0.000000,25.500000,992,1500,1500,1500,992,1500.000000,1500.000000,1500.000000
1.584800,6871382.398965,12070.115857,-0.000000,0.129719,0.347736,0.348188,32.904579,7616.089850,-17.043292,0.000000,0.000000,0.000000,0.000000,0.000000,0.000000,0.000000,0.100644,500000.000004,90.100641,0.348188,0.000000,0.000000,0.000000,0.000000,0.000000,0.000000,1013.250000,0.000000,25.500000,992,1500,1500,1500,992,1500.000000,1500.000000,1500.000000
1.594900,6871382.263413,12147.039155,-0.000000,0.129719,0.347736,0.348188,32.819320,7616.090217,-17.043810,0.000000,0.000000,0.000000,0.000000,0.000000,0.000000,0.000000,0.101286,500000.000004,90.101283,0.348188,0.000000,0.000000,0.000000,0.000000,0.000000,0.000000,1013.250000,0.000000,25.500000,992,1500,1500,1500,992,1500.000000,1500.000000,1500.000000
1.605000,6871382.127000,12223.962452,-0.000000,0.129719,0.347736,0.348188,32.734062,7616.090583,-17.044328,0.000000,0.000000,0.000000,0.000000,0.000000,0.000000,0.000000,0.101927,500000.000004,90.101924,0.348188,0.000000,0.000000,0.000000,0.000000,0.000000,0.000000,1013.250000,0.000000,25.500000,992,1500,1500,1500,992,1500.000000,1500.000000,1500.000000
1.615100,6871381.989725,12300.885748,-0.000000,0.129719,0.347736,0.348188,32.648803,7616.090948,-17.044847,0.000000,0.000000,0.000000,0.000000,0.000000,0.000000,0.000000,0.102569,500000.000004,90.102565,0.348188,0.000000,0.000000,0.000000,0.000000,0.000000,0.000000,1013.250000,0.000000,25.500000,992,1500,1500,1500,992,1500.000000,1500.000000,1500.000000
1.625200,6871381.851589,12377.809042,-0.000000,0.129719,0.347736,0.348188,32.563544,7616.091311,-17.045365,0.000000,0.000000,0.000000,0.000000,0.000000,0.000000,0.000000,0.103210,500000.000004,90.103207,0.348188,0.000000,0.000000,0.000000,0.000000,0.000000,0.000000,1013.250000,0.000000,25.500000,992,1500,1500,1500,992,1500.000000,1500.000000,1500.000000
1.635300,6871381.712593,12454.732334,-0.000000,0.129719,0.347736,0.348188,32.478286,7616.091674,-17.045883,0.000000,0.000000,0.000000,0.000000,0.000000,0.000000,0.000000,0.103851,500000.000004,90.103848,0.348188,0.000000,0.000000,0.000000,0.000000,0.000000,0.000000,1013.250000,0.000000,25.500000,992,1500,1500,1500,992,1500.000000,1500.000000,1500.000000
1.645400,6871381.572735,12531.655625,-0.000000,0.129719,0.347736,0.348188,32.393027,7616.092036,-17.046402,0.000000,0.000000,0.000000,0.000000,0.000000,0.000000,0.000000,0.104493,500000.000005,90.104490,0.348188,0.000000,0.000000,0.000000,0.000000,0.000000,0.000000,1013.250000,0.000000,25.500000,992,1500,1500,1500,992,1500.000000,1500.000000,1500.000000
1.655500,6871381.432016,12608.578914,-0.000000,0.129719,0.347736,0.348188,32.307768,7616.092397,-17.046920,0.000000,0.000000,0.000000,0.000000,0.000000,0.000000,0.000000,0.105134,500000.000005,90.105131,0.348188,0.000000,0.000000,0.000000,0.000000,0.000000,0.000000,1013.250000,0.000000,25.500000,992,1500,1500,1500,992,1500.000000,1500.000000,1500.000000
1.665600,6871381.290435,12685.502202,-0.000000,0.129719,0.347736,0.348188,32.222509,7616.092757,-17.047438,0.000000,0.000000,0.000000,0.000000,0.000000,0.000000,0.000000,0.105776,500000.000005,90.105772,0.348188,0.000000,0.000000,0.000000,0.000000,0.000000,0.000000,1013.250000,0.000000,25.500000,992,1500,1500,1500,992,1500.000000,1500.000000,1500.000000
1.675700,6871381.147994,12762.425488,-0.000000,0.129719,0.347736,0.348188,32.137251,7616.093116,-17.047956,0.000000,0.000000,0.000000,0.000000,0.000000,0.000000,0.000000,0.106417,500000.000005,90.106414,0.348188,0.000000,0.000000,0.000000,0.000000,0.000000,0.000000,1013.250000,0.000000,25.500000,992,1500,1500,1500,992,1500.000000,1500.000000,1500.000000
