Time (sec) ,X(m) ,Y(m) ,Z(m) ,Roll (deg) ,Pitch (deg) ,Yaw (deg) ,U(m/s) ,V(m/s) ,W(m/s) ,P(rad/s) ,Q(rad/s) ,R(rad/s) ,Mx(Gauss) ,My(Gauss) ,Mz(Gauss) ,GPS Latitude (deg) ,GPS Longitude (deg) ,GPS Altitude (m) ,GPS Heading (deg) ,Yaw (deg) ,Analog 1 (V) ,Analog 2 (V) ,Analog 3 (V) ,Analog 4 (V) ,Analog 5 (V) ,Analog 6 (V) ,Pressure (Pa) ,Pressure Altitude (m) ,Temperature (C) ,RC Channel #1 ,RC Channel #2 ,RC Channel #3 ,RC Channel #4 ,RC Channel #5 ,PWM Model 1 ,PWM Model 2 
 0.000000,6871393.000000,0.000000,0.000000,0.000000,0.000000,0.000000,0.000000,7616.180000,0.000000,0.200000,0.200000,0.200000,0.000000,0.000000,0.000000,0.000000,0.000000,500000.000000,0.000000,0.000000,0.000000,0.000000,0.000000,0.000000,0.000000,0.000000,1013.250000,-0.000000,25.500000,992,1500,1500,1500,992,1500.000000,1500.000000
0.010100,6871392.999569,76.923418,0.000000,0.112976,0.111902,0.115780,15.305067,7616.149875,-14.987669,0.190144,0.187280,0.199772,0.000000,0.000000,0.000000,0.000000,0.000641,500000.000000,90.000638,0.115780,0.000000,0.000000,0.000000,0.000000,0.000000,0.000000,1013.250000,-0.000000,25.500000,992,1500,1500,1500,992,1499.347078,1497.876642
0.020200,6871392.998278,153.846836,0.000000,0.220609,0.216456,0.231631,30.619238,7616.062440,-29.208953,0.180773,0.175368,0.199568,0.000000,0.000000,0.000000,0.000000,0.001283,500000.000000,90.001280,0.231631,0.000000,0.000000,0.000000,0.000000,0.000000,0.000000,1013.250000,-0.000000,25.500000,992,1500,1500,1500,992,1499.379256,1498.011173
0.030300,6871392.996125,230.770254,0.000000,0.323158,0.314127,0.347531,45.939601,7615.921726,-42.703684,0.171864,0.164214,0.199387,0.000000,0.000000,0.000000,0.000000,0.001924,500000.000000,90.001921,0.347531,0.000000,0.000000,0.000000,0.000000,0.000000,0.000000,1013.250000,-0.000000,25.500000,992,1500,1500,1500,992,1499.409847,1498.137170
0.040300,6871392.993145,306.932054,0.000000,0.419927,0.404476,0.462315,61.111945,7615.733419,-55.386057,0.163476,0.153870,0.199228,0.000000,0.000000,0.000000,0.000000,0.002559,500000.000000,90.002556,0.462315,0.000000,0.000000,0.000000,0.000000,0.000000,0.000000,1013.250000,-0.000000,25.500000,992,1500,1500,1500,992,1499.438650,1498.254043
0.050300,6871392.989321,383.093854,0.000000,0.512183,0.488899,0.577116,76.285893,7615.499441,-67.427872,0.155497,0.144177,0.199085,0.000000,0.000000,0.000000,0.000000,0.003194,500000.000000,90.003191,0.577116,0.000000,0.000000,0.000000,0.000000,0.000000,0.000000,1013.250000,-0.000000,25.500000,992,1500,1500,1500,992,1499.466048,1498.363575
0.060300,6871392.984653,459.255654,0.000000,0.600143,0.567765,0.691922,91.459724,7615.222498,-78.862008,0.147908,0.135095,0.198959,0.000000,0.000000,0.000000,0.000000,0.003829,500000.000000,90.003826,0.691922,0.000000,0.000000,0.000000,0.000000,0.000000,0.000000,1013.250000,-0.000000,25.500000,992,1500,1500,1500,992,1499.492108,1498.466227
0.070300,6871392.979140,535.417453,0.000000,0.684015,0.641422,0.806723,106.631994,7614.904976,-89.719625,0.140689,0.126585,0.198846,0.000000,0.000000,0.000000,0.000000,0.004464,500000.000000,90.004461,0.806723,0.000000,0.000000,0.000000,0.000000,0.000000,0.000000,1013.250000,-0.000000,25.500000,992,1500,1500,1500,992,1499.516896,1498.562433
0.080300,6871392.972784,611.579253,0.000000,0.763996,0.710195,0.921510,121.801495,7614.548978,-100.030256,0.133823,0.118611,0.198745,0.000000,0.000000,0.000000,0.000000,0.005100,500000.000000,90.005096,0.921510,0.000000,0.000000,0.000000,0.000000,0.000000,0.000000,1013.250000,-0.000000,25.500000,992,1500,1500,1500,992,1499.540475,1498.652596
0.090300,6871392.965583,687.741053,0.000000,0.840271,0.774390,1.036275,136.967230,7614.156350,-109.821893,0.127291,0.111139,0.198655,0.000000,0.000000,0.000000,0.000000,0.005735,500000.000000,90.005731,1.036275,0.000000,0.000000,0.000000,0.000000,0.000000,0.000000,1013.250000,-0.000000,25.500000,992,1500,1500,1500,992,1499.562903,1498.737098
0.100300,6871392.957538,763.902852,0.000000,0.913021,0.834292,1.151014,152.128379,7613.728713,-119.121068,0.121079,0.104138,0.198575,0.000000,0.000000,0.000000,0.000000,0.006370,500000.000000,90.006367,1.151014,0.000000,0.000000,0.000000,0.000000,0.000000,0.000000,1013.250000,-0.000000,25.500000,992,1500,1500,1500,992,1499.584236,1498.816294
0.110300,6871392.948649,840.064652,0.000000,0.982413,0.890169,1.265721,167.284278,7613.267486,-127.952930,0.115169,0.097578,0.198504,0.000000,0.000000,0.000000,0.000000,0.007005,500000.000000,90.007002,1.265721,0.000000,0.000000,0.000000,0.000000,0.000000,0.000000,1013.250000,-0.000000,25.500000,992,1500,1500,1500,992,1499.604528,1498.890518
0.120300,6871392.938916,916.226451,0.000000,1.048611,0.942273,1.380393,182.434393,7612.773905,-136.341322,0.109548,0.091432,0.198440,0.000000,0.000000,0.000000,0.000000,0.007640,500000.000000,90.007637,1.380393,0.000000,0.000000,0.000000,0.000000,0.000000,0.000000,1013.250000,-0.000000,25.500000,992,1500,1500,1500,992,1499.623829,1498.960083
0.130400,6871392.928228,993.149869,0.000000,1.112384,0.991308,1.496172,197.729715,7612.243644,-144.386467,0.104150,0.085616,0.198383,0.000000,0.000000,0.000000,0.000000,0.008281,500000.000000,90.008278,1.496172,0.000000,0.000000,0.000000,0.000000,0.000000,0.000000,1013.250000,-0.000000,25.500000,992,1500,1500,1500,992,1499.642368,1499.025911
0.140500,6871392.916679,1070.073286,0.000000,1.173205,1.036961,1.611911,213.018383,7611.682439,-152.024354,0.099017,0.080171,0.198332,0.000000,0.000000,0.000000,0.000000,0.008923,500000.000000,90.008919,1.611911,0.000000,0.000000,0.000000,0.000000,0.000000,0.000000,1013.250000,-0.000000,25.500000,992,1500,1500,1500,992,1499.659992,1499.087567
0.150600,6871392.904270,1146.996703,0.000000,1.231219,1.079445,1.727606,228.300153,7611.091119,-159.275897,0.094137,0.075072,0.198287,0.000000,0.000000,0.000000,0.000000,0.009564,500000.000000,90.009561,1.727606,0.000000,0.000000,0.000000,0.000000,0.000000,0.000000,1013.250000,-0.000000,25.500000,992,1500,1500,1500,992,1499.676749,1499.145317
0.160700,6871392.890999,1223.920120,0.000000,1.286560,1.118960,1.843257,243.574856,7610.470395,-166.160917,0.089498,0.070297,0.198246,0.000000,0.000000,0.000000,0.000000,0.010205,500000.000000,90.010202,1.843257,0.000000,0.000000,0.000000,0.000000,0.000000,0.000000,1013.250000,-0.000000,25.500000,992,1500,1500,1500,992,1499.692679,1499.199406
0.170800,6871392.876867,1300.843536,0.000000,1.339359,1.155693,1.958864,258.842383,7609.820875,-172.698200,0.085087,0.065826,0.198210,0.000000,0.000000,0.000000,0.000000,0.010847,500000.000000,90.010844,1.958864,0.000000,0.000000,0.000000,0.000000,0.000000,0.000000,1013.250000,-0.000000,25.500000,992,1500,1500,1500,992,1499.707825,1499.250069
0.180900,6871392.861874,1377.766953,0.000000,1.389740,1.189819,2.074426,274.102678,7609.143074,-178.905550,0.080894,0.061639,0.198178,0.000000,0.000000,0.000000,0.000000,0.011488,500000.000000,90.011485,2.074426,0.000000,0.000000,0.000000,0.000000,0.000000,0.000000,1013.250000,-0.000000,25.500000,992,1500,1500,1500,992,1499.722224,1499.297521
0.191000,6871392.846019,1454.690369,0.000000,1.437821,1.221502,2.189944,289.355726,7608.437427,-184.799845,0.076907,0.057719,0.198150,0.000000,0.000000,0.000000,0.000000,0.012130,500000.000000,90.012126,2.189944,0.000000,0.000000,0.000000,0.000000,0.000000,0.000000,1013.250000,-0.000000,25.500000,992,1500,1500,1500,992,1499.735913,1499.341968
0.201100,6871392.829304,1531.613785,0.000000,1.483712,1.250896,2.305417,304.601550,7607.704295,-190.397083,0.073117,0.054048,0.198125,0.000000,0.000000,0.000000,0.000000,0.012771,500000.000000,90.012768,2.305417,0.000000,0.000000,0.000000,0.000000,0.000000,0.000000,1013.250000,-0.000000,25.500000,992,1500,1500,1500,992,1499.748928,1499.383599
0.211200,6871392.811727,1608.537201,0.000000,1.527520,1.278144,2.420846,319.840200,7606.943978,-195.712428,0.069514,0.050610,0.198102,0.000000,0.000000,0.000000,0.000000,0.013412,500000.000000,90.013409,2.420846,0.000000,0.000000,0.000000,0.000000,0.000000,0.000000,1013.250000,-0.000000,25.500000,992,1500,1500,1500,992,1499.761301,1499.422592
0.221300,6871392.793290,1685.460617,0.000000,1.569346,1.303381,2.536233,335.071750,7606.156719,-200.760260,0.066088,0.047391,0.198082,0.000000,0.000000,0.000000,0.000000,0.014054,500000.000000,90.014051,2.536233,0.000000,0.000000,0.000000,0.000000,0.000000,0.000000,1013.250000,-0.000000,25.500000,992,1500,1500,1500,992,1499.773065,1499.459116
0.231400,6871392.773991,1762.384033,0.000000,1.609288,1.326735,2.651578,350.296291,7605.342712,-205.554211,0.062831,0.044377,0.198064,0.000000,0.000000,0.000000,0.000000,0.014695,500000.000000,90.014692,2.651578,0.000000,0.000000,0.000000,0.000000,0.000000,0.000000,1013.250000,-0.000000,25.500000,992,1500,1500,1500,992,1499.784249,1499.493327
0.241500,6871392.753831,1839.307448,0.000000,1.647436,1.348323,2.766881,365.513931,7604.502109,-210.107205,0.059735,0.041555,0.198048,0.000000,0.000000,0.000000,0.000000,0.015337,500000.000000,90.015334,2.766881,0.000000,0.000000,0.000000,0.000000,0.000000,0.000000,1013.250000,-0.000000,25.500000,992,1500,1500,1500,992,1499.794881,1499.525371
0.251600,6871392.732810,1916.230863,0.000000,1.683877,1.368255,2.882146,380.724787,7603.635023,-214.431501,0.056791,0.038912,0.198034,0.000000,0.000000,0.000000,0.000000,0.015978,500000.000000,90.015975,2.882146,0.000000,0.000000,0.000000,0.000000,0.000000,0.000000,1013.250000,-0.000000,25.500000,992,1500,1500,1500,992,1499.804990,1499.555386
0.261700,6871392.710927,1993.154278,0.000000,1.718694,1.386637,2.997372,395.928983,7602.741536,-218.538720,0.053992,0.036437,0.198021,0.000000,0.000000,0.000000,0.000000,0.016620,500000.000000,90.016616,2.997372,0.000000,0.000000,0.000000,0.000000,0.000000,0.000000,1013.250000,-0.000000,25.500000,992,1500,1500,1500,992,1499.814601,1499.583500
0.271800,6871392.688184,2070.077693,0.000000,1.751967,1.403565,3.112560,411.126650,7601.821701,-222.439886,0.051331,0.034119,0.198010,0.000000,0.000000,0.000000,0.000000,0.017261,500000.000000,90.017258,3.112560,0.000000,0.000000,0.000000,0.000000,0.000000,0.000000,1013.250000,-0.000000,25.500000,992,1500,1500,1500,992,1499.823737,1499.609834
0.281900,6871392.664580,2147.001107,0.000000,1.783770,1.419130,3.227713,426.317921,7600.875545,-226.145454,0.048801,0.031949,0.198000,0.000000,0.000000,0.000000,0.000000,0.017902,500000.000000,90.017899,3.227713,0.000000,0.000000,0.000000,0.000000,0.000000,0.000000,1013.250000,-0.000000,25.500000,992,1500,1500,1500,992,1499.832424,1499.634501
0.292000,6871392.640114,2223.924521,0.000000,1.814175,1.433419,3.342832,441.502928,7599.903078,-229.665338,0.046396,0.029917,0.197991,0.000000,0.000000,0.000000,0.000000,0.018544,500000.000000,90.018541,3.342832,0.000000,0.000000,0.000000,0.000000,0.000000,0.000000,1013.250000,-0.000000,25.500000,992,1500,1500,1500,992,1499.840683,1499.657606
0.302100,6871392.614787,2300.847935,0.000000,1.843249,1.446510,3.457917,456.681807,7598.904286,-233.008946,0.044110,0.028014,0.197983,0.000000,0.000000,0.000000,0.000000,0.019185,500000.000000,90.019182,3.457917,0.000000,0.000000,0.000000,0.000000,0.000000,0.000000,1013.250000,-0.000000,25.500000,992,1500,1500,1500,992,1499.848534,1499.679249
0.312200,6871392.588599,2377.771349,0.000000,1.871057,1.458479,3.572971,471.854689,7597.879145,-236.185197,0.041936,0.026233,0.197976,0.000000,0.000000,0.000000,0.000000,0.019827,500000.000000,90.019823,3.572971,0.000000,0.000000,0.000000,0.000000,0.000000,0.000000,1013.250000,-0.000000,25.500000,992,1500,1500,1500,992,1499.855999,1499.699522
0.322300,6871392.561550,2454.694762,0.000000,1.897661,1.469396,3.687994,487.021702,7596.827614,-239.202557,0.039869,0.024564,0.197970,0.000000,0.000000,0.000000,0.000000,0.020468,500000.000000,90.020465,3.687994,0.000000,0.000000,0.000000,0.000000,0.000000,0.000000,1013.250000,-0.000000,25.500000,992,1500,1500,1500,992,1499.863095,1499.718512
0.332400,6871392.533640,2531.618175,0.000000,1.923118,1.479327,3.802988,502.182972,7595.749642,-242.069055,0.037904,0.023002,0.197964,0.000000,0.000000,0.000000,0.000000,0.021109,500000.000000,90.021106,3.802988,0.000000,0.000000,0.000000,0.000000,0.000000,0.000000,1013.250000,-0.000000,25.500000,992,1500,1500,1500,992,1499.869842,1499.736299
0.342500,6871392.504868,2608.541587,0.000000,1.947485,1.488333,3.917954,517.338621,7594.645171,-244.792310,0.036036,0.021539,0.197959,0.000000,0.000000,0.000000,0.000000,0.021751,500000.000000,90.021748,3.917954,0.000000,0.000000,0.000000,0.000000,0.000000,0.000000,1013.250000,-0.000000,25.500000,992,1500,1500,1500,992,1499.876257,1499.752962
0.352600,6871392.475236,2685.465000,0.000000,1.970814,1.496473,4.032894,532.488764,7593.514132,-247.379550,0.034261,0.020169,0.197955,0.000000,0.000000,0.000000,0.000000,0.022392,500000.000000,90.022389,4.032894,0.000000,0.000000,0.000000,0.000000,0.000000,0.000000,1013.250000,-0.000000,25.500000,992,1500,1500,1500,992,1499.882355,1499.768569
0.362700,6871392.444742,2762.388412,0.000000,1.993156,1.503801,4.147809,547.633512,7592.356451,-249.837633,0.032572,0.018886,0.197951,0.000000,0.000000,0.000000,0.000000,0.023034,500000.000000,90.023030,4.147809,0.000000,0.000000,0.000000,0.000000,0.000000,0.000000,1013.250000,-0.000000,25.500000,992,1500,1500,1500,992,1499.888153,1499.783190
0.372800,6871392.413388,2839.311823,0.000000,2.014559,1.510366,4.262699,562.772971,7591.172052,-252.173068,0.030967,0.017685,0.197948,0.000000,0.000000,0.000000,0.000000,0.023675,500000.000000,90.023672,4.262699,0.000000,0.000000,0.000000,0.000000,0.000000,0.000000,1013.250000,-0.000000,25.500000,992,1500,1500,1500,992,1499.893665,1499.796885
0.382900,6871392.381172,2916.235234,0.000000,2.035067,1.516218,4.377566,577.907241,7589.960850,-254.392032,0.029441,0.016560,0.197944,0.000000,0.000000,0.000000,0.000000,0.024316,500000.000000,90.024313,4.377566,0.000000,0.000000,0.000000,0.000000,0.000000,0.000000,1013.250000,-0.000000,25.500000,992,1500,1500,1500,992,1499.898905,1499.809714
0.393000,6871392.348095,2993.158645,0.000000,2.054725,1.521399,4.492412,593.036414,7588.722762,-256.500385,0.027990,0.015507,0.197942,0.000000,0.000000,0.000000,0.000000,0.024958,500000.000000,90.024955,4.492412,0.000000,0.000000,0.000000,0.000000,0.000000,0.000000,1013.250000,-0.000000,25.500000,992,1500,1500,1500,992,1499.903887,1499.821731
0.403100,6871392.314156,3070.082056,0.000000,2.073573,1.525953,4.607236,608.160579,7587.457700,-258.503691,0.026610,0.014520,0.197939,0.000000,0.000000,0.000000,0.000000,0.025599,500000.000000,90.025596,4.607236,0.000000,0.000000,0.000000,0.000000,0.000000,0.000000,1013.250000,-0.000000,25.500000,992,1500,1500,1500,992,1499.908624,1499.832988
0.413200,6871392.279357,3147.005466,0.000000,2.091651,1.529918,4.722041,623.279816,7586.165575,-260.407230,0.025299,0.013597,0.197937,0.000000,0.000000,0.000000,0.000000,0.026241,500000.000000,90.026237,4.722041,0.000000,0.000000,0.000000,0.000000,0.000000,0.000000,1013.250000,-0.000000,25.500000,992,1500,1500,1500,992,1499.913127,1499.843533
0.423300,6871392.243697,3223.928876,0.000000,2.108996,1.533330,4.836827,638.394202,7584.846300,-262.216012,0.024052,0.012732,0.197935,0.000000,0.000000,0.000000,0.000000,0.026882,500000.000000,90.026879,4.836827,0.000000,0.000000,0.000000,0.000000,0.000000,0.000000,1013.250000,-0.000000,25.500000,992,1500,1500,1500,992,1499.917409,1499.853412
0.433400,6871392.207175,3300.852285,0.000000,2.125643,1.536224,4.951596,653.503807,7583.499785,-263.934795,0.022867,0.011922,0.197933,0.000000,0.000000,0.000000,0.000000,0.027524,500000.000000,90.027520,4.951596,0.000000,0.000000,0.000000,0.000000,0.000000,0.000000,1013.250000,-0.000000,25.500000,992,1500,1500,1500,992,1499.921479,1499.862665
0.443500,6871392.169792,3377.775694,0.000000,2.141625,1.538632,5.066347,668.608693,7582.125942,-265.568094,0.021740,0.011164,0.197932,0.000000,0.000000,0.000000,0.000000,0.028165,500000.000000,90.028162,5.066347,0.000000,0.000000,0.000000,0.000000,0.000000,0.000000,1013.250000,-0.000000,25.500000,992,1500,1500,1500,992,1499.925349,1499.871334
0.453600,6871392.131549,3454.699102,0.000000,2.156976,1.540585,5.181083,683.708919,7580.724682,-267.120196,0.020669,0.010454,0.197930,0.000000,0.000000,0.000000,0.000000,0.028806,500000.000000,90.028803,5.181083,0.000000,0.000000,0.000000,0.000000,0.000000,0.000000,1013.250000,-0.000000,25.500000,992,1500,1500,1500,992,1499.929028,1499.879454
0.463700,6871392.092444,3531.622511,0.000000,2.171726,1.542110,5.295803,698.804538,7579.295920,-268.595169,0.019650,0.009789,0.197929,0.000000,0.000000,0.000000,0.000000,0.029448,500000.000000,90.029445,5.295803,0.000000,0.000000,0.000000,0.000000,0.000000,0.000000,1013.250000,-0.000000,25.500000,992,1500,1500,1500,992,1499.932525,1499.887061
0.473800,6871392.052477,3608.545918,0.000000,2.185902,1.543234,5.410509,713.895596,7577.839571,-269.996877,0.018682,0.009166,0.197928,0.000000,0.000000,0.000000,0.000000,0.030089,500000.000000,90.030086,5.410509,0.000000,0.000000,0.000000,0.000000,0.000000,0.000000,1013.250000,-0.000000,25.500000,992,1500,1500,1500,992,1499.935850,1499.894187
0.483900,6871392.011650,3685.469325,0.000000,2.199534,1.543982,5.525201,728.982135,7576.355550,-271.328988,0.017761,0.008583,0.197927,0.000000,0.000000,0.000000,0.000000,0.030731,500000.000000,90.030727,5.525201,0.000000,0.000000,0.000000,0.000000,0.000000,0.000000,1013.250000,-0.000000,25.500000,992,1500,1500,1500,992,1499.939012,1499.900863
0.494000,6871391.969962,3762.392732,0.000000,2.212647,1.544377,5.639881,744.064192,7574.843777,-272.594985,0.016886,0.008037,0.197926,0.000000,0.000000,0.000000,0.000000,0.031372,500000.000000,90.031369,5.639881,0.000000,0.000000,0.000000,0.000000,0.000000,0.000000,1013.250000,-0.000000,25.500000,992,1500,1500,1500,992,1499.942018,1499.907117
0.504100,6871391.927412,3839.316138,0.000000,2.225266,1.544440,5.754548,759.141799,7573.304172,-273.798173,0.016053,0.007526,0.197925,0.000000,0.000000,0.000000,0.000000,0.032013,500000.000000,90.032010,5.754548,0.000000,0.000000,0.000000,0.000000,0.000000,0.000000,1013.250000,-0.000000,25.500000,992,1500,1500,1500,992,1499.944875,1499.912976
0.514200,6871391.884002,3916.239544,0.000000,2.237416,1.544193,5.869204,774.214981,7571.736658,-274.941693,0.015262,0.007048,0.197925,0.000000,0.000000,0.000000,0.000000,0.032655,500000.000000,90.032652,5.869204,0.000000,0.000000,0.000000,0.000000,0.000000,0.000000,1013.250000,-0.000000,25.500000,992,1500,1500,1500,992,1499.947592,1499.918464
0.524300,6871391.839730,3993.162949,0.000000,2.249117,1.543654,5.983848,789.283763,7570.141160,-276.028526,0.014510,0.006599,0.197924,0.000000,0.000000,0.000000,0.000000,0.033296,500000.000000,90.033293,5.983848,0.000000,0.000000,0.000000,0.000000,0.000000,0.000000,1013.250000,-0.000000,25.500000,992,1500,1500,1500,992,1499.950174,1499.923606
0.534400,6871391.794597,4070.086354,0.000000,2.260393,1.542841,6.098482,804.348162,7568.517606,-277.061504,0.013795,0.006180,0.197923,0.000000,0.000000,0.000000,0.000000,0.033938,500000.000000,90.033934,6.098482,0.000000,0.000000,0.000000,0.000000,0.000000,0.000000,1013.250000,-0.000000,25.500000,992,1500,1500,1500,992,1499.952630,1499.928422
0.544500,6871391.748603,4147.009758,0.000000,2.271262,1.541771,6.213107,819.408191,7566.865925,-278.043314,0.013115,0.005787,0.197923,0.000000,0.000000,0.000000,0.000000,0.034579,500000.000000,90.034576,6.213107,0.000000,0.000000,0.000000,0.000000,0.000000,0.000000,1013.250000,-0.000000,25.500000,992,1500,1500,1500,992,1499.954965,1499.932935
0.554600,6871391.701748,4223.933162,0.000000,2.281746,1.540460,6.327722,834.463862,7565.186049,-278.976509,0.012469,0.005419,0.197923,0.000000,0.000000,0.000000,0.000000,0.035220,500000.000001,90.035217,6.327722,0.000000,0.000000,0.000000,0.000000,0.000000,0.000000,1013.250000,-0.000000,25.500000,992,1500,1500,1500,992,1499.957184,1499.937162
0.564700,6871391.654031,4300.856565,0.000000,2.291862,1.538922,6.442329,849.515180,7563.477915,-279.863516,0.011854,0.005074,0.197922,0.000000,0.000000,0.000000,0.000000,0.035862,500000.000001,90.035859,6.442329,0.000000,0.000000,0.000000,0.000000,0.000000,0.000000,1013.250000,-0.000000,25.500000,992,1500,1500,1500,992,1499.959294,1499.941123
0.574800,6871391.605454,4377.779968,0.000000,2.301627,1.537171,6.556927,864.562147,7561.741458,-280.706636,0.011270,0.004751,0.197922,0.000000,0.000000,0.000000,0.000000,0.036503,500000.000001,90.036500,6.556927,0.000000,0.000000,0.000000,0.000000,0.000000,0.000000,1013.250000,-0.000000,25.500000,992,1500,1500,1500,992,1499.961300,1499.944833
0.584900,6871391.556015,4454.703370,0.000000,2.311059,1.535221,6.671517,879.604763,7559.976618,-281.508057,0.010715,0.004449,0.197922,0.000000,0.000000,0.000000,0.000000,0.037145,500000.000001,90.037141,6.671517,0.000000,0.000000,0.000000,0.000000,0.000000,0.000000,1013.250000,-0.000000,25.500000,992,1500,1500,1500,992,1499.963207,1499.948309
0.595000,6871391.505715,4531.626772,0.000000,2.320173,1.533083,6.786100,894.643024,7558.183339,-282.269857,0.010187,0.004166,0.197921,0.000000,0.000000,0.000000,0.000000,0.037786,500000.000001,90.037783,6.786100,0.000000,0.000000,0.000000,0.000000,0.000000,0.000000,1013.250000,-0.000000,25.500000,992,1500,1500,1500,992,1499.965021,1499.951566
0.605100,6871391.454554,4608.550172,0.000000,2.328985,1.530769,6.900676,909.676923,7556.361564,-282.994008,0.009685,0.003901,0.197921,0.000000,0.000000,0.000000,0.000000,0.038428,500000.000001,90.038424,6.900676,0.000000,0.000000,0.000000,0.000000,0.000000,0.000000,1013.250000,-0.000000,25.500000,992,1500,1500,1500,992,1499.966744,1499.954617
0.615200,6871391.402532,4685.473573,0.000000,2.337508,1.528289,7.015245,924.706449,7554.511240,-283.682386,0.009207,0.003653,0.197921,0.000000,0.000000,0.000000,0.000000,0.039069,500000.000001,90.039066,7.015245,0.000000,0.000000,0.000000,0.000000,0.000000,0.000000,1013.250000,-0.000000,25.500000,992,1500,1500,1500,992,1499.968383,1499.957475
0.625300,6871391.349649,4762.396973,0.000000,2.345757,1.525653,7.129808,939.731589,7552.632318,-284.336769,0.008754,0.003421,0.197921,0.000000,0.000000,0.000000,0.000000,0.039710,500000.000001,90.039707,7.129808,0.000000,0.000000,0.000000,0.000000,0.000000,0.000000,1013.250000,-0.000000,25.500000,992,1500,1500,1500,992,1499.969941,1499.960153
0.635400,6871391.295905,4839.320372,0.000000,2.353744,1.522872,7.244365,954.752328,7550.724749,-284.958851,0.008322,0.003203,0.197920,0.000000,0.000000,0.000000,0.000000,0.040352,500000.000001,90.040349,7.244365,0.000000,0.000000,0.000000,0.000000,0.000000,0.000000,1013.250000,-0.000000,25.500000,992,1500,1500,1500,992,1499.971423,1499.962662
0.645500,6871391.241299,4916.243771,0.000000,2.361481,1.519953,7.358916,969.768647,7548.788487,-285.550236,0.007912,0.002999,0.197920,0.000000,0.000000,0.000000,0.000000,0.040993,500000.000001,90.040990,7.358916,0.000000,0.000000,0.000000,0.000000,0.000000,0.000000,1013.250000,-0.000000,25.500000,992,1500,1500,1500,992,1499.972831,1499.965013
0.655600,6871391.185833,4993.167169,0.000000,2.368982,1.516904,7.473462,984.780527,7546.823489,-286.112452,0.007522,0.002809,0.197920,0.000000,0.000000,0.000000,0.000000,0.041635,500000.000001,90.041631,7.473462,0.000000,0.000000,0.000000,0.000000,0.000000,0.000000,1013.250000,-0.000000,25.500000,992,1500,1500,1500,992,1499.974170,1499.967215
0.665700,6871391.129505,5070.090566,0.000000,2.376255,1.513734,7.588003,999.787943,7544.829712,-286.646948,0.007151,0.002630,0.197920,0.000000,0.000000,0.000000,0.000000,0.042276,500000.000001,90.042273,7.588003,0.000000,0.000000,0.000000,0.000000,0.000000,0.000000,1013.250000,-0.000000,25.500000,992,1500,1500,1500,992,1499.975443,1499.969279
0.675800,6871391.072316,5147.013963,0.000000,2.383313,1.510450,7.702539,1014.790873,7542.807118,-287.155102,0.006799,0.002463,0.197920,0.000000,0.000000,0.000000,0.000000,0.042917,500000.000001,90.042914,7.702539,0.000000,0.000000,0.000000,0.000000,0.000000,0.000000,1013.250000,-0.000000,25.500000,992,1500,1500,1500,992,1499.976653,1499.971212
0.685900,6871391.014266,5223.937359,0.000000,2.390166,1.507059,7.817070,1029.789288,7540.755670,-287.638221,0.006464,0.002306,0.197920,0.000000,0.000000,0.000000,0.000000,0.043559,500000.000001,90.043556,7.817070,0.000000,0.000000,0.000000,0.000000,0.000000,0.000000,1013.250000,-0.000000,25.500000,992,1500,1500,1500,992,1499.977804,1499.973023
0.696000,6871390.955355,5300.860754,0.000000,2.396822,1.503566,7.931597,1044.783159,7538.675331,-288.097550,0.006145,0.002159,0.197920,0.000000,0.000000,0.000000,0.000000,0.044200,500000.000001,90.044197,7.931597,0.000000,0.000000,0.000000,0.000000,0.000000,0.000000,1013.250000,-0.000000,25.500000,992,1500,1500,1500,992,1499.978898,1499.974720
0.706100,6871390.895583,5377.784149,0.000000,2.403291,1.499978,8.046120,1059.772457,7536.566069,-288.534270,0.005843,0.002022,0.197920,0.000000,0.000000,0.000000,0.000000,0.044842,500000.000001,90.044838,8.046120,0.000000,0.000000,0.000000,0.000000,0.000000,0.000000,1013.250000,-0.000000,25.500000,992,1500,1500,1500,992,1499.979938,1499.976310
0.716200,6871390.834949,5454.707543,0.000000,2.409582,1.496300,8.160640,1074.757149,7534.427851,-288.949503,0.005555,0.001893,0.197920,0.000000,0.000000,0.000000,0.000000,0.045483,500000.000001,90.045480,8.160640,0.000000,0.000000,0.000000,0.000000,0.000000,0.000000,1013.250000,-0.000000,25.500000,992,1500,1500,1500,992,1499.980926,1499.977800
0.726300,6871390.773455,5531.630937,0.000000,2.415703,1.492538,8.275155,1089.737201,7532.260650,-289.344315,0.005281,0.001773,0.197920,0.000000,0.000000,0.000000,0.000000,0.046124,500000.000001,90.046121,8.275155,0.000000,0.000000,0.000000,0.000000,0.000000,0.000000,1013.250000,-0.000000,25.500000,992,1500,1500,1500,992,1499.981866,1499.979196
0.736400,6871390.711099,5608.554329,0.000000,2.421662,1.488697,8.389667,1104.712578,7530.064435,-289.719719,0.005021,0.001660,0.197919,0.000000,0.000000,0.000000,0.000000,0.046766,500000.000001,90.046763,8.389667,0.000000,0.000000,0.000000,0.000000,0.000000,0.000000,1013.250000,-0.000000,25.500000,992,1500,1500,1500,992,1499.982760,1499.980504
0.746500,6871390.647882,5685.477721,0.000000,2.427467,1.484781,8.504176,1119.683243,7527.839182,-290.076678,0.004773,0.001555,0.197919,0.000000,0.000000,0.000000,0.000000,0.047407,500000.000001,90.047404,8.504176,0.000000,0.000000,0.000000,0.000000,0.000000,0.000000,1013.250000,-0.000000,25.500000,992,1500,1500,1500,992,1499.983610,1499.981729
0.756600,6871390.583804,5762.401113,0.000000,2.433123,1.480794,8.618682,1134.649158,7525.584865,-290.416106,0.004538,0.001456,0.197919,0.000000,0.000000,0.000000,0.000000,0.048049,500000.000001,90.048045,8.618682,0.000000,0.000000,0.000000,0.000000,0.000000,0.000000,1013.250000,-0.000000,25.500000,992,1500,1500,1500,992,1499.984417,1499.982877
0.766700,6871390.518865,5839.324503,0.000000,2.438639,1.476741,8.733185,1149.610284,7523.301462,-290.738874,0.004314,0.001363,0.197919,0.000000,0.000000,0.000000,0.000000,0.048690,500000.000001,90.048687,8.733185,0.000000,0.000000,0.000000,0.000000,0.000000,0.000000,1013.250000,-0.000000,25.500000,992,1500,1500,1500,992,1499.985185,1499.983953
0.776800,6871390.453065,5916.247893,0.000000,2.444020,1.472625,8.847685,1164.566580,7520.988952,-291.045806,0.004102,0.001276,0.197919,0.000000,0.000000,0.000000,0.000000,0.049331,500000.000001,90.049328,8.847685,0.000000,0.000000,0.000000,0.000000,0.000000,0.000000,1013.250000,-0.000000,25.500000,992,1500,1500,1500,992,1499.985915,1499.984961
0.786900,6871390.386404,5993.171282,0.000000,2.449273,1.468450,8.962182,1179.518006,7518.647313,-291.337687,0.003900,0.001195,0.197919,0.000000,0.000000,0.000000,0.000000,0.049973,500000.000001,90.049970,8.962182,0.000000,0.000000,0.000000,0.000000,0.000000,0.000000,1013.250000,-0.000000,25.500000,992,1500,1500,1500,992,1499.986610,1499.985906
0.797000,6871390.318881,6070.094671,0.000000,2.454404,1.464219,9.076677,1194.464517,7516.276528,-291.615264,0.003707,0.001119,0.197919,0.000000,0.000000,0.000000,0.000000,0.050614,500000.000001,90.050611,9.076677,0.000000,0.000000,0.000000,0.000000,0.000000,0.000000,1013.250000,-0.000000,25.500000,992,1500,1500,1500,992,1499.987269,1499.986791
0.807100,6871390.250498,6147.018058,0.000000,2.459417,1.459935,9.191169,1209.406071,7513.876580,-291.879245,0.003525,0.001048,0.197919,0.000000,0.000000,0.000000,0.000000,0.051256,500000.000001,90.051253,9.191169,0.000000,0.000000,0.000000,0.000000,0.000000,0.000000,1013.250000,-0.000000,25.500000,992,1500,1500,1500,992,1499.987897,1499.987620
0.817200,6871390.181253,6223.941445,0.000000,2.464319,1.455602,9.305659,1224.342622,7511.447452,-292.130304,0.003351,0.000981,0.197919,0.000000,0.000000,0.000000,0.000000,0.051897,500000.000001,90.051894,9.305659,0.000000,0.000000,0.000000,0.000000,0.000000,0.000000,1013.250000,-0.000000,25.500000,992,1500,1500,1500,992,1499.988493,1499.988398
0.827300,6871390.111147,6300.864831,0.000000,2.469113,1.451222,9.420146,1239.274127,7508.989130,-292.369080,0.003186,0.000919,0.197919,0.000000,0.000000,0.000000,0.000000,0.052539,500000.000001,90.052535,9.420146,0.000000,0.000000,0.000000,0.000000,0.000000,0.000000,1013.250000,-0.000000,25.500000,992,1500,1500,1500,992,1499.989060,1499.989126
0.837400,6871390.040180,6377.788216,0.000000,2.473806,1.446797,9.534632,1254.200538,7506.501600,-292.596181,0.003029,0.000860,0.197919,0.000000,0.000000,0.000000,0.000000,0.053180,500000.000001,90.053177,9.534632,0.000000,0.000000,0.000000,0.000000,0.000000,0.000000,1013.250000,-0.000000,25.500000,992,1500,1500,1500,992,1499.989600,1499.989808
0.847500,6871389.968352,6454.711601,0.000000,2.478402,1.442330,9.649116,1269.121808,7503.984851,-292.812186,0.002880,0.000806,0.197919,0.000000,0.000000,0.000000,0.000000,0.053821,500000.000001,90.053818,9.649116,0.000000,0.000000,0.000000,0.000000,0.000000,0.000000,1013.250000,-0.000000,25.500000,992,1500,1500,1500,992,1499.990112,1499.990448
0.857600,6871389.895662,6531.634984,0.000000,2.482904,1.437824,9.763597,1284.037891,7501.438872,-293.017645,0.002738,0.000755,0.197919,0.000000,0.000000,0.000000,0.000000,0.054463,500000.000001,90.054460,9.763597,0.000000,0.000000,0.000000,0.000000,0.000000,0.000000,1013.250000,-0.000000,25.500000,992,1500,1500,1500,992,1499.990599,1499.991047
0.867700,6871389.822112,6608.558367,0.000000,2.487317,1.433280,9.878077,1298.948737,7498.863651,-293.213078,0.002603,0.000707,0.197919,0.000000,0.000000,0.000000,0.000000,0.055104,500000.000001,90.055101,9.878077,0.000000,0.000000,0.000000,0.000000,0.000000,0.000000,1013.250000,-0.000000,25.500000,992,1500,1500,1500,992,1499.991063,1499.991608
0.877800,6871389.747700,6685.481749,0.000000,2.491644,1.428700,9.992555,1313.854298,7496.259181,-293.398982,0.002474,0.000662,0.197919,0.000000,0.000000,0.000000,0.000000,0.055746,500000.000001,90.055742,9.992555,0.000000,0.000000,0.000000,0.000000,0.000000,0.000000,1013.250000,-0.000000,25.500000,992,1500,1500,1500,992,1499.991503,1499.992135
0.887900,6871389.672428,6762.405130,0.000000,2.495890,1.424087,10.107032,1328.754523,7493.625454,-293.575829,0.002353,0.000620,0.197919,0.000000,0.000000,0.000000,0.000000,0.056387,500000.000001,90.056384,10.107032,0.000000,0.000000,0.000000,0.000000,0.000000,0.000000,1013.250000,-0.000000,25.500000,992,1500,1500,1500,992,1499.991922,1499.992628
0.898000,6871389.596294,6839.328511,0.000000,2.500058,1.419442,10.221507,1343.649364,7490.962462,-293.744068,0.002237,0.000580,0.197919,0.000000,0.000000,0.000000,0.000000,0.057028,500000.000001,90.057025,10.221507,0.000000,0.000000,0.000000,0.000000,0.000000,0.000000,1013.250000,-0.000000,25.500000,992,1500,1500,1500,992,1499.992320,1499.993090
0.908100,6871389.519299,6916.251890,0.000000,2.504151,1.414766,10.335980,1358.538769,7488.270199,-293.904122,0.002126,0.000543,0.197919,0.000000,0.000000,0.000000,0.000000,0.057670,500000.000001,90.057667,10.335980,0.000000,0.000000,0.000000,0.000000,0.000000,0.000000,1013.250000,-0.000000,25.500000,992,1500,1500,1500,992,1499.992698,1499.993523
0.918200,6871389.441443,6993.175269,0.000000,2.508173,1.410062,10.450452,1373.422688,7485.548660,-294.056399,0.002022,0.000509,0.197919,0.000000,0.000000,0.000000,0.000000,0.058311,500000.000001,90.058308,10.450452,0.000000,0.000000,0.000000,0.000000,0.000000,0.000000,1013.250000,-0.000000,25.500000,992,1500,1500,1500,992,1499.993058,1499.993929
0.928300,6871389.362725,7070.098647,0.000000,2.512126,1.405331,10.564922,1388.301068,7482.797842,-294.201282,0.001922,0.000476,0.197919,0.000000,0.000000,0.000000,0.000000,0.058953,500000.000001,90.058949,10.564922,0.000000,0.000000,0.000000,0.000000,0.000000,0.000000,1013.250000,-0.000000,25.500000,992,1500,1500,1500,992,1499.993400,1499.994309
0.938400,6871389.283147,7147.022023,0.000000,2.516013,1.400573,10.679391,1403.173858,7480.017740,-294.339137,0.001827,0.000446,0.197919,0.000000,0.000000,0.000000,0.000000,0.059594,500000.000001,90.059591,10.679391,0.000000,0.000000,0.000000,0.000000,0.000000,0.000000,1013.250000,-0.000000,25.500000,992,1500,1500,1500,992,1499.993726,1499.994665
0.948500,6871389.202707,7223.945399,0.000000,2.519837,1.395791,10.793859,1418.041006,7477.208352,-294.470311,0.001737,0.000418,0.197919,0.000000,0.000000,0.000000,0.000000,0.060235,500000.000002,90.060232,10.793859,0.000000,0.000000,0.000000,0.000000,0.000000,0.000000,1013.250000,-0.000000,25.500000,992,1500,1500,1500,992,1499.994035,1499.994999
0.958600,6871389.121407,7300.868774,0.000000,2.523601,1.390985,10.908325,1432.902458,7474.369675,-294.595136,0.001652,0.000391,0.197919,0.000000,0.000000,0.000000,0.000000,0.060877,500000.000002,90.060874,10.908325,0.000000,0.000000,0.000000,0.000000,0.000000,0.000000,1013.250000,-0.000000,25.500000,992,1500,1500,1500,992,1499.994329,1499.995312
0.968700,6871389.039245,7377.792148,0.000000,2.527306,1.386158,11.022791,1447.758162,7471.501710,-294.713924,0.001570,0.000366,0.197919,0.000000,0.000000,0.000000,0.000000,0.061518,500000.000002,90.061515,11.022791,0.000000,0.000000,0.000000,0.000000,0.000000,0.000000,1013.250000,-0.000000,25.500000,992,1500,1500,1500,992,1499.994608,1499.995606
0.978800,6871388.956222,7454.715522,0.000000,2.530957,1.381308,11.137255,1462.608064,7468.604454,-294.826975,0.001493,0.000343,0.197919,0.000000,0.000000,0.000000,0.000000,0.062160,500000.000002,90.062157,11.137255,0.000000,0.000000,0.000000,0.000000,0.000000,0.000000,1013.250000,-0.000000,25.500000,992,1500,1500,1500,992,1499.994874,1499.995881
0.988900,6871388.872338,7531.638894,0.000000,2.534553,1.376439,11.251718,1477.452111,7465.677910,-294.934572,0.001419,0.000321,0.197919,0.000000,0.000000,0.000000,0.000000,0.062801,500000.000002,90.062798,11.251718,0.000000,0.000000,0.000000,0.000000,0.000000,0.000000,1013.250000,-0.000000,25.500000,992,1500,1500,1500,992,1499.995127,1499.996138
0.999000,6871388.787593,7608.562265,0.000000,2.538099,1.371550,11.366180,1492.290248,7462.722076,-295.036985,0.001349,0.000301,0.197919,0.000000,0.000000,0.000000,0.000000,0.063443,500000.000002,90.063439,11.366180,0.000000,0.000000,0.000000,0.000000,0.000000,0.000000,1013.250000,-0.000000,25.500000,992,1500,1500,1500,992,1499.995367,1499.996380
1.009100,6871388.701986,7685.485636,0.000000,2.541595,1.366643,11.480641,1507.122422,7459.736955,-295.134469,0.001283,0.000282,0.197919,0.000000,0.000000,0.000000,0.000000,0.064084,500000.000002,90.064081,11.480641,0.000000,0.000000,0.000000,0.000000,0.000000,0.000000,1013.250000,-0.000000,25.500000,992,1500,1500,1500,992,1499.995595,1499.996606
1.019200,6871388.615519,7762.409005,0.000000,2.545044,1.361718,11.595101,1521.948577,7456.722549,-295.227269,0.001220,0.000264,0.197919,0.000000,0.000000,0.000000,0.000000,0.064725,500000.000002,90.064722,11.595101,0.000000,0.000000,0.000000,0.000000,0.000000,0.000000,1013.250000,-0.000000,25.500000,992,1500,1500,1500,992,1499.995812,1499.996818
1.029300,6871388.528190,7839.332373,0.000000,2.548447,1.356776,11.709560,1536.768660,7453.678861,-295.315617,0.001159,0.000247,0.197919,0.000000,0.000000,0.000000,0.000000,0.065367,500000.000002,90.065364,11.709560,0.000000,0.000000,0.000000,0.000000,0.000000,0.000000,1013.250000,-0.000000,25.500000,992,1500,1500,1500,992,1499.996019,1499.997017
1.039400,6871388.440000,7916.255741,0.000000,2.551807,1.351819,11.824017,1551.582614,7450.605894,-295.399731,0.001102,0.000231,0.197919,0.000000,0.000000,0.000000,0.000000,0.066008,500000.000002,90.066005,11.824017,0.000000,0.000000,0.000000,0.000000,0.000000,0.000000,1013.250000,-0.000000,25.500000,992,1500,1500,1500,992,1499.996215,1499.997203
1.049500,6871388.350949,7993.179107,0.000000,2.555124,1.346845,11.938475,1566.390386,7447.503651,-295.479823,0.001048,0.000216,0.197919,0.000000,0.000000,0.000000,0.000000,0.066650,500000.000002,90.066646,11.938475,0.000000,0.000000,0.000000,0.000000,0.000000,0.000000,1013.250000,-0.000000,25.500000,992,1500,1500,1500,992,1499.996401,1499.997378
1.059600,6871388.261037,8070.102473,0.000000,2.558401,1.341857,12.052931,1581.191919,7444.372136,-295.556089,0.000996,0.000203,0.197919,0.000000,0.000000,0.000000,0.000000,0.067291,500000.000002,90.067288,12.052931,0.000000,0.000000,0.000000,0.000000,0.000000,0.000000,1013.250000,-0.000000,25.500000,992,1500,1500,1500,992,1499.996579,1499.997542
1.069700,6871388.170264,8147.025837,0.000000,2.561638,1.336855,12.167386,1595.987158,7441.211356,-295.628720,0.000947,0.000190,0.197919,0.000000,0.000000,0.000000,0.000000,0.067932,500000.000002,90.067929,12.167386,0.000000,0.000000,0.000000,0.000000,0.000000,0.000000,1013.250000,-0.000000,25.500000,992,1500,1500,1500,992,1499.996747,1499.997695
1.079800,6871388.078630,8223.949201,0.000000,2.564838,1.331839,12.281840,1610.776048,7438.021314,-295.697894,0.000901,0.000178,0.197919,0.000000,0.000000,0.000000,0.000000,0.068574,500000.000002,90.068571,12.281840,0.000000,0.000000,0.000000,0.000000,0.000000,0.000000,1013.250000,-0.000000,25.500000,992,1500,1500,1500,992,1499.996908,1499.997839
1.089900,6871387.986134,8300.872563,0.000000,2.568001,1.326810,12.396294,1625.558533,7434.802017,-295.763784,0.000856,0.000166,0.197919,0.000000,0.000000,0.000000,0.000000,0.069215,500000.000002,90.069212,12.396294,0.000000,0.000000,0.000000,0.000000,0.000000,0.000000,1013.250000,-0.000000,25.500000,992,1500,1500,1500,992,1499.997060,1499.997974
1.100000,6871387.892778,8377.795924,0.000000,2.571130,1.321768,12.510747,1640.334557,7431.553471,-295.826551,0.000814,0.000156,0.197919,0.000000,0.000000,0.000000,0.000000,0.069857,500000.000002,90.069853,12.510747,0.000000,0.000000,0.000000,0.000000,0.000000,0.000000,1013.250000,-0.000000,25.500000,992,1500,1500,1500,992,1499.997205,1499.998100
1.110100,6871387.798560,8454.719285,0.000000,2.574224,1.316714,12.625199,1655.104063,7428.275682,-295.886349,0.000774,0.000146,0.197919,0.000000,0.000000,0.000000,0.000000,0.070498,500000.000002,90.070495,12.625199,0.000000,0.000000,0.000000,0.000000,0.000000,0.000000,1013.250000,-0.000000,25.500000,992,1500,1500,1500,992,1499.997343,1499.998219
1.120200,6871387.703481,8531.642644,0.000000,2.577286,1.311649,12.739650,1669.866995,7424.968657,-295.943326,0.000736,0.000137,0.197919,0.000000,0.000000,0.000000,0.000000,0.071139,500000.000002,90.071136,12.739650,0.000000,0.000000,0.000000,0.000000,0.000000,0.000000,1013.250000,-0.000000,25.500000,992,1500,1500,1500,992,1499.997474,1499.998330
1.130300,6871387.607541,8608.566002,0.000000,2.580316,1.306572,12.854101,1684.623298,7421.632404,-295.997620,0.000699,0.000128,0.197919,0.000000,0.000000,0.000000,0.000000,0.071781,500000.000002,90.071778,12.854101,0.000000,0.000000,0.000000,0.000000,0.000000,0.000000,1013.250000,-0.000000,25.500000,992,1500,1500,1500,992,1499.997598,1499.998434
1.140400,6871387.510740,8685.489359,0.000000,2.583315,1.301484,12.968551,1699.372915,7418.266931,-296.049364,0.000665,0.000120,0.197919,0.000000,0.000000,0.000000,0.000000,0.072422,500000.000002,90.072419,12.968551,0.000000,0.000000,0.000000,0.000000,0.000000,0.000000,1013.250000,-0.000000,25.500000,992,1500,1500,1500,992,1499.997716,1499.998532
1.150500,6871387.413078,8762.412715,0.000000,2.586285,1.296386,13.083000,1714.115789,7414.872246,-296.098685,0.000632,0.000112,0.197919,0.000000,0.000000,0.000000,0.000000,0.073064,500000.000002,90.073060,13.083000,0.000000,0.000000,0.000000,0.000000,0.000000,0.000000,1013.250000,-0.000000,25.500000,992,1500,1500,1500,992,1499.997829,1499.998623
1.160600,6871387.314554,8839.336070,0.000000,2.589226,1.291278,13.197448,1728.851864,7411.448357,-296.145701,0.000601,0.000105,0.197919,0.000000,0.000000,0.000000,0.000000,0.073705,500000.000002,90.073702,13.197448,0.000000,0.000000,0.000000,0.000000,0.000000,0.000000,1013.250000,-0.000000,25.500000,992,1500,1500,1500,992,1499.997936,1499.998709
1.170700,6871387.215170,8916.259424,0.000000,2.592139,1.286160,13.311896,1743.581084,7407.995273,-296.190528,0.000571,0.000098,0.197919,0.000000,0.000000,0.000000,0.000000,0.074347,500000.000002,90.074343,13.311896,0.000000,0.000000,0.000000,0.000000,0.000000,0.000000,1013.250000,-0.000000,25.500000,992,1500,1500,1500,992,1499.998038,1499.998789
1.180800,6871387.114924,8993.182777,0.000000,2.595025,1.281032,13.426343,1758.303390,7404.513004,-296.233272,0.000543,0.000092,0.197919,0.000000,0.000000,0.000000,0.000000,0.074988,500000.000002,90.074985,13.426343,0.000000,0.000000,0.000000,0.000000,0.000000,0.000000,1013.250000,-0.000000,25.500000,992,1500,1500,1500,992,1499.998134,1499.998864
1.190900,6871387.013817,9070.106128,0.000000,2.597885,1.275895,13.540790,1773.018727,7401.001559,-296.274038,0.000517,0.000086,0.197919,0.000000,0.000000,0.000000,0.000000,0.075629,500000.000002,90.075626,13.540790,0.000000,0.000000,0.000000,0.000000,0.000000,0.000000,1013.250000,-0.000000,25.500000,992,1500,1500,1500,992,1499.998226,1499.998935
1.201000,6871386.911849,9147.029479,0.000000,2.600720,1.270749,13.655236,1787.727039,7397.460948,-296.312922,0.000491,0.000081,0.197919,0.000000,0.000000,0.000000,0.000000,0.076271,500000.000002,90.076268,13.655236,0.000000,0.000000,0.000000,0.000000,0.000000,0.000000,1013.250000,-0.000000,25.500000,992,1500,1500,1500,992,1499.998314,1499.999001
1.211100,6871386.809020,9223.952828,0.000000,2.603530,1.265594,13.769681,1802.428267,7393.891181,-296.350018,0.000467,0.000076,0.197919,0.000000,0.000000,0.000000,0.000000,0.076912,500000.000002,90.076909,13.769681,0.000000,0.000000,0.000000,0.000000,0.000000,0.000000,1013.250000,-0.000000,25.500000,992,1500,1500,1500,992,1499.998397,1499.999063
1.221200,6871386.705330,9300.876176,0.000000,2.606316,1.260431,13.884126,1817.122355,7390.292269,-296.385414,0.000444,0.000071,0.197919,0.000000,0.000000,0.000000,0.000000,0.077554,500000.000002,90.077550,13.884126,0.000000,0.000000,0.000000,0.000000,0.000000,0.000000,1013.250000,-0.000000,25.500000,992,1500,1500,1500,992,1499.998476,1499.999122
1.231300,6871386.600779,9377.799523,0.000000,2.609079,1.255260,13.998570,1831.809246,7386.664223,-296.419195,0.000422,0.000066,0.197919,0.000000,0.000000,0.000000,0.000000,0.078195,500000.000003,90.078192,13.998570,0.000000,0.000000,0.000000,0.000000,0.000000,0.000000,1013.250000,-0.000000,25.500000,992,1500,1500,1500,992,1499.998551,1499.999176
1.241400,6871386.495366,9454.722869,0.000000,2.611819,1.250081,14.113013,1846.488883,7383.007053,-296.451439,0.000401,0.000062,0.197919,0.000000,0.000000,0.000000,0.000000,0.078836,500000.000003,90.078833,14.113013,0.000000,0.000000,0.000000,0.000000,0.000000,0.000000,1013.250000,-0.000000,25.500000,992,1500,1500,1500,992,1499.998622,1499.999227
1.251500,6871386.389092,9531.646213,0.000000,2.614537,1.244893,14.227456,1861.161209,7379.320771,-296.482224,0.000381,0.000058,0.197919,0.000000,0.000000,0.000000,0.000000,0.079478,500000.000003,90.079475,14.227456,0.000000,0.000000,0.000000,0.000000,0.000000,0.000000,1013.250000,-0.000000,25.500000,992,1500,1500,1500,992,1499.998690,1499.999275
1.261600,6871386.281958,9608.569557,0.000000,2.617233,1.239699,14.341898,1875.826167,7375.605388,-296.511620,0.000363,0.000054,0.197919,0.000000,0.000000,0.000000,0.000000,0.080119,500000.000003,90.080116,14.341898,0.000000,0.000000,0.000000,0.000000,0.000000,0.000000,1013.250000,-0.000000,25.500000,992,1500,1500,1500,992,1499.998755,1499.999320
1.271700,6871386.173962,9685.492899,0.000000,2.619908,1.234497,14.456340,1890.483700,7371.860917,-296.539697,0.000345,0.000051,0.197919,0.000000,0.000000,0.000000,0.000000,0.080761,500000.000003,90.080757,14.456340,0.000000,0.000000,0.000000,0.000000,0.000000,0.000000,1013.250000,-0.000000,25.500000,992,1500,1500,1500,992,1499.998816,1499.999363
1.281800,6871386.065105,9762.416240,0.000000,2.622563,1.229287,14.570781,1905.133750,7368.087370,-296.566521,0.000328,0.000048,0.197919,0.000000,0.000000,0.000000,0.000000,0.081402,500000.000003,90.081399,14.570781,0.000000,0.000000,0.000000,0.000000,0.000000,0.000000,1013.250000,-0.000000,25.500000,992,1500,1500,1500,992,1499.998875,1499.999402
1.291900,6871385.955387,9839.339580,0.000000,2.625198,1.224071,14.685222,1919.776261,7364.284758,-296.592152,0.000312,0.000045,0.197919,0.000000,0.000000,0.000000,0.000000,0.082043,500000.000003,90.082040,14.685222,0.000000,0.000000,0.000000,0.000000,0.000000,0.000000,1013.250000,-0.000000,25.500000,992,1500,1500,1500,992,1499.998930,1499.999439
1.302000,6871385.844807,9916.262918,0.000000,2.627814,1.218847,14.799662,1934.411175,7360.453095,-296.616650,0.000296,0.000042,0.197919,0.000000,0.000000,0.000000,0.000000,0.082685,500000.000003,90.082682,14.799662,0.000000,0.000000,0.000000,0.000000,0.000000,0.000000,1013.250000,-0.000000,25.500000,992,1500,1500,1500,992,1499.998983,1499.999474
1.312100,6871385.733367,9993.186255,0.000000,2.630410,1.213617,14.914101,1949.038435,7356.592393,-296.640071,0.000282,0.000039,0.197919,0.000000,0.000000,0.000000,0.000000,0.083326,500000.000003,90.083323,14.914101,0.000000,0.000000,0.000000,0.000000,0.000000,0.000000,1013.250000,-0.000000,25.500000,992,1500,1500,1500,992,1499.999033,1499.999507
1.322200,6871385.621065,10070.109591,0.000000,2.632987,1.208380,15.028541,1963.657985,7352.702666,-296.662468,0.000268,0.000037,0.197919,0.000000,0.000000,0.000000,0.000000,0.083968,500000.000003,90.083964,15.028541,0.000000,0.000000,0.000000,0.000000,0.000000,0.000000,1013.250000,-0.000000,25.500000,992,1500,1500,1500,992,1499.999081,1499.999537
1.332300,6871385.507902,10147.032926,0.000000,2.635547,1.203136,15.142979,1978.269766,7348.783926,-296.683892,0.000255,0.000034,0.197919,0.000000,0.000000,0.000000,0.000000,0.084609,500000.000003,90.084606,15.142979,0.000000,0.000000,0.000000,0.000000,0.000000,0.000000,1013.250000,-0.000000,25.500000,992,1500,1500,1500,992,1499.999126,1499.999566
1.342400,6871385.393879,10223.956260,0.000000,2.638088,1.197886,15.257417,1992.873721,7344.836188,-296.704391,0.000242,0.000032,0.197919,0.000000,0.000000,0.000000,0.000000,0.085251,500000.000003,90.085247,15.257417,0.000000,0.000000,0.000000,0.000000,0.000000,0.000000,1013.250000,-0.000000,25.500000,992,1500,1500,1500,992,1499.999169,1499.999593
1.352500,6871385.278994,10300.879592,0.000000,2.640611,1.192630,15.371855,2007.469794,7340.859465,-296.724010,0.000230,0.000030,0.197919,0.000000,0.000000,0.000000,0.000000,0.085892,500000.000003,90.085889,15.371855,0.000000,0.000000,0.000000,0.000000,0.000000,0.000000,1013.250000,-0.000000,25.500000,992,1500,1500,1500,992,1499.999210,1499.999618
1.362600,6871385.163248,10377.802923,0.000000,2.643118,1.187368,15.486292,2022.057928,7336.853770,-296.742793,0.000219,0.000028,0.197919,0.000000,0.000000,0.000000,0.000000,0.086533,500000.000003,90.086530,15.486292,0.000000,0.000000,0.000000,0.000000,0.000000,0.000000,1013.250000,-0.000000,25.500000,992,1500,1500,1500,992,1499.999249,1499.999642
1.372700,6871385.046640,10454.726252,0.000000,2.645607,1.182100,15.600728,2036.638064,7332.819119,-296.760783,0.000208,0.000026,0.197919,0.000000,0.000000,0.000000,0.000000,0.087175,500000.000003,90.087172,15.600728,0.000000,0.000000,0.000000,0.000000,0.000000,0.000000,1013.250000,-0.000000,25.500000,992,1500,1500,1500,992,1499.999286,1499.999664
1.382800,6871384.929172,10531.649581,0.000000,2.648080,1.176825,15.715164,2051.210146,7328.755525,-296.778016,0.000198,0.000025,0.197919,0.000000,0.000000,0.000000,0.000000,0.087816,500000.000003,90.087813,15.715164,0.000000,0.000000,0.000000,0.000000,0.000000,0.000000,1013.250000,-0.000000,25.500000,992,1500,1500,1500,992,1499.999321,1499.999684
1.392900,6871384.810842,10608.572908,0.000000,2.650537,1.171545,15.829600,2065.774116,7324.663002,-296.794532,0.000188,0.000023,0.197919,0.000000,0.000000,0.000000,0.000000,0.088458,500000.000003,90.088454,15.829600,0.000000,0.000000,0.000000,0.000000,0.000000,0.000000,1013.250000,-0.000000,25.500000,992,1500,1500,1500,992,1499.999355,1499.999704
1.403000,6871384.691652,10685.496233,0.000000,2.652978,1.166259,15.944035,2080.329918,7320.541567,-296.810366,0.000179,0.000022,0.197919,0.000000,0.000000,0.000000,0.000000,0.089099,500000.000003,90.089096,15.944035,0.000000,0.000000,0.000000,0.000000,0.000000,0.000000,1013.250000,-0.000000,25.500000,992,1500,1500,1500,992,1499.999386,1499.999722
1.413100,6871384.571600,10762.419558,0.000000,2.655402,1.160968,16.058469,2094.877495,7316.391232,-296.825551,0.000170,0.000020,0.197919,0.000000,0.000000,0.000000,0.000000,0.089740,500000.000003,90.089737,16.058469,0.000000,0.000000,0.000000,0.000000,0.000000,0.000000,1013.250000,-0.000000,25.500000,992,1500,1500,1500,992,1499.999417,1499.999739
1.423200,6871384.450687,10839.342881,0.000000,2.657811,1.155670,16.172903,2109.416788,7312.212015,-296.840119,0.000162,0.000019,0.197919,0.000000,0.000000,0.000000,0.000000,0.090382,500000.000003,90.090379,16.172903,0.000000,0.000000,0.000000,0.000000,0.000000,0.000000,1013.250000,-0.000000,25.500000,992,1500,1500,1500,992,1499.999445,1499.999755
1.433300,6871384.328913,10916.266202,0.000000,2.660205,1.150368,16.287337,2123.947742,7308.003929,-296.854101,0.000154,0.000018,0.197919,0.000000,0.000000,0.000000,0.000000,0.091023,500000.000003,90.091020,16.287337,0.000000,0.000000,0.000000,0.000000,0.000000,0.000000,1013.250000,-0.000000,25.500000,992,1500,1500,1500,992,1499.999473,1499.999771
1.443400,6871384.206278,10993.189522,0.000000,2.662584,1.145059,16.401770,2138.470298,7303.766990,-296.867527,0.000146,0.000017,0.197919,0.000000,0.000000,0.000000,0.000000,0.091665,500000.000003,90.091661,16.401770,0.000000,0.000000,0.000000,0.000000,0.000000,0.000000,1013.250000,-0.000000,25.500000,992,1500,1500,1500,992,1499.999499,1499.999785
1.453500,6871384.082781,11070.112841,0.000000,2.664948,1.139746,16.516203,2152.984400,7299.501215,-296.880423,0.000139,0.000016,0.197919,0.000000,0.000000,0.000000,0.000000,0.092306,500000.000004,90.092303,16.516203,0.000000,0.000000,0.000000,0.000000,0.000000,0.000000,1013.250000,-0.000000,25.500000,992,1500,1500,1500,992,1499.999523,1499.999798
1.463600,6871383.958424,11147.036159,0.000000,2.667297,1.134427,16.630635,2167.489990,7295.206617,-296.892815,0.000132,0.000015,0.197919,0.000000,0.000000,0.000000,0.000000,0.092947,500000.000004,90.092944,16.630635,0.000000,0.000000,0.000000,0.000000,0.000000,0.000000,1013.250000,-0.000000,25.500000,992,1500,1500,1500,992,1499.999547,1499.999810
1.473700,6871383.833205,11223.959475,0.000000,2.669632,1.129103,16.745067,2181.987012,7290.883215,-296.904730,0.000125,0.000014,0.197919,0.000000,0.000000,0.000000,0.000000,0.093589,500000.000004,90.093586,16.745067,0.000000,0.000000,0.000000,0.000000,0.000000,0.000000,1013.250000,-0.000000,25.500000,992,1500,1500,1500,992,1499.999569,1499.999822
1.483800,6871383.707125,11300.882790,0.000000,2.671952,1.123774,16.859498,2196.475409,7286.531023,-296.916189,0.000119,0.000013,0.197919,0.000000,0.000000,0.000000,0.000000,0.094230,500000.000004,90.094227,16.859498,0.000000,0.000000,0.000000,0.000000,0.000000,0.000000,1013.250000,-0.000000,25.500000,992,1500,1500,1500,992,1499.999590,1499.999833
1.493900,6871383.580184,11377.806103,0.000000,2.674258,1.118439,16.973929,2210.955123,7282.150058,-296.927217,0.000113,0.000012,0.197919,0.000000,0.000000,0.000000,0.000000,0.094872,500000.000004,90.094868,16.973929,0.000000,0.000000,0.000000,0.000000,0.000000,0.000000,1013.250000,-0.000000,25.500000,992,1500,1500,1500,992,1499.999611,1499.999843
1.504000,6871383.452382,11454.729415,0.000000,2.676551,1.113100,17.088359,2225.426097,7277.740336,-296.937833,0.000108,0.000011,0.197919,0.000000,0.000000,0.000000,0.000000,0.095513,500000.000004,90.095510,17.088359,0.000000,0.000000,0.000000,0.000000,0.000000,0.000000,1013.250000,-0.000000,25.500000,992,1500,1500,1500,992,1499.999630,1499.999853
1.514100,6871383.323719,11531.652725,0.000000,2.678829,1.107755,17.202789,2239.888275,7273.301875,-296.948059,0.000103,0.000011,0.197919,0.000000,0.000000,0.000000,0.000000,0.096154,500000.000004,90.096151,17.202789,0.000000,0.000000,0.000000,0.000000,0.000000,0.000000,1013.250000,-0.000000,25.500000,992,1500,1500,1500,992,1499.999648,1499.999862
1.524200,6871383.194195,11608.576034,0.000000,2.681094,1.102406,17.317219,2254.341599,7268.834689,-296.957914,0.000097,0.000010,0.197919,0.000000,0.000000,0.000000,0.000000,0.096796,500000.000004,90.096793,17.317219,0.000000,0.000000,0.000000,0.000000,0.000000,0.000000,1013.250000,-0.000000,25.500000,992,1500,1500,1500,992,1499.999665,1499.999870
1.534300,6871383.063810,11685.499341,0.000000,2.683345,1.097052,17.431648,2268.786013,7264.338798,-296.967417,0.000093,0.000009,0.197919,0.000000,0.000000,0.000000,0.000000,0.097437,500000.000004,90.097434,17.431648,0.000000,0.000000,0.000000,0.000000,0.000000,0.000000,1013.250000,-0.000000,25.500000,992,1500,1500,1500,992,1499.999682,1499.999878
1.544400,6871382.932563,11762.422648,0.000000,2.685583,1.091693,17.546077,2283.221459,7259.814217,-296.976584,0.000088,0.000009,0.197919,0.000000,0.000000,0.000000,0.000000,0.098079,500000.000004,90.098075,17.546077,0.000000,0.000000,0.000000,0.000000,0.000000,0.000000,1013.250000,-0.000000,25.500000,992,1500,1500,1500,992,1499.999698,1499.999886
1.554500,6871382.800455,11839.345952,0.000000,2.687807,1.086329,17.660505,2297.647882,7255.260964,-296.985432,0.000084,0.000008,0.197919,0.000000,0.000000,0.000000,0.000000,0.098720,500000.000004,90.098717,17.660505,0.000000,0.000000,0.000000,0.000000,0.000000,0.000000,1013.250000,-0.000000,25.500000,992,1500,1500,1500,992,1499.999712,1499.999893
1.564600,6871382.667486,11916.269255,0.000000,2.690019,1.080960,17.774933,2312.065222,7250.679056,-296.993978,0.000080,0.000008,0.197919,0.000000,0.000000,0.000000,0.000000,0.099362,500000.000004,90.099358,17.774933,0.000000,0.000000,0.000000,0.000000,0.000000,0.000000,1013.250000,-0.000000,25.500000,992,1500,1500,1500,992,1499.999727,1499.999899
1.574700,6871382.533656,11993.192557,0.000000,2.692217,1.075587,17.889360,2326.473425,7246.068511,-297.002235,0.000076,0.000007,0.197919,0.000000,0.000000,0.000000,0.000000,0.100003,500000.000004,90.100000,17.889360,0.000000,0.000000,0.000000,0.000000,0.000000,0.000000,1013.250000,-0.000000,25.500000,992,1500,1500,1500,992,1499.999740,1499.999906
1.584800,6871382.398965,12070.115857,0.000000,2.694402,1.070209,18.003787,2340.872433,7241.429346,-297.010219,0.000072,0.000007,0.197919,0.000000,0.000000,0.000000,0.000000,0.100644,500000.000004,90.100641,18.003787,0.000000,0.000000,0.000000,0.000000,0.000000,0.000000,1013.250000,-0.000000,25.500000,992,1500,1500,1500,992,1499.999753,1499.999911
1.594900,6871382.263413,12147.039155,0.000000,2.696575,1.064826,18.118214,2355.262190,7236.761579,-297.017943,0.000068,0.000006,0.197919,0.000000,0.000000,0.000000,0.000000,0.101286,500000.000004,90.101283,18.118214,0.000000,0.000000,0.000000,0.000000,0.000000,0.000000,1013.250000,-0.000000,25.500000,992,1500,1500,1500,992,1499.999765,1499.999917
1.605000,6871382.127000,12223.962452,0.000000,2.698734,1.059439,18.232640,2369.642638,7232.065228,-297.025420,0.000065,0.000006,0.197919,0.000000,0.000000,0.000000,0.000000,0.101927,500000.000004,90.101924,18.232640,0.000000,0.000000,0.000000,0.000000,0.000000,0.000000,1013.250000,-0.000000,25.500000,992,1500,1500,1500,992,1499.999777,1499.999922
1.615100,6871381.989725,12300.885748,0.000000,2.700881,1.054048,18.347065,2384.013721,7227.340311,-297.032662,0.000062,0.000005,0.197919,0.000000,0.000000,0.000000,0.000000,0.102569,500000.000004,90.102565,18.347065,0.000000,0.000000,0.000000,0.000000,0.000000,0.000000,1013.250000,-0.000000,25.500000,992,1500,1500,1500,992,1499.999788,1499.999927
1.625200,6871381.851589,12377.809042,0.000000,2.703016,1.048652,18.461491,2398.375382,7222.586846,-297.039680,0.000059,0.000005,0.197919,0.000000,0.000000,0.000000,0.000000,0.103210,500000.000004,90.103207,18.461491,0.000000,0.000000,0.000000,0.000000,0.000000,0.000000,1013.250000,-0.000000,25.500000,992,1500,1500,1500,992,1499.999798,1499.999931
1.635300,6871381.712593,12454.732334,0.000000,2.705138,1.043251,18.575916,2412.727565,7217.804852,-297.046486,0.000056,0.000005,0.197919,0.000000,0.000000,0.000000,0.000000,0.103851,500000.000004,90.103848,18.575916,0.000000,0.000000,0.000000,0.000000,0.000000,0.000000,1013.250000,-0.000000,25.500000,992,1500,1500,1500,992,1499.999808,1499.999935
1.645400,6871381.572735,12531.655625,0.000000,2.707247,1.037846,18.690340,2427.070213,7212.994346,-297.053091,0.000053,0.000004,0.197919,0.000000,0.000000,0.000000,0.000000,0.104493,500000.000005,90.104490,18.690340,0.000000,0.000000,0.000000,0.000000,0.000000,0.000000,1013.250000,-0.000000,25.500000,992,1500,1500,1500,992,1499.999818,1499.999939
1.655500,6871381.432016,12608.578914,0.000000,2.709344,1.032437,18.804764,2441.403269,7208.155348,-297.059504,0.000051,0.000004,0.197919,0.000000,0.000000,0.000000,0.000000,0.105134,500000.000005,90.105131,18.804764,0.000000,0.000000,0.000000,0.000000,0.000000,0.000000,1013.250000,-0.000000,25.500000,992,1500,1500,1500,992,1499.999827,1499.999943
1.665600,6871381.290435,12685.502202,0.000000,2.711429,1.027023,18.919188,2455.726677,7203.287877,-297.065734,0.000048,0.000004,0.197919,0.000000,0.000000,0.000000,0.000000,0.105776,500000.000005,90.105772,18.919188,0.000000,0.000000,0.000000,0.000000,0.000000,0.000000,1013.250000,-0.000000,25.500000,992,1500,1500,1500,992,1499.999835,1499.999947
1.675700,6871381.147994,12762.425488,0.000000,2.713502,1.021605,19.033611,2470.040380,7198.391950,-297.071792,0.000046,0.000004,0.197919,0.000000,0.000000,0.000000,0.000000,0.106417,500000.000005,90.106414,19.033611,0.000000,0.000000,0.000000,0.000000,0.000000,0.000000,1013.250000,-0.000000,25.500000,992,1500,1500,1500,992,1499.999843,1499.999950
1.685800,6871381.004692,12839.348773,0.000000,2.715562,1.016183,19.148034,2484.344321,7193.467588,-297.077684,0.000043,0.000003,0.197919,0.000000,0.000000,0.000000,0.000000,0.107058,500000.000005,90.107055,19.148034,0.000000,0.000000,0.000000,0.000000,0.000000,0.000000,1013.250000,-0.000000,25.500000,992,1500,1500,1500,992,1499.999851,1499.999953
1.695900,6871380.860528,12916.272056,0.000000,2.717611,1.010757,19.262457,2498.638446,7188.514808,-297.083421,0.000041,0.000003,0.197919,0.000000,0.000000,0.000000,0.000000,0.107700,500000.000005,90.107697,19.262457,0.000000,0.000000,0.000000,0.000000,0.000000,0.000000,1013.250000,-0.000000,25.500000,992,1500,1500,1500,992,1499.999858,1499.999956
1.706000,6871380.715503,12993.195337,0.000000,2.719647,1.005326,19.376879,2512.922696,7183.533632,-297.089008,0.000039,0.000003,0.197919,0.000000,0.000000,0.000000,0.000000,0.108341,500000.000005,90.108338,19.376879,0.000000,0.000000,0.000000,0.000000,0.000000,0.000000,1013.250000,-0.000000,25.500000,992,1500,1500,1500,992,1499.999865,1499.999958
1.716100,6871380.569617,13070.118617,0.000000,2.721671,0.999891,19.491301,2527.197015,7178.524077,-297.094455,0.000037,0.000003,0.197919,0.000000,0.000000,0.000000,0.000000,0.108983,500000.000005,90.108979,19.491301,0.000000,0.000000,0.000000,0.000000,0.000000,0.000000,1013.250000,-0.000000,25.500000,992,1500,1500,1500,992,1499.999872,1499.999961
