Time (sec) ,X(m) ,Y(m) ,Z(m) ,Roll (deg) ,Pitch (deg) ,Yaw (deg) ,U(m/s) ,V(m/s) ,W(m/s) ,P(rad/s) ,Q(rad/s) ,R(rad/s) ,Mx(Gauss) ,My(Gauss) ,Mz(Gauss) ,GPS Latitude (deg) ,GPS Longitude (deg) ,GPS Altitude (m) ,GPS Heading (deg) ,Yaw (deg) ,Analog 1 (V) ,Analog 2 (V) ,Analog 3 (V) ,Analog 4 (V) ,Analog 5 (V) ,Analog 6 (V) ,Pressure (Pa) ,Pressure Altitude (m) ,Temperature (C) ,RC Channel #1 ,RC Channel #2 ,RC Channel #3 ,RC Channel #4 ,RC Channel #5 ,PWM Model 1 ,PWM Model 2 ,PWM Model 3 
 0.000000,6871393.000000,0.000000,0.000000,0.000000,0.000000,0.000000,0.000000,7616.180000,0.000000,0.200000,0.200000,0.200000,0.000000,0.000000,0.000000,0.000000,0.000000,500000.000000,0.000000,0.000000,0.000000,0.000000,0.000000,0.000000,0.000000,0.000000,1013.250000,-0.000000,25.500000,992,1500,1500,1500,992,1500.000000,1500.000000,1500.000000
0.010100,6871392.999569,76.923418,0.000000,0.119320,0.120264,0.115790,15.306341,7616.148171,-15.828676,0.211885,0.216003,0.199741,0.000000,0.000000,0.000000,0.000000,0.000641,500000.000000,90.000638,0.115790,0.000000,0.000000,0.000000,0.000000,0.000000,0.000000,1013.250000,-0.000000,25.500000,992,1500,1500,1500,992,1500.791312,1502.639177,1500.000000
0.020200,6871392.998278,153.846836,0.000000,0.245633,0.249448,0.231707,30.629285,7616.048992,-32.517581,0.223300,0.231686,0.199446,0.000000,0.000000,0.000000,0.000000,0.001283,500000.000000,90.001280,0.231707,0.000000,0.000000,0.000000,0.000000,0.000000,0.000000,1013.250000,-0.000000,25.500000,992,1500,1500,1500,992,1500.759962,1502.583249,1500.000000
0.030300,6871392.996125,230.770254,0.000000,0.378690,0.387354,0.347785,45.973019,7615.876946,-50.026231,0.234262,0.247055,0.199115,0.000000,0.000000,0.000000,0.000000,0.001924,500000.000000,90.001921,0.347785,0.000000,0.000000,0.000000,0.000000,0.000000,0.000000,1013.250000,-0.000000,25.500000,992,1500,1500,1500,992,1500.729853,1502.528502,1500.000000
0.040300,6871392.993145,306.932054,0.000000,0.516842,0.532298,0.462907,61.189474,7615.629444,-68.130846,0.244688,0.261968,0.198749,0.000000,0.000000,0.000000,0.000000,0.002559,500000.000000,90.002556,0.462907,0.000000,0.000000,0.000000,0.000000,0.000000,0.000000,1013.250000,-0.000000,25.500000,992,1500,1500,1500,992,1500.701219,1502.475437,1500.000000
0.050300,6871392.989321,383.093854,0.000000,0.661151,0.685420,0.578255,76.434588,7615.299912,-86.964369,0.254705,0.276587,0.198347,0.000000,0.000000,0.000000,0.000000,0.003194,500000.000000,90.003191,0.578255,0.000000,0.000000,0.000000,0.000000,0.000000,0.000000,1013.250000,-0.000000,25.500000,992,1500,1500,1500,992,1500.673707,1502.423484,1500.000000
0.060300,6871392.984653,459.255654,0.000000,0.811406,0.846541,0.693866,91.712495,7614.883199,-106.491660,0.264329,0.290916,0.197906,0.000000,0.000000,0.000000,0.000000,0.003829,500000.000000,90.003826,0.693866,0.000000,0.000000,0.000000,0.000000,0.000000,0.000000,1013.250000,-0.000000,25.500000,992,1500,1500,1500,992,1500.647275,1502.372620,1500.000000
0.070300,6871392.979140,535.417453,0.000000,0.967404,1.015483,0.809774,107.027319,7614.374263,-126.678846,0.273575,0.304961,0.197426,0.000000,0.000000,0.000000,0.000000,0.004464,500000.000000,90.004461,0.809774,0.000000,0.000000,0.000000,0.000000,0.000000,0.000000,1013.250000,-0.000000,25.500000,992,1500,1500,1500,992,1500.621880,1502.322823,1500.000000
0.080300,6871392.972784,611.579253,0.000000,1.128951,1.192074,0.926015,122.383158,7613.768179,-147.493268,0.282458,0.318728,0.196906,0.000000,0.000000,0.000000,0.000000,0.005100,500000.000000,90.005096,0.926015,0.000000,0.000000,0.000000,0.000000,0.000000,0.000000,1013.250000,-0.000000,25.500000,992,1500,1500,1500,992,1500.597482,1502.274071,1500.000000
0.090300,6871392.965583,687.741053,0.000000,1.295861,1.376146,1.042626,137.784074,7613.060158,-168.903430,0.290993,0.332222,0.196347,0.000000,0.000000,0.000000,0.000000,0.005735,500000.000000,90.005731,1.042626,0.000000,0.000000,0.000000,0.000000,0.000000,0.000000,1013.250000,-0.000000,25.500000,992,1500,1500,1500,992,1500.574040,1502.226344,1500.000000
0.100300,6871392.957538,763.902852,0.000000,1.467957,1.567532,1.159644,153.234081,7612.245551,-190.878955,0.299194,0.345449,0.195748,0.000000,0.000000,0.000000,0.000000,0.006370,500000.000000,90.006367,1.159644,0.000000,0.000000,0.000000,0.000000,0.000000,0.000000,1013.250000,-0.000000,25.500000,992,1500,1500,1500,992,1500.551519,1502.179621,1500.000000
0.110300,6871392.948649,840.064652,0.000000,1.645070,1.766071,1.277105,168.737131,7611.319863,-213.390536,0.307072,0.358414,0.195110,0.000000,0.000000,0.000000,0.000000,0.007005,500000.000000,90.007002,1.277105,0.000000,0.000000,0.000000,0.000000,0.000000,0.000000,1013.250000,-0.000000,25.500000,992,1500,1500,1500,992,1500.529881,1502.133881,1500.000000
0.120300,6871392.938916,916.226451,0.000000,1.827037,1.971604,1.395046,184.297111,7610.278755,-236.409893,0.314641,0.371122,0.194430,0.000000,0.000000,0.000000,0.000000,0.007640,500000.000000,90.007637,1.395046,0.000000,0.000000,0.000000,0.000000,0.000000,0.000000,1013.250000,-0.000000,25.500000,992,1500,1500,1500,992,1500.509091,1502.089104,1500.000000
0.130400,6871392.928228,993.149869,0.000000,2.015594,2.186133,1.514691,200.074355,7609.105831,-260.147070,0.321985,0.383702,0.193704,0.000000,0.000000,0.000000,0.000000,0.008281,500000.000000,90.008278,1.514691,0.000000,0.000000,0.000000,0.000000,0.000000,0.000000,1013.250000,-0.000000,25.500000,992,1500,1500,1500,992,1500.488922,1502.044838,1500.000000
0.140500,6871392.916679,1070.073286,0.000000,2.208794,2.407453,1.634900,215.917268,7607.806787,-284.347346,0.329037,0.395863,0.192936,0.000000,0.000000,0.000000,0.000000,0.008923,500000.000000,90.008919,1.634900,0.000000,0.000000,0.000000,0.000000,0.000000,0.000000,1013.250000,-0.000000,25.500000,992,1500,1500,1500,992,1500.469552,1501.932688,1500.000000
0.150600,6871392.904270,1146.996703,0.000000,2.406490,2.635203,1.755704,231.828512,7606.377678,-308.985365,0.335811,0.407298,0.192129,0.000000,0.000000,0.000000,0.000000,0.009564,500000.000000,90.009561,1.755704,0.000000,0.000000,0.000000,0.000000,0.000000,0.000000,1013.250000,-0.000000,25.500000,992,1500,1500,1500,992,1500.450949,1501.811074,1500.000000
0.160700,6871392.890999,1223.920120,0.000000,2.608543,2.868962,1.877127,247.810114,7604.814735,-334.037106,0.342315,0.418044,0.191282,0.000000,0.000000,0.000000,0.000000,0.010205,500000.000000,90.010202,1.877127,0.000000,0.000000,0.000000,0.000000,0.000000,0.000000,1013.250000,-0.000000,25.500000,992,1500,1500,1500,992,1500.433083,1501.696977,1500.000000
0.170800,6871392.876867,1300.843536,0.000000,2.814820,3.108332,1.999193,263.863847,7603.114369,-359.479559,0.348563,0.428142,0.190398,0.000000,0.000000,0.000000,0.000000,0.010847,500000.000000,90.010844,1.999193,0.000000,0.000000,0.000000,0.000000,0.000000,0.000000,1013.250000,-0.000000,25.500000,992,1500,1500,1500,992,1500.415925,1501.589712,1500.000000
0.180900,6871392.861874,1377.766953,0.000000,3.025193,3.352943,2.121924,279.991241,7601.273170,-385.290668,0.354562,0.437631,0.189477,0.000000,0.000000,0.000000,0.000000,0.011488,500000.000000,90.011485,2.121924,0.000000,0.000000,0.000000,0.000000,0.000000,0.000000,1013.250000,-0.000000,25.500000,992,1500,1500,1500,992,1500.399447,1501.488683,1500.000000
0.191000,6871392.846019,1454.690369,0.000000,3.239538,3.602443,2.245342,296.193592,7599.287902,-411.449297,0.360324,0.446545,0.188521,0.000000,0.000000,0.000000,0.000000,0.012130,500000.000000,90.012126,2.245342,0.000000,0.000000,0.000000,0.000000,0.000000,0.000000,1013.250000,-0.000000,25.500000,992,1500,1500,1500,992,1500.383622,1501.393360,1500.000000
0.201100,6871392.829304,1531.613785,0.000000,3.457738,3.856500,2.369467,312.471974,7597.155509,-437.935184,0.365858,0.454916,0.187532,0.000000,0.000000,0.000000,0.000000,0.012771,500000.000000,90.012768,2.369467,0.000000,0.000000,0.000000,0.000000,0.000000,0.000000,1013.250000,-0.000000,25.500000,992,1500,1500,1500,992,1500.368424,1501.303278,1500.000000
0.211200,6871392.811727,1608.537201,0.000000,3.679681,4.114801,2.494316,328.827240,7594.873105,-464.728903,0.371172,0.462774,0.186509,0.000000,0.000000,0.000000,0.000000,0.013412,500000.000000,90.013409,2.494316,0.000000,0.000000,0.000000,0.000000,0.000000,0.000000,1013.250000,-0.000000,25.500000,992,1500,1500,1500,992,1500.353827,1501.218022,1500.000000
0.221300,6871392.793290,1685.460617,0.000000,3.905258,4.377049,2.619907,345.260041,7592.437976,-491.811833,0.376276,0.470145,0.185454,0.000000,0.000000,0.000000,0.000000,0.014054,500000.000000,90.014051,2.619907,0.000000,0.000000,0.000000,0.000000,0.000000,0.000000,1013.250000,-0.000000,25.500000,992,1500,1500,1500,992,1500.339809,1501.137223,1500.000000
0.231400,6871392.773991,1762.384033,0.000000,4.134367,4.642961,2.746257,361.770822,7589.847574,-519.166121,0.381178,0.477055,0.184369,0.000000,0.000000,0.000000,0.000000,0.014695,500000.000000,90.014692,2.746257,0.000000,0.000000,0.000000,0.000000,0.000000,0.000000,1013.250000,-0.000000,25.500000,992,1500,1500,1500,992,1500.326347,1501.060548,1500.000000
0.241500,6871392.753831,1839.307448,0.000000,4.366909,4.912272,2.873379,378.359842,7587.099519,-546.774650,0.385885,0.483526,0.183255,0.000000,0.000000,0.000000,0.000000,0.015337,500000.000000,90.015334,2.873379,0.000000,0.000000,0.000000,0.000000,0.000000,0.000000,1013.250000,-0.000000,25.500000,992,1500,1500,1500,992,1500.313418,1500.987700,1500.000000
0.251600,6871392.732810,1916.230863,0.000000,4.602789,5.184725,3.001288,395.027173,7584.191586,-574.621011,0.390406,0.489580,0.182113,0.000000,0.000000,0.000000,0.000000,0.015978,500000.000000,90.015975,3.001288,0.000000,0.000000,0.000000,0.000000,0.000000,0.000000,1013.250000,-0.000000,25.500000,992,1500,1500,1500,992,1500.301001,1500.918412,1500.000000
0.261700,6871392.710927,1993.154278,0.000000,4.841915,5.460079,3.129997,411.772713,7581.121713,-602.689476,0.394748,0.495237,0.180944,0.000000,0.000000,0.000000,0.000000,0.016620,500000.000000,90.016616,3.129997,0.000000,0.000000,0.000000,0.000000,0.000000,0.000000,1013.250000,-0.000000,25.500000,992,1500,1500,1500,992,1500.289075,1500.852441,1500.000000
0.271800,6871392.688184,2070.077693,0.000000,5.084203,5.738103,3.259516,428.596189,7577.887985,-630.964967,0.398918,0.500515,0.179749,0.000000,0.000000,0.000000,0.000000,0.017261,500000.000000,90.017258,3.259516,0.000000,0.000000,0.000000,0.000000,0.000000,0.000000,1013.250000,-0.000000,25.500000,992,1500,1500,1500,992,1500.277623,1500.789566,1500.000000
0.281900,6871392.664580,2147.001107,0.000000,5.329567,6.018576,3.389856,445.497169,7574.488639,-659.433033,0.402923,0.505433,0.178529,0.000000,0.000000,0.000000,0.000000,0.017902,500000.000000,90.017899,3.389856,0.000000,0.000000,0.000000,0.000000,0.000000,0.000000,1013.250000,-0.000000,25.500000,992,1500,1500,1500,992,1500.266624,1500.729589,1500.000000
0.292000,6871392.640114,2223.924521,0.000000,5.577929,6.301288,3.521027,462.475067,7570.922055,-688.079827,0.406769,0.510005,0.177286,0.000000,0.000000,0.000000,0.000000,0.018544,500000.000000,90.018541,3.521027,0.000000,0.000000,0.000000,0.000000,0.000000,0.000000,1013.250000,-0.000000,25.500000,992,1500,1500,1500,992,1500.256061,1500.672327,1500.000000
0.302100,6871392.614787,2300.847935,0.000000,5.829212,6.586039,3.653037,479.529149,7567.186752,-716.892079,0.410463,0.514248,0.176020,0.000000,0.000000,0.000000,0.000000,0.019185,500000.000000,90.019182,3.653037,0.000000,0.000000,0.000000,0.000000,0.000000,0.000000,1013.250000,-0.000000,25.500000,992,1500,1500,1500,992,1500.245916,1500.617614,1500.000000
0.312200,6871392.588599,2377.771349,0.000000,6.083342,6.872635,3.785893,496.658542,7563.281385,-745.857079,0.414010,0.518176,0.174733,0.000000,0.000000,0.000000,0.000000,0.019827,500000.000000,90.019823,3.785893,0.000000,0.000000,0.000000,0.000000,0.000000,0.000000,1013.250000,-0.000000,25.500000,992,1500,1500,1500,992,1500.236173,1500.565298,1500.000000
0.322300,6871392.561550,2454.694762,0.000000,6.340251,7.160894,3.919602,513.862238,7559.204739,-774.962652,0.417417,0.521802,0.173425,0.000000,0.000000,0.000000,0.000000,0.020468,500000.000000,90.020465,3.919602,0.000000,0.000000,0.000000,0.000000,0.000000,0.000000,1013.250000,-0.000000,25.500000,992,1500,1500,1500,992,1500.226817,1500.515237,1500.000000
0.332400,6871392.533640,2531.618175,0.000000,6.599870,7.450639,4.054170,531.139103,7554.955725,-804.197140,0.420688,0.525139,0.172099,0.000000,0.000000,0.000000,0.000000,0.021109,500000.000000,90.021106,4.054170,0.000000,0.000000,0.000000,0.000000,0.000000,0.000000,1013.250000,-0.000000,25.500000,992,1500,1500,1500,992,1500.217831,1500.467304,1500.000000
0.342500,6871392.504868,2608.541587,0.000000,6.862135,7.741701,4.189601,548.487884,7550.533376,-833.549382,0.423831,0.528199,0.170753,0.000000,0.000000,0.000000,0.000000,0.021751,500000.000000,90.021748,4.189601,0.000000,0.000000,0.000000,0.000000,0.000000,0.000000,1013.250000,-0.000000,25.500000,992,1500,1500,1500,992,1500.209201,1500.421381,1500.000000
0.352600,6871392.475236,2685.465000,0.000000,7.126985,8.033919,4.325899,565.907210,7545.936841,-863.008695,0.426848,0.530993,0.169391,0.000000,0.000000,0.000000,0.000000,0.022392,500000.000000,90.022389,4.325899,0.000000,0.000000,0.000000,0.000000,0.000000,0.000000,1013.250000,-0.000000,25.500000,992,1500,1500,1500,992,1500.200912,1500.377357,1500.000000
0.362700,6871392.444742,2762.388412,0.000000,7.394359,8.327137,4.463067,583.395604,7541.165383,-892.564860,0.429746,0.533532,0.168012,0.000000,0.000000,0.000000,0.000000,0.023034,500000.000000,90.023030,4.463067,0.000000,0.000000,0.000000,0.000000,0.000000,0.000000,1013.250000,-0.000000,25.500000,992,1500,1500,1500,992,1500.192953,1500.335132,1500.000000
0.372800,6871392.413388,2839.311823,0.000000,7.664201,8.621206,4.601108,600.951486,7536.218370,-922.208100,0.432530,0.535826,0.166618,0.000000,0.000000,0.000000,0.000000,0.023675,500000.000000,90.023672,4.601108,0.000000,0.000000,0.000000,0.000000,0.000000,0.000000,1013.250000,-0.000000,25.500000,992,1500,1500,1500,992,1500.185308,1500.294611,1500.000000
0.382900,6871392.381172,2916.235234,0.000000,7.936455,8.915983,4.740022,618.573180,7531.095277,-951.929068,0.435203,0.537885,0.165209,0.000000,0.000000,0.000000,0.000000,0.024316,500000.000000,90.024313,4.740022,0.000000,0.000000,0.000000,0.000000,0.000000,0.000000,1013.250000,-0.000000,25.500000,992,1500,1500,1500,992,1500.177967,1500.255708,1500.000000
0.393000,6871392.348095,2993.158645,0.000000,8.211071,9.211331,4.879809,636.258916,7525.795674,-981.718828,0.437770,0.539717,0.163787,0.000000,0.000000,0.000000,0.000000,0.024958,500000.000000,90.024955,4.879809,0.000000,0.000000,0.000000,0.000000,0.000000,0.000000,1013.250000,-0.000000,25.500000,992,1500,1500,1500,992,1500.170916,1500.218341,1500.000000
0.403100,6871392.314156,3070.082056,0.000000,8.487996,9.507118,5.020470,654.006840,7520.319230,-1011.568845,0.440235,0.541332,0.162352,0.000000,0.000000,0.000000,0.000000,0.025599,500000.000000,90.025596,5.020470,0.000000,0.000000,0.000000,0.000000,0.000000,0.000000,1013.250000,-0.000000,25.500000,992,1500,1500,1500,992,1500.164145,1500.182436,1500.000000
0.413200,6871392.279357,3147.005466,0.000000,8.767183,9.803216,5.162004,671.815016,7514.665702,-1041.470965,0.442603,0.542737,0.160904,0.000000,0.000000,0.000000,0.000000,0.026241,500000.000000,90.026237,5.162004,0.000000,0.000000,0.000000,0.000000,0.000000,0.000000,1013.250000,-0.000000,25.500000,992,1500,1500,1500,992,1500.157642,1500.147922,1500.000000
0.423300,6871392.243697,3223.928876,0.000000,9.048583,10.099504,5.304409,689.681434,7508.834933,-1071.417405,0.444877,0.543941,0.159446,0.000000,0.000000,0.000000,0.000000,0.026882,500000.000000,90.026879,5.304409,0.000000,0.000000,0.000000,0.000000,0.000000,0.000000,1013.250000,-0.000000,25.500000,992,1500,1500,1500,992,1500.151396,1500.114733,1500.000000
0.433400,6871392.207175,3300.852285,0.000000,9.332153,10.395864,5.447682,707.604011,7502.826851,-1101.400741,0.447061,0.544951,0.157978,0.000000,0.000000,0.000000,0.000000,0.027524,500000.000000,90.027520,5.447682,0.000000,0.000000,0.000000,0.000000,0.000000,0.000000,1013.250000,-0.000000,25.500000,992,1500,1500,1500,992,1500.145398,1500.082808,1500.000000
0.443500,6871392.169792,3377.775694,0.000000,9.617849,10.692183,5.591820,725.580599,7496.641461,-1131.413889,0.449158,0.545774,0.156500,0.000000,0.000000,0.000000,0.000000,0.028165,500000.000000,90.028162,5.591820,0.000000,0.000000,0.000000,0.000000,0.000000,0.000000,1013.250000,-0.000000,25.500000,992,1500,1500,1500,992,1500.139638,1500.052090,1500.000000
0.453600,6871392.131549,3454.699102,0.000000,9.905629,10.988353,5.736819,743.608987,7490.278842,-1161.450100,0.451173,0.546417,0.155013,0.000000,0.000000,0.000000,0.000000,0.028806,500000.000000,90.028803,5.736819,0.000000,0.000000,0.000000,0.000000,0.000000,0.000000,1013.250000,-0.000000,25.500000,992,1500,1500,1500,992,1500.134106,1500.022525,1500.000000
0.463700,6871392.092444,3531.622511,0.000000,10.195452,11.284268,5.882675,761.686908,7483.739145,-1191.502943,0.453107,0.546886,0.153518,0.000000,0.000000,0.000000,0.000000,0.029448,500000.000000,90.029445,5.882675,0.000000,0.000000,0.000000,0.000000,0.000000,0.000000,1013.250000,-0.000000,25.500000,992,1500,1500,1500,992,1500.128793,1499.994063,1500.000000
0.473800,6871392.052477,3608.545918,0.000000,10.487279,11.579828,6.029382,779.812041,7477.022586,-1221.566297,0.454965,0.547189,0.152016,0.000000,0.000000,0.000000,0.000000,0.030089,500000.000000,90.030086,6.029382,0.000000,0.000000,0.000000,0.000000,0.000000,0.000000,1013.250000,-0.000000,25.500000,992,1500,1500,1500,992,1500.123690,1499.966656,1500.000000
0.483900,6871392.011650,3685.469325,0.000000,10.781072,11.874935,6.176934,797.982019,7470.129448,-1251.634339,0.456749,0.547329,0.150507,0.000000,0.000000,0.000000,0.000000,0.030731,500000.000000,90.030727,6.176934,0.000000,0.000000,0.000000,0.000000,0.000000,0.000000,1013.250000,-0.000000,25.500000,992,1500,1500,1500,992,1500.118790,1499.940259,1500.000000
0.494000,6871391.969962,3762.392732,0.000000,11.076795,12.169497,6.325325,816.194426,7463.060072,-1281.701531,0.458463,0.547315,0.148992,0.000000,0.000000,0.000000,0.000000,0.031372,500000.000000,90.031369,6.325325,0.000000,0.000000,0.000000,0.000000,0.000000,0.000000,1013.250000,-0.000000,25.500000,992,1500,1500,1500,992,1500.114083,1499.914832,1500.000000
0.504100,6871391.927412,3839.316138,0.000000,11.374412,12.463424,6.474548,834.446808,7455.814856,-1311.762612,0.460108,0.547150,0.147472,0.000000,0.000000,0.000000,0.000000,0.032013,500000.000000,90.032010,6.474548,0.000000,0.000000,0.000000,0.000000,0.000000,0.000000,1013.250000,-0.000000,25.500000,992,1500,1500,1500,992,1500.109564,1499.890333,1500.000000
0.514200,6871391.884002,3916.239544,0.000000,11.673889,12.756627,6.624594,852.736673,7448.394252,-1341.812590,0.461689,0.546840,0.145947,0.000000,0.000000,0.000000,0.000000,0.032655,500000.000000,90.032652,6.624594,0.000000,0.000000,0.000000,0.000000,0.000000,0.000000,1013.250000,-0.000000,25.500000,992,1500,1500,1500,992,1500.105223,1499.866727,1500.000000
0.524300,6871391.839730,3993.162949,0.000000,11.975192,13.049026,6.775456,871.061497,7440.798762,-1371.846729,0.463206,0.546391,0.144418,0.000000,0.000000,0.000000,0.000000,0.033296,500000.000000,90.033293,6.775456,0.000000,0.000000,0.000000,0.000000,0.000000,0.000000,1013.250000,-0.000000,25.500000,992,1500,1500,1500,992,1500.101054,1499.843977,1500.000000
0.534400,6871391.794597,4070.086354,0.000000,12.278289,13.340537,6.927123,889.418723,7433.028935,-1401.860540,0.464664,0.545807,0.142886,0.000000,0.000000,0.000000,0.000000,0.033938,500000.000000,90.033934,6.927123,0.000000,0.000000,0.000000,0.000000,0.000000,0.000000,1013.250000,-0.000000,25.500000,992,1500,1500,1500,992,1500.097051,1499.822051,1500.000000
0.544500,6871391.748603,4147.009758,0.000000,12.583147,13.631086,7.079587,907.805770,7425.085367,-1431.849774,0.466064,0.545092,0.141351,0.000000,0.000000,0.000000,0.000000,0.034579,500000.000000,90.034576,7.079587,0.000000,0.000000,0.000000,0.000000,0.000000,0.000000,1013.250000,-0.000000,25.500000,992,1500,1500,1500,992,1500.093206,1499.800917,1500.000000
0.554600,6871391.701748,4223.933162,0.000000,12.889738,13.920596,7.232837,926.220033,7416.968691,-1461.810412,0.467409,0.544252,0.139813,0.000000,0.000000,0.000000,0.000000,0.035220,500000.000001,90.035217,7.232837,0.000000,0.000000,0.000000,0.000000,0.000000,0.000000,1013.250000,-0.000000,25.500000,992,1500,1500,1500,992,1500.089513,1499.780546,1500.000000
0.564700,6871391.654031,4300.856565,0.000000,13.198029,14.208996,7.386863,944.658885,7408.679583,-1491.738657,0.468700,0.543291,0.138274,0.000000,0.000000,0.000000,0.000000,0.035862,500000.000001,90.035859,7.386863,0.000000,0.000000,0.000000,0.000000,0.000000,0.000000,1013.250000,-0.000000,25.500000,992,1500,1500,1500,992,1500.085967,1499.760909,1500.000000
0.574800,6871391.605454,4377.779968,0.000000,13.507992,14.496217,7.541653,963.119683,7400.218753,-1521.630927,0.469940,0.542212,0.136733,0.000000,0.000000,0.000000,0.000000,0.036503,500000.000001,90.036500,7.541653,0.000000,0.000000,0.000000,0.000000,0.000000,0.000000,1013.250000,-0.000000,25.500000,992,1500,1500,1500,992,1500.082561,1499.741979,1500.000000
0.584900,6871391.556015,4454.703370,0.000000,13.819598,14.782193,7.697195,981.599771,7391.586945,-1551.483844,0.471131,0.541021,0.135192,0.000000,0.000000,0.000000,0.000000,0.037145,500000.000001,90.037141,7.697195,0.000000,0.000000,0.000000,0.000000,0.000000,0.000000,1013.250000,-0.000000,25.500000,992,1500,1500,1500,992,1500.079290,1499.723731,1500.000000
0.595000,6871391.505715,4531.626772,0.000000,14.132819,15.066859,7.853477,1000.096480,7382.784934,-1581.294231,0.472274,0.539720,0.133650,0.000000,0.000000,0.000000,0.000000,0.037786,500000.000001,90.037783,7.853477,0.000000,0.000000,0.000000,0.000000,0.000000,0.000000,1013.250000,-0.000000,25.500000,992,1500,1500,1500,992,1500.076149,1499.706142,1500.000000
0.605100,6871391.454554,4608.550172,0.000000,14.447627,15.350155,8.010485,1018.607131,7373.813524,-1611.059098,0.473373,0.538313,0.132109,0.000000,0.000000,0.000000,0.000000,0.038428,500000.000001,90.038424,8.010485,0.000000,0.000000,0.000000,0.000000,0.000000,0.000000,1013.250000,-0.000000,25.500000,992,1500,1500,1500,992,1500.073132,1499.689188,1500.000000
0.615200,6871391.402532,4685.473573,0.000000,14.763996,15.632020,8.168207,1037.129040,7364.673546,-1640.775643,0.474428,0.536805,0.130568,0.000000,0.000000,0.000000,0.000000,0.039069,500000.000001,90.039066,8.168207,0.000000,0.000000,0.000000,0.000000,0.000000,0.000000,1013.250000,-0.000000,25.500000,992,1500,1500,1500,992,1500.070234,1499.672847,1500.000000
0.625300,6871391.349649,4762.396973,0.000000,15.081898,15.912398,8.326628,1055.659519,7355.365854,-1670.441239,0.475441,0.535198,0.129029,0.000000,0.000000,0.000000,0.000000,0.039710,500000.000001,90.039707,8.326628,0.000000,0.000000,0.000000,0.000000,0.000000,0.000000,1013.250000,-0.000000,25.500000,992,1500,1500,1500,992,1500.067452,1499.657099,1500.000000
0.635400,6871391.295905,4839.320372,0.000000,15.401307,16.191234,8.485734,1074.195878,7345.891324,-1700.053429,0.476414,0.533497,0.127491,0.000000,0.000000,0.000000,0.000000,0.040352,500000.000001,90.040349,8.485734,0.000000,0.000000,0.000000,0.000000,0.000000,0.000000,1013.250000,-0.000000,25.500000,992,1500,1500,1500,992,1500.064780,1499.641923,1500.000000
0.645500,6871391.241299,4916.243771,0.000000,15.722198,16.468476,8.645510,1092.735429,7336.250854,-1729.609920,0.477348,0.531703,0.125954,0.000000,0.000000,0.000000,0.000000,0.040993,500000.000001,90.040990,8.645510,0.000000,0.000000,0.000000,0.000000,0.000000,0.000000,1013.250000,-0.000000,25.500000,992,1500,1500,1500,992,1500.062213,1499.627302,1500.000000
0.655600,6871391.185833,4993.167169,0.000000,16.044545,16.744073,8.805939,1111.275485,7326.445359,-1759.108577,0.478246,0.529822,0.124421,0.000000,0.000000,0.000000,0.000000,0.041635,500000.000001,90.041631,8.805939,0.000000,0.000000,0.000000,0.000000,0.000000,0.000000,1013.250000,-0.000000,25.500000,992,1500,1500,1500,992,1500.059748,1499.613217,1500.000000
0.665700,6871391.129505,5070.090566,0.000000,16.368323,17.017976,8.967007,1129.813366,7316.475770,-1788.547415,0.479108,0.527854,0.122890,0.000000,0.000000,0.000000,0.000000,0.042276,500000.000001,90.042273,8.967007,0.000000,0.000000,0.000000,0.000000,0.000000,0.000000,1013.250000,-0.000000,25.500000,992,1500,1500,1500,992,1500.057381,1499.599652,1500.000000
0.675800,6871391.072316,5147.013963,0.000000,16.693508,17.290140,9.128697,1148.346397,7306.343033,-1817.924595,0.479935,0.525805,0.121362,0.000000,0.000000,0.000000,0.000000,0.042917,500000.000001,90.042914,9.128697,0.000000,0.000000,0.000000,0.000000,0.000000,0.000000,1013.250000,-0.000000,25.500000,992,1500,1500,1500,992,1500.055108,1499.586588,1500.000000
0.685900,6871391.014266,5223.937359,0.000000,17.020074,17.560520,9.290991,1166.871913,7296.048106,-1847.238418,0.480730,0.523676,0.119837,0.000000,0.000000,0.000000,0.000000,0.043559,500000.000001,90.043556,9.290991,0.000000,0.000000,0.000000,0.000000,0.000000,0.000000,1013.250000,-0.000000,25.500000,992,1500,1500,1500,992,1500.052925,1499.574012,1500.000000
0.696000,6871390.955355,5300.860754,0.000000,17.347997,17.829073,9.453873,1185.387259,7285.591959,-1876.487317,0.481494,0.521470,0.118317,0.000000,0.000000,0.000000,0.000000,0.044200,500000.000001,90.044197,9.453873,0.000000,0.000000,0.000000,0.000000,0.000000,0.000000,1013.250000,-0.000000,25.500000,992,1500,1500,1500,992,1500.050828,1499.561908,1500.000000
0.706100,6871390.895583,5377.784149,0.000000,17.677252,18.095758,9.617325,1203.889793,7274.975571,-1905.669856,0.482227,0.519190,0.116800,0.000000,0.000000,0.000000,0.000000,0.044842,500000.000001,90.044838,9.617325,0.000000,0.000000,0.000000,0.000000,0.000000,0.000000,1013.250000,-0.000000,25.500000,992,1500,1500,1500,992,1500.048814,1499.550262,1500.000000
0.716200,6871390.834949,5454.707543,0.000000,18.007817,18.360536,9.781328,1222.376888,7264.199930,-1934.784719,0.482931,0.516839,0.115289,0.000000,0.000000,0.000000,0.000000,0.045483,500000.000001,90.045480,9.781328,0.000000,0.000000,0.000000,0.000000,0.000000,0.000000,1013.250000,-0.000000,25.500000,992,1500,1500,1500,992,1500.046880,1499.539060,1500.000000
0.726300,6871390.773455,5531.630937,0.000000,18.339667,18.623370,9.945864,1240.845930,7253.266030,-1963.830712,0.483607,0.514419,0.113781,0.000000,0.000000,0.000000,0.000000,0.046124,500000.000001,90.046121,9.945864,0.000000,0.000000,0.000000,0.000000,0.000000,0.000000,1013.250000,-0.000000,25.500000,992,1500,1500,1500,992,1500.045023,1499.528288,1500.000000
0.736400,6871390.711099,5608.554329,0.000000,18.672778,18.884224,10.110914,1259.294325,7242.174870,-1992.806750,0.484257,0.511933,0.112279,0.000000,0.000000,0.000000,0.000000,0.046766,500000.000001,90.046763,10.110914,0.000000,0.000000,0.000000,0.000000,0.000000,0.000000,1013.250000,-0.000000,25.500000,992,1500,1500,1500,992,1500.043239,1499.517935,1500.000000
0.746500,6871390.647882,5685.477721,0.000000,19.007126,19.143065,10.276457,1277.719495,7230.927454,-2021.711858,0.484880,0.509383,0.110783,0.000000,0.000000,0.000000,0.000000,0.047407,500000.000001,90.047404,10.276457,0.000000,0.000000,0.000000,0.000000,0.000000,0.000000,1013.250000,-0.000000,25.500000,992,1500,1500,1500,992,1500.041526,1499.507988,1500.000000
0.756600,6871390.583804,5762.401113,0.000000,19.342689,19.399859,10.442475,1296.118884,7219.524787,-2050.545166,0.485479,0.506771,0.109292,0.000000,0.000000,0.000000,0.000000,0.048049,500000.000001,90.048045,10.442475,0.000000,0.000000,0.000000,0.000000,0.000000,0.000000,1013.250000,-0.000000,25.500000,992,1500,1500,1500,992,1500.039881,1499.498436,1500.000000
0.766700,6871390.518865,5839.324503,0.000000,19.679442,19.654576,10.608948,1314.489957,7207.967877,-2079.305900,0.486055,0.504100,0.107807,0.000000,0.000000,0.000000,0.000000,0.048690,500000.000001,90.048687,10.608948,0.000000,0.000000,0.000000,0.000000,0.000000,0.000000,1013.250000,-0.000000,25.500000,992,1500,1500,1500,992,1500.038301,1499.489267,1500.000000
0.776800,6871390.453065,5916.247893,0.000000,20.017362,19.907186,10.775853,1332.830199,7196.257733,-2107.993382,0.486607,0.501372,0.106328,0.000000,0.000000,0.000000,0.000000,0.049331,500000.000001,90.049328,10.775853,0.000000,0.000000,0.000000,0.000000,0.000000,0.000000,1013.250000,-0.000000,25.500000,992,1500,1500,1500,992,1500.036784,1499.480470,1500.000000
0.786900,6871390.386404,5993.171282,0.000000,20.356426,20.157662,10.943171,1351.137121,7184.395360,-2136.607025,0.487138,0.498589,0.104856,0.000000,0.000000,0.000000,0.000000,0.049973,500000.000001,90.049970,10.943171,0.000000,0.000000,0.000000,0.000000,0.000000,0.000000,1013.250000,-0.000000,25.500000,992,1500,1500,1500,992,1500.035326,1499.472036,1500.000000
0.797000,6871390.318881,6070.094671,0.000000,20.696610,20.405978,11.110880,1369.408259,7172.381766,-2165.146326,0.487647,0.495754,0.103391,0.000000,0.000000,0.000000,0.000000,0.050614,500000.000001,90.050611,11.110880,0.000000,0.000000,0.000000,0.000000,0.000000,0.000000,1013.250000,-0.000000,25.500000,992,1500,1500,1500,992,1500.033927,1499.463954,1500.000000
0.807100,6871390.250498,6147.018058,0.000000,21.037890,20.652108,11.278958,1387.641171,7160.217954,-2193.610866,0.488137,0.492867,0.101932,0.000000,0.000000,0.000000,0.000000,0.051256,500000.000001,90.051253,11.278958,0.000000,0.000000,0.000000,0.000000,0.000000,0.000000,1013.250000,-0.000000,25.500000,992,1500,1500,1500,992,1500.032583,1499.456216,1500.000000
0.817200,6871390.181253,6223.941445,0.000000,21.380244,20.896029,11.447383,1405.833447,7147.904922,-2222.000302,0.488607,0.489932,0.100481,0.000000,0.000000,0.000000,0.000000,0.051897,500000.000001,90.051894,11.447383,0.000000,0.000000,0.000000,0.000000,0.000000,0.000000,1013.250000,-0.000000,25.500000,992,1500,1500,1500,992,1500.031292,1499.448810,1500.000000
0.827300,6871390.111147,6300.864831,0.000000,21.723648,21.137718,11.616134,1423.982699,7135.443667,-2250.314366,0.489058,0.486951,0.099037,0.000000,0.000000,0.000000,0.000000,0.052539,500000.000001,90.052535,11.616134,0.000000,0.000000,0.000000,0.000000,0.000000,0.000000,1013.250000,-0.000000,25.500000,992,1500,1500,1500,992,1500.030052,1499.441730,1500.000000
0.837400,6871390.040180,6377.788216,0.000000,22.068078,21.377155,11.785186,1442.086571,7122.835177,-2278.552863,0.489492,0.483924,0.097600,0.000000,0.000000,0.000000,0.000000,0.053180,500000.000001,90.053177,11.785186,0.000000,0.000000,0.000000,0.000000,0.000000,0.000000,1013.250000,-0.000000,25.500000,992,1500,1500,1500,992,1500.028861,1499.434965,1500.000000
0.847500,6871389.968352,6454.711601,0.000000,22.413511,21.614321,11.954518,1460.142736,7110.080439,-2306.715660,0.489908,0.480854,0.096171,0.000000,0.000000,0.000000,0.000000,0.053821,500000.000001,90.053818,11.954518,0.000000,0.000000,0.000000,0.000000,0.000000,0.000000,1013.250000,-0.000000,25.500000,992,1500,1500,1500,992,1500.027718,1499.428509,1500.000000
0.857600,6871389.895662,6531.634984,0.000000,22.759923,21.849196,12.124106,1478.148895,7097.180428,-2334.802691,0.490308,0.477744,0.094751,0.000000,0.000000,0.000000,0.000000,0.054463,500000.000001,90.054460,12.124106,0.000000,0.000000,0.000000,0.000000,0.000000,0.000000,1013.250000,-0.000000,25.500000,992,1500,1500,1500,992,1500.026620,1499.422352,1500.000000
0.867700,6871389.822112,6608.558367,0.000000,23.107292,22.081764,12.293927,1496.102780,7084.136115,-2362.813950,0.490692,0.474593,0.093338,0.000000,0.000000,0.000000,0.000000,0.055104,500000.000001,90.055101,12.293927,0.000000,0.000000,0.000000,0.000000,0.000000,0.000000,1013.250000,-0.000000,25.500000,992,1500,1500,1500,992,1500.025565,1499.416487,1500.000000
0.877800,6871389.747700,6685.481749,0.000000,23.455592,22.312009,12.463956,1514.002156,7070.948463,-2390.749485,0.491061,0.471405,0.091934,0.000000,0.000000,0.000000,0.000000,0.055746,500000.000001,90.055742,12.463956,0.000000,0.000000,0.000000,0.000000,0.000000,0.000000,1013.250000,-0.000000,25.500000,992,1500,1500,1500,992,1500.024552,1499.410908,1500.000000
0.887900,6871389.672428,6762.405130,0.000000,23.804801,22.539917,12.634170,1531.844818,7057.618424,-2418.609401,0.491415,0.468181,0.090538,0.000000,0.000000,0.000000,0.000000,0.056387,500000.000001,90.056384,12.634170,0.000000,0.000000,0.000000,0.000000,0.000000,0.000000,1013.250000,-0.000000,25.500000,992,1500,1500,1500,992,1500.023580,1499.405605,1500.000000
0.898000,6871389.596294,6839.328511,0.000000,24.154895,22.765473,12.804544,1549.628593,7044.146943,-2446.393849,0.491755,0.464922,0.089151,0.000000,0.000000,0.000000,0.000000,0.057028,500000.000001,90.057025,12.804544,0.000000,0.000000,0.000000,0.000000,0.000000,0.000000,1013.250000,-0.000000,25.500000,992,1500,1500,1500,992,1500.022645,1499.400573,1500.000000
0.908100,6871389.519299,6916.251890,0.000000,24.505850,22.988666,12.975054,1567.351344,7030.534954,-2474.103033,0.492082,0.461631,0.087773,0.000000,0.000000,0.000000,0.000000,0.057670,500000.000001,90.057667,12.975054,0.000000,0.000000,0.000000,0.000000,0.000000,0.000000,1013.250000,-0.000000,25.500000,992,1500,1500,1500,992,1500.021748,1499.395804,1500.000000
0.918200,6871389.441443,6993.175269,0.000000,24.857641,23.209485,13.145675,1585.010963,7016.783383,-2501.737196,0.492395,0.458308,0.086403,0.000000,0.000000,0.000000,0.000000,0.058311,500000.000001,90.058308,13.145675,0.000000,0.000000,0.000000,0.000000,0.000000,0.000000,1013.250000,-0.000000,25.500000,992,1500,1500,1500,992,1500.020887,1499.391293,1500.000000
0.928300,6871389.362725,7070.098647,0.000000,25.210246,23.427918,13.316382,1602.605379,7002.893143,-2529.296626,0.492697,0.454955,0.085043,0.000000,0.000000,0.000000,0.000000,0.058953,500000.000001,90.058949,13.316382,0.000000,0.000000,0.000000,0.000000,0.000000,0.000000,1013.250000,-0.000000,25.500000,992,1500,1500,1500,992,1500.020059,1499.387032,1500.000000
0.938400,6871389.283147,7147.022023,0.000000,25.563640,23.643958,13.487151,1620.132553,6988.865137,-2556.781649,0.492986,0.451575,0.083692,0.000000,0.000000,0.000000,0.000000,0.059594,500000.000001,90.059591,13.487151,0.000000,0.000000,0.000000,0.000000,0.000000,0.000000,1013.250000,-0.000000,25.500000,992,1500,1500,1500,992,1500.019264,1499.383016,1500.000000
0.948500,6871389.202707,7223.945399,0.000000,25.917799,23.857596,13.657955,1637.590483,6974.700256,-2584.192628,0.493264,0.448167,0.082350,0.000000,0.000000,0.000000,0.000000,0.060235,500000.000002,90.060232,13.657955,0.000000,0.000000,0.000000,0.000000,0.000000,0.000000,1013.250000,-0.000000,25.500000,992,1500,1500,1500,992,1500.018501,1499.379238,1500.000000
0.958600,6871389.121407,7300.868774,0.000000,26.272700,24.068825,13.828770,1654.977199,6960.399381,-2611.529957,0.493531,0.444734,0.081018,0.000000,0.000000,0.000000,0.000000,0.060877,500000.000002,90.060874,13.828770,0.000000,0.000000,0.000000,0.000000,0.000000,0.000000,1013.250000,-0.000000,25.500000,992,1500,1500,1500,992,1500.017768,1499.375693,1500.000000
0.968700,6871389.039245,7377.792148,0.000000,26.628317,24.277639,13.999570,1672.290768,6945.963379,-2638.794065,0.493787,0.441276,0.079696,0.000000,0.000000,0.000000,0.000000,0.061518,500000.000002,90.061515,13.999570,0.000000,0.000000,0.000000,0.000000,0.000000,0.000000,1013.250000,-0.000000,25.500000,992,1500,1500,1500,992,1500.017064,1499.372375,1500.000000
0.978800,6871388.956222,7454.715522,0.000000,26.984626,24.484033,14.170329,1689.529291,6931.393105,-2665.985407,0.494033,0.437796,0.078383,0.000000,0.000000,0.000000,0.000000,0.062160,500000.000002,90.062157,14.170329,0.000000,0.000000,0.000000,0.000000,0.000000,0.000000,1013.250000,-0.000000,25.500000,992,1500,1500,1500,992,1500.016388,1499.369279,1500.000000
0.988900,6871388.872338,7531.638894,0.000000,27.341604,24.688004,14.341021,1706.690905,6916.689402,-2693.104466,0.494269,0.434295,0.077079,0.000000,0.000000,0.000000,0.000000,0.062801,500000.000002,90.062798,14.341021,0.000000,0.000000,0.000000,0.000000,0.000000,0.000000,1013.250000,-0.000000,25.500000,992,1500,1500,1500,992,1500.015739,1499.366398,1500.000000
0.999000,6871388.787593,7608.562265,0.000000,27.699227,24.889547,14.511621,1723.773784,6901.853100,-2720.151747,0.494497,0.430773,0.075786,0.000000,0.000000,0.000000,0.000000,0.063443,500000.000002,90.063439,14.511621,0.000000,0.000000,0.000000,0.000000,0.000000,0.000000,1013.250000,-0.000000,25.500000,992,1500,1500,1500,992,1500.015115,1499.363729,1500.000000
1.009100,6871388.701986,7685.485636,0.000000,28.057469,25.088662,14.682102,1740.776135,6886.885015,-2747.127779,0.494715,0.427232,0.074503,0.000000,0.000000,0.000000,0.000000,0.064084,500000.000002,90.064081,14.682102,0.000000,0.000000,0.000000,0.000000,0.000000,0.000000,1013.250000,-0.000000,25.500000,992,1500,1500,1500,992,1500.014517,1499.361266,1500.000000
1.019200,6871388.615519,7762.409005,0.000000,28.416306,25.285345,14.852438,1757.696205,6871.785950,-2774.033111,0.494924,0.423674,0.073230,0.000000,0.000000,0.000000,0.000000,0.064725,500000.000002,90.064722,14.852438,0.000000,0.000000,0.000000,0.000000,0.000000,0.000000,1013.250000,-0.000000,25.500000,992,1500,1500,1500,992,1500.013942,1499.359003,1500.000000
1.029300,6871388.528190,7839.332373,0.000000,28.775714,25.479598,15.022604,1774.532272,6856.556696,-2800.868308,0.495125,0.420099,0.071967,0.000000,0.000000,0.000000,0.000000,0.065367,500000.000002,90.065364,15.022604,0.000000,0.000000,0.000000,0.000000,0.000000,0.000000,1013.250000,-0.000000,25.500000,992,1500,1500,1500,992,1500.013389,1499.356937,1500.000000
1.039400,6871388.440000,7916.255741,0.000000,29.135669,25.671420,15.192573,1791.282655,6841.198029,-2827.633953,0.495318,0.416509,0.070714,0.000000,0.000000,0.000000,0.000000,0.066008,500000.000002,90.066005,15.192573,0.000000,0.000000,0.000000,0.000000,0.000000,0.000000,1013.250000,-0.000000,25.500000,992,1500,1500,1500,992,1500.012859,1499.355062,1500.000000
1.049500,6871388.350949,7993.179107,0.000000,29.496146,25.860814,15.362319,1807.945705,6825.710711,-2854.330642,0.495504,0.412905,0.069471,0.000000,0.000000,0.000000,0.000000,0.066650,500000.000002,90.066646,15.362319,0.000000,0.000000,0.000000,0.000000,0.000000,0.000000,1013.250000,-0.000000,25.500000,992,1500,1500,1500,992,1500.012349,1499.353375,1500.000000
1.059600,6871388.261037,8070.102473,0.000000,29.857121,26.047780,15.531815,1824.519813,6810.095491,-2880.958981,0.495682,0.409288,0.068239,0.000000,0.000000,0.000000,0.000000,0.067291,500000.000002,90.067288,15.531815,0.000000,0.000000,0.000000,0.000000,0.000000,0.000000,1013.250000,-0.000000,25.500000,992,1500,1500,1500,992,1500.011860,1499.351869,1500.000000
1.069700,6871388.170264,8147.025837,0.000000,30.218569,26.232321,15.701036,1841.003403,6794.353104,-2907.519590,0.495853,0.405658,0.067017,0.000000,0.000000,0.000000,0.000000,0.067932,500000.000002,90.067929,15.701036,0.000000,0.000000,0.000000,0.000000,0.000000,0.000000,1013.250000,-0.000000,25.500000,992,1500,1500,1500,992,1500.011390,1499.350542,1500.000000
1.079800,6871388.078630,8223.949201,0.000000,30.580467,26.414442,15.869955,1857.394938,6778.484270,-2934.013095,0.496017,0.402018,0.065806,0.000000,0.000000,0.000000,0.000000,0.068574,500000.000002,90.068571,15.869955,0.000000,0.000000,0.000000,0.000000,0.000000,0.000000,1013.250000,-0.000000,25.500000,992,1500,1500,1500,992,1500.010939,1499.349389,1500.000000
1.089900,6871387.986134,8300.872563,0.000000,30.942788,26.594147,16.038547,1873.692914,6762.489697,-2960.440129,0.496175,0.398368,0.064605,0.000000,0.000000,0.000000,0.000000,0.069215,500000.000002,90.069212,16.038547,0.000000,0.000000,0.000000,0.000000,0.000000,0.000000,1013.250000,-0.000000,25.500000,992,1500,1500,1500,992,1500.010505,1499.348406,1500.000000
1.100000,6871387.892778,8377.795924,0.000000,31.305510,26.771441,16.206785,1889.895865,6746.370077,-2986.801333,0.496327,0.394710,0.063415,0.000000,0.000000,0.000000,0.000000,0.069857,500000.000002,90.069853,16.206785,0.000000,0.000000,0.000000,0.000000,0.000000,0.000000,1013.250000,-0.000000,25.500000,992,1500,1500,1500,992,1500.010089,1499.347588,1500.000000
1.110100,6871387.798560,8454.719285,0.000000,31.668608,26.946330,16.374642,1906.002362,6730.126088,-3013.097347,0.496472,0.391043,0.062236,0.000000,0.000000,0.000000,0.000000,0.070498,500000.000002,90.070495,16.374642,0.000000,0.000000,0.000000,0.000000,0.000000,0.000000,1013.250000,-0.000000,25.500000,992,1500,1500,1500,992,1500.009690,1499.346933,1500.000000
1.120200,6871387.703481,8531.642644,0.000000,32.032058,27.118821,16.542094,1922.011008,6713.758397,-3039.328819,0.496612,0.387369,0.061067,0.000000,0.000000,0.000000,0.000000,0.071139,500000.000002,90.071136,16.542094,0.000000,0.000000,0.000000,0.000000,0.000000,0.000000,1013.250000,-0.000000,25.500000,992,1500,1500,1500,992,1500.009306,1499.346435,1500.000000
1.130300,6871387.607541,8608.566002,0.000000,32.395835,27.288920,16.709114,1937.920447,6697.267652,-3065.496392,0.496746,0.383690,0.059909,0.000000,0.000000,0.000000,0.000000,0.071781,500000.000002,90.071778,16.709114,0.000000,0.000000,0.000000,0.000000,0.000000,0.000000,1013.250000,-0.000000,25.500000,992,1500,1500,1500,992,1500.008937,1499.346091,1500.000000
1.140400,6871387.510740,8685.489359,0.000000,32.759915,27.456636,16.875677,1953.729354,6680.654491,-3091.600714,0.496875,0.380005,0.058761,0.000000,0.000000,0.000000,0.000000,0.072422,500000.000002,90.072419,16.875677,0.000000,0.000000,0.000000,0.000000,0.000000,0.000000,1013.250000,-0.000000,25.500000,992,1500,1500,1500,992,1500.008583,1499.345898,1500.000000
1.150500,6871387.413078,8762.412715,0.000000,33.124275,27.621977,17.041757,1969.436442,6663.919537,-3117.642427,0.496999,0.376317,0.057625,0.000000,0.000000,0.000000,0.000000,0.073064,500000.000002,90.073060,17.041757,0.000000,0.000000,0.000000,0.000000,0.000000,0.000000,1013.250000,-0.000000,25.500000,992,1500,1500,1500,992,1500.008243,1499.345852,1500.000000
1.160600,6871387.314554,8839.336070,0.000000,33.488890,27.784952,17.207328,1985.040459,6647.063398,-3143.622171,0.497118,0.372625,0.056499,0.000000,0.000000,0.000000,0.000000,0.073705,500000.000002,90.073702,17.207328,0.000000,0.000000,0.000000,0.000000,0.000000,0.000000,1013.250000,-0.000000,25.500000,992,1500,1500,1500,992,1500.007916,1499.345949,1500.000000
1.170700,6871387.215170,8916.259424,0.000000,33.853737,27.945573,17.372365,2000.540187,6630.086669,-3169.540584,0.497232,0.368931,0.055384,0.000000,0.000000,0.000000,0.000000,0.074347,500000.000002,90.074343,17.372365,0.000000,0.000000,0.000000,0.000000,0.000000,0.000000,1013.250000,-0.000000,25.500000,992,1500,1500,1500,992,1500.007603,1499.346186,1500.000000
1.180800,6871387.114924,8993.182777,0.000000,34.218792,28.103848,17.536843,2015.934444,6612.989932,-3195.398295,0.497342,0.365235,0.054280,0.000000,0.000000,0.000000,0.000000,0.074988,500000.000002,90.074985,17.536843,0.000000,0.000000,0.000000,0.000000,0.000000,0.000000,1013.250000,-0.000000,25.500000,992,1500,1500,1500,992,1500.007301,1499.346560,1500.000000
1.190900,6871387.013817,9070.106128,0.000000,34.584030,28.259789,17.700738,2031.222083,6595.773755,-3221.195930,0.497447,0.361539,0.053187,0.000000,0.000000,0.000000,0.000000,0.075629,500000.000002,90.075626,17.700738,0.000000,0.000000,0.000000,0.000000,0.000000,0.000000,1013.250000,-0.000000,25.500000,992,1500,1500,1500,992,1500.007012,1499.347066,1500.000000
1.201000,6871386.911849,9147.029479,0.000000,34.949430,28.413407,17.864023,2046.401990,6578.438692,-3246.934103,0.497548,0.357843,0.052105,0.000000,0.000000,0.000000,0.000000,0.076271,500000.000002,90.076268,17.864023,0.000000,0.000000,0.000000,0.000000,0.000000,0.000000,1013.250000,-0.000000,25.500000,992,1500,1500,1500,992,1500.006734,1499.347703,1500.000000
1.211100,6871386.809020,9223.952828,0.000000,35.314967,28.564715,18.026675,2061.473087,6560.985283,-3272.613423,0.497645,0.354148,0.051034,0.000000,0.000000,0.000000,0.000000,0.076912,500000.000002,90.076909,18.026675,0.000000,0.000000,0.000000,0.000000,0.000000,0.000000,1013.250000,-0.000000,25.500000,992,1500,1500,1500,992,1500.006468,1499.348467,1500.000000
1.221200,6871386.705330,9300.876176,0.000000,35.680618,28.713726,18.188670,2076.434329,6543.414058,-3298.234489,0.497738,0.350455,0.049973,0.000000,0.000000,0.000000,0.000000,0.077554,500000.000002,90.077550,18.188670,0.000000,0.000000,0.000000,0.000000,0.000000,0.000000,1013.250000,-0.000000,25.500000,992,1500,1500,1500,992,1500.006211,1499.349353,1500.000000
1.231300,6871386.600779,9377.799523,0.000000,36.046361,28.860452,18.349982,2091.284705,6525.725529,-3323.797887,0.497828,0.346764,0.048924,0.000000,0.000000,0.000000,0.000000,0.078195,500000.000003,90.078192,18.349982,0.000000,0.000000,0.000000,0.000000,0.000000,0.000000,1013.250000,-0.000000,25.500000,992,1500,1500,1500,992,1500.005965,1499.350361,1500.000000
1.241400,6871386.495366,9454.722869,0.000000,36.412172,29.004908,18.510589,2106.023239,6507.920200,-3349.304193,0.497914,0.343076,0.047885,0.000000,0.000000,0.000000,0.000000,0.078836,500000.000003,90.078833,18.510589,0.000000,0.000000,0.000000,0.000000,0.000000,0.000000,1013.250000,-0.000000,25.500000,992,1500,1500,1500,992,1500.005729,1499.351486,1500.000000
1.251500,6871386.389092,9531.646213,0.000000,36.778028,29.147106,18.670467,2120.648987,6489.998559,-3374.753972,0.497997,0.339392,0.046857,0.000000,0.000000,0.000000,0.000000,0.079478,500000.000003,90.079475,18.670467,0.000000,0.000000,0.000000,0.000000,0.000000,0.000000,1013.250000,-0.000000,25.500000,992,1500,1500,1500,992,1500.005502,1499.352726,1500.000000
1.261600,6871386.281958,9608.569557,0.000000,37.143909,29.287063,18.829593,2135.161036,6471.961082,-3400.147774,0.498076,0.335712,0.045841,0.000000,0.000000,0.000000,0.000000,0.080119,500000.000003,90.080116,18.829593,0.000000,0.000000,0.000000,0.000000,0.000000,0.000000,1013.250000,-0.000000,25.500000,992,1500,1500,1500,992,1500.005284,1499.354077,1500.000000
1.271700,6871386.173962,9685.492899,0.000000,37.509790,29.424794,18.987942,2149.558511,6453.808235,-3425.486136,0.498152,0.332038,0.044835,0.000000,0.000000,0.000000,0.000000,0.080761,500000.000003,90.080757,18.987942,0.000000,0.000000,0.000000,0.000000,0.000000,0.000000,1013.250000,-0.000000,25.500000,992,1500,1500,1500,992,1500.005075,1499.355538,1500.000000
1.281800,6871386.065105,9762.416240,0.000000,37.875650,29.560313,19.145494,2163.840565,6435.540468,-3450.769580,0.498226,0.328370,0.043840,0.000000,0.000000,0.000000,0.000000,0.081402,500000.000003,90.081399,19.145494,0.000000,0.000000,0.000000,0.000000,0.000000,0.000000,1013.250000,-0.000000,25.500000,992,1500,1500,1500,992,1500.004874,1499.357104,1500.000000
1.291900,6871385.955387,9839.339580,0.000000,38.241468,29.693636,19.302225,2178.006385,6417.158221,-3475.998612,0.498296,0.324709,0.042856,0.000000,0.000000,0.000000,0.000000,0.082043,500000.000003,90.082040,19.302225,0.000000,0.000000,0.000000,0.000000,0.000000,0.000000,1013.250000,-0.000000,25.500000,992,1500,1500,1500,992,1500.004681,1499.358774,1500.000000
1.302000,6871385.844807,9916.262918,0.000000,38.607221,29.824781,19.458113,2192.055189,6398.661922,-3501.173724,0.498363,0.321055,0.041883,0.000000,0.000000,0.000000,0.000000,0.082685,500000.000003,90.082682,19.458113,0.000000,0.000000,0.000000,0.000000,0.000000,0.000000,1013.250000,-0.000000,25.500000,992,1500,1500,1500,992,1500.004495,1499.360545,1500.000000
1.312100,6871385.733367,9993.186255,0.000000,38.972889,29.953764,19.613136,2205.986228,6380.051989,-3526.295389,0.498428,0.317408,0.040921,0.000000,0.000000,0.000000,0.000000,0.083326,500000.000003,90.083323,19.613136,0.000000,0.000000,0.000000,0.000000,0.000000,0.000000,1013.250000,-0.000000,25.500000,992,1500,1500,1500,992,1500.004317,1499.362413,1500.000000
1.322200,6871385.621065,10070.109591,0.000000,39.338450,30.080601,19.767274,2219.798785,6361.328825,-3551.364065,0.498490,0.313770,0.039969,0.000000,0.000000,0.000000,0.000000,0.083968,500000.000003,90.083964,19.767274,0.000000,0.000000,0.000000,0.000000,0.000000,0.000000,1013.250000,-0.000000,25.500000,992,1500,1500,1500,992,1500.004146,1499.364377,1500.000000
1.332300,6871385.507902,10147.032926,0.000000,39.703884,30.205311,19.920505,2233.492171,6342.492825,-3576.380192,0.498550,0.310141,0.039029,0.000000,0.000000,0.000000,0.000000,0.084609,500000.000003,90.084606,19.920505,0.000000,0.000000,0.000000,0.000000,0.000000,0.000000,1013.250000,-0.000000,25.500000,992,1500,1500,1500,992,1500.003982,1499.366434,1500.000000
1.342400,6871385.393879,10223.956260,0.000000,40.069170,30.327912,20.072808,2247.065730,6323.544372,-3601.344190,0.498608,0.306522,0.038099,0.000000,0.000000,0.000000,0.000000,0.085251,500000.000003,90.085247,20.072808,0.000000,0.000000,0.000000,0.000000,0.000000,0.000000,1013.250000,-0.000000,25.500000,992,1500,1500,1500,992,1500.003824,1499.368582,1500.000000
1.352500,6871385.278994,10300.879592,0.000000,40.434289,30.448420,20.224163,2260.518836,6304.483837,-3626.256462,0.498663,0.302913,0.037180,0.000000,0.000000,0.000000,0.000000,0.085892,500000.000003,90.085889,20.224163,0.000000,0.000000,0.000000,0.000000,0.000000,0.000000,1013.250000,-0.000000,25.500000,992,1500,1500,1500,992,1500.003672,1499.370817,1500.000000
1.362600,6871385.163248,10377.802923,0.000000,40.799219,30.566856,20.374550,2273.850893,6285.311583,-3651.117392,0.498716,0.299314,0.036272,0.000000,0.000000,0.000000,0.000000,0.086533,500000.000003,90.086530,20.374550,0.000000,0.000000,0.000000,0.000000,0.000000,0.000000,1013.250000,-0.000000,25.500000,992,1500,1500,1500,992,1500.003527,1499.373138,1500.000000
1.372700,6871385.046640,10454.726252,0.000000,41.163941,30.683237,20.523949,2287.061335,6266.027961,-3675.927344,0.498767,0.295727,0.035374,0.000000,0.000000,0.000000,0.000000,0.087175,500000.000003,90.087172,20.523949,0.000000,0.000000,0.000000,0.000000,0.000000,0.000000,1013.250000,-0.000000,25.500000,992,1500,1500,1500,992,1500.003387,1499.375542,1500.000000
1.382800,6871384.929172,10531.649581,0.000000,41.528436,30.797583,20.672342,2300.149625,6246.633312,-3700.686661,0.498816,0.292152,0.034488,0.000000,0.000000,0.000000,0.000000,0.087816,500000.000003,90.087813,20.672342,0.000000,0.000000,0.000000,0.000000,0.000000,0.000000,1013.250000,-0.000000,25.500000,992,1500,1500,1500,992,1500.003253,1499.378028,1500.000000
1.392900,6871384.810842,10608.572908,0.000000,41.892686,30.909913,20.819710,2313.115257,6227.127967,-3725.395668,0.498862,0.288589,0.033612,0.000000,0.000000,0.000000,0.000000,0.088458,500000.000003,90.088454,20.819710,0.000000,0.000000,0.000000,0.000000,0.000000,0.000000,1013.250000,-0.000000,25.500000,992,1500,1500,1500,992,1500.003124,1499.380591,1500.000000
1.403000,6871384.691652,10685.496233,0.000000,42.256671,31.020246,20.966034,2325.957751,6207.512250,-3750.054667,0.498908,0.285038,0.032746,0.000000,0.000000,0.000000,0.000000,0.089099,500000.000003,90.089096,20.966034,0.000000,0.000000,0.000000,0.000000,0.000000,0.000000,1013.250000,-0.000000,25.500000,992,1500,1500,1500,992,1500.003000,1499.383231,1500.000000
1.413100,6871384.571600,10762.419558,0.000000,42.620373,31.128603,21.111297,2338.676657,6187.786472,-3774.663941,0.498951,0.281501,0.031892,0.000000,0.000000,0.000000,0.000000,0.089740,500000.000003,90.089737,21.111297,0.000000,0.000000,0.000000,0.000000,0.000000,0.000000,1013.250000,-0.000000,25.500000,992,1500,1500,1500,992,1500.002882,1499.385946,1500.000000
1.423200,6871384.450687,10839.342881,0.000000,42.983773,31.235003,21.255481,2351.271553,6167.950937,-3799.223752,0.498992,0.277978,0.031047,0.000000,0.000000,0.000000,0.000000,0.090382,500000.000003,90.090379,21.255481,0.000000,0.000000,0.000000,0.000000,0.000000,0.000000,1013.250000,-0.000000,25.500000,992,1500,1500,1500,992,1500.002767,1499.388732,1500.000000
1.433300,6871384.328913,10916.266202,0.000000,43.346856,31.339467,21.398569,2363.742046,6148.005940,-3823.734338,0.499032,0.274468,0.030214,0.000000,0.000000,0.000000,0.000000,0.091023,500000.000003,90.091020,21.398569,0.000000,0.000000,0.000000,0.000000,0.000000,0.000000,1013.250000,-0.000000,25.500000,992,1500,1500,1500,992,1500.002658,1499.391588,1500.000000
1.443400,6871384.206278,10993.189522,0.000000,43.709602,31.442015,21.540545,2376.087769,6127.951769,-3848.195919,0.499071,0.270974,0.029391,0.000000,0.000000,0.000000,0.000000,0.091665,500000.000003,90.091661,21.540545,0.000000,0.000000,0.000000,0.000000,0.000000,0.000000,1013.250000,-0.000000,25.500000,992,1500,1500,1500,992,1500.002552,1499.394512,1500.000000
1.453500,6871384.082781,11070.112841,0.000000,44.071995,31.542668,21.681392,2388.308382,6107.788699,-3872.608690,0.499107,0.267494,0.028578,0.000000,0.000000,0.000000,0.000000,0.092306,500000.000004,90.092303,21.681392,0.000000,0.000000,0.000000,0.000000,0.000000,0.000000,1013.250000,-0.000000,25.500000,992,1500,1500,1500,992,1500.002451,1499.397501,1500.000000
1.463600,6871383.958424,11147.036159,0.000000,44.434018,31.641447,21.821094,2400.403574,6087.517003,-3896.972826,0.499143,0.264030,0.027776,0.000000,0.000000,0.000000,0.000000,0.092947,500000.000004,90.092944,21.821094,0.000000,0.000000,0.000000,0.000000,0.000000,0.000000,1013.250000,-0.000000,25.500000,992,1500,1500,1500,992,1500.002354,1499.400554,1500.000000
1.473700,6871383.833205,11223.959475,0.000000,44.795656,31.738372,21.959637,2412.373059,6067.136942,-3921.288480,0.499177,0.260581,0.026984,0.000000,0.000000,0.000000,0.000000,0.093589,500000.000004,90.093586,21.959637,0.000000,0.000000,0.000000,0.000000,0.000000,0.000000,1013.250000,-0.000000,25.500000,992,1500,1500,1500,992,1500.002261,1499.403669,1500.000000
1.483800,6871383.707125,11300.882790,0.000000,45.156891,31.833465,22.097007,2424.216576,6046.648771,-3945.555781,0.499209,0.257149,0.026202,0.000000,0.000000,0.000000,0.000000,0.094230,500000.000004,90.094227,22.097007,0.000000,0.000000,0.000000,0.000000,0.000000,0.000000,1013.250000,-0.000000,25.500000,992,1500,1500,1500,992,1500.002171,1499.406844,1500.000000
1.493900,6871383.580184,11377.806103,0.000000,45.517710,31.926747,22.233187,2435.933893,6026.052738,-3969.774837,0.499241,0.253733,0.025431,0.000000,0.000000,0.000000,0.000000,0.094872,500000.000004,90.094868,22.233187,0.000000,0.000000,0.000000,0.000000,0.000000,0.000000,1013.250000,-0.000000,25.500000,992,1500,1500,1500,992,1500.002085,1499.410076,1500.000000
1.504000,6871383.452382,11454.729415,0.000000,45.878096,32.018240,22.368166,2447.524801,6005.349083,-3993.945735,0.499271,0.250334,0.024670,0.000000,0.000000,0.000000,0.000000,0.095513,500000.000004,90.095510,22.368166,0.000000,0.000000,0.000000,0.000000,0.000000,0.000000,1013.250000,-0.000000,25.500000,992,1500,1500,1500,992,1500.002003,1499.413364,1500.000000
1.514100,6871383.323719,11531.652725,0.000000,46.238034,32.107964,22.501929,2458.989118,5984.538040,-4018.068535,0.499300,0.246953,0.023919,0.000000,0.000000,0.000000,0.000000,0.096154,500000.000004,90.096151,22.501929,0.000000,0.000000,0.000000,0.000000,0.000000,0.000000,1013.250000,-0.000000,25.500000,992,1500,1500,1500,992,1500.001923,1499.416706,1500.000000
1.524200,6871383.194195,11608.576034,0.000000,46.597512,32.195943,22.634463,2470.326685,5963.619837,-4042.143280,0.499327,0.243589,0.023179,0.000000,0.000000,0.000000,0.000000,0.096796,500000.000004,90.096793,22.634463,0.000000,0.000000,0.000000,0.000000,0.000000,0.000000,1013.250000,-0.000000,25.500000,992,1500,1500,1500,992,1500.001847,1499.420101,1500.000000
1.534300,6871383.063810,11685.499341,0.000000,46.956513,32.282196,22.765757,2481.537370,5942.594695,-4066.169987,0.499354,0.240243,0.022448,0.000000,0.000000,0.000000,0.000000,0.097437,500000.000004,90.097434,22.765757,0.000000,0.000000,0.000000,0.000000,0.000000,0.000000,1013.250000,-0.000000,25.500000,992,1500,1500,1500,992,1500.001774,1499.423545,1500.000000
1.544400,6871382.932563,11762.422648,0.000000,47.315025,32.366747,22.895798,2492.621064,5921.462829,-4090.148651,0.499380,0.236916,0.021727,0.000000,0.000000,0.000000,0.000000,0.098079,500000.000004,90.098075,22.895798,0.000000,0.000000,0.000000,0.000000,0.000000,0.000000,1013.250000,-0.000000,25.500000,992,1500,1500,1500,992,1500.001704,1499.427039,1500.000000
1.554500,6871382.800455,11839.345952,0.000000,47.673035,32.449617,23.024576,2503.577681,5900.224449,-4114.079246,0.499404,0.233607,0.021017,0.000000,0.000000,0.000000,0.000000,0.098720,500000.000004,90.098717,23.024576,0.000000,0.000000,0.000000,0.000000,0.000000,0.000000,1013.250000,-0.000000,25.500000,992,1500,1500,1500,992,1500.001636,1499.430579,1500.000000
1.564600,6871382.667486,11916.269255,0.000000,48.030530,32.530828,23.152078,2514.407161,5878.879758,-4137.961721,0.499428,0.230317,0.020316,0.000000,0.000000,0.000000,0.000000,0.099362,500000.000004,90.099358,23.152078,0.000000,0.000000,0.000000,0.000000,0.000000,0.000000,1013.250000,-0.000000,25.500000,992,1500,1500,1500,992,1500.001571,1499.434164,1500.000000
1.574700,6871382.533656,11993.192557,0.000000,48.387497,32.610402,23.278295,2525.109465,5857.428957,-4161.796006,0.499451,0.227046,0.019626,0.000000,0.000000,0.000000,0.000000,0.100003,500000.000004,90.100000,23.278295,0.000000,0.000000,0.000000,0.000000,0.000000,0.000000,1013.250000,-0.000000,25.500000,992,1500,1500,1500,992,1500.001509,1499.437793,1500.000000
1.584800,6871382.398965,12070.115857,0.000000,48.743924,32.688361,23.403216,2535.684577,5835.872239,-4185.582005,0.499472,0.223795,0.018945,0.000000,0.000000,0.000000,0.000000,0.100644,500000.000004,90.100641,23.403216,0.000000,0.000000,0.000000,0.000000,0.000000,0.000000,1013.250000,-0.000000,25.500000,992,1500,1500,1500,992,1500.001449,1499.441464,1500.000000
1.594900,6871382.263413,12147.039155,0.000000,49.099799,32.764726,23.526833,2546.132507,5814.209794,-4209.319603,0.499493,0.220563,0.018273,0.000000,0.000000,0.000000,0.000000,0.101286,500000.000004,90.101283,23.526833,0.000000,0.000000,0.000000,0.000000,0.000000,0.000000,1013.250000,-0.000000,25.500000,992,1500,1500,1500,992,1500.001392,1499.445174,1500.000000
1.605000,6871382.127000,12223.962452,0.000000,49.455112,32.839521,23.649137,2556.453284,5792.441807,-4233.008660,0.499513,0.217352,0.017612,0.000000,0.000000,0.000000,0.000000,0.101927,500000.000004,90.101924,23.649137,0.000000,0.000000,0.000000,0.000000,0.000000,0.000000,1013.250000,-0.000000,25.500000,992,1500,1500,1500,992,1500.001337,1499.448924,1500.000000
1.615100,6871381.989725,12300.885748,0.000000,49.809851,32.912768,23.770118,2566.646960,5770.568458,-4256.649016,0.499533,0.214160,0.016960,0.000000,0.000000,0.000000,0.000000,0.102569,500000.000004,90.102565,23.770118,0.000000,0.000000,0.000000,0.000000,0.000000,0.000000,1013.250000,-0.000000,25.500000,992,1500,1500,1500,992,1500.001284,1499.452710,1500.000000
1.625200,6871381.851589,12377.809042,0.000000,50.164006,32.984487,23.889768,2576.713608,5748.589925,-4280.240489,0.499551,0.210990,0.016318,0.000000,0.000000,0.000000,0.000000,0.103210,500000.000004,90.103207,23.889768,0.000000,0.000000,0.000000,0.000000,0.000000,0.000000,1013.250000,-0.000000,25.500000,992,1500,1500,1500,992,1500.001233,1499.456532,1500.000000
1.635300,6871381.712593,12454.732334,0.000000,50.517567,33.054701,24.008081,2586.653325,5726.506382,-4303.782874,0.499569,0.207840,0.015685,0.000000,0.000000,0.000000,0.000000,0.103851,500000.000004,90.103848,24.008081,0.000000,0.000000,0.000000,0.000000,0.000000,0.000000,1013.250000,-0.000000,25.500000,992,1500,1500,1500,992,1500.001184,1499.460388,1500.000000
1.645400,6871381.572735,12531.655625,0.000000,50.870524,33.123433,24.125049,2596.466226,5704.317998,-4327.275946,0.499586,0.204711,0.015062,0.000000,0.000000,0.000000,0.000000,0.104493,500000.000005,90.104490,24.125049,0.000000,0.000000,0.000000,0.000000,0.000000,0.000000,1013.250000,-0.000000,25.500000,992,1500,1500,1500,992,1500.001137,1499.464276,1500.000000
