Time (sec) ,X(m) ,Y(m) ,Z(m) ,Roll (deg) ,Pitch (deg) ,Yaw (deg) ,U(m/s) ,V(m/s) ,W(m/s) ,P(rad/s) ,Q(rad/s) ,R(rad/s) ,Mx(Gauss) ,My(Gauss) ,Mz(Gauss) ,GPS Latitude (deg) ,GPS Longitude (deg) ,GPS Altitude (m) ,GPS Heading (deg) ,Yaw (deg) ,Analog 1 (V) ,Analog 2 (V) ,Analog 3 (V) ,Analog 4 (V) ,Analog 5 (V) ,Analog 6 (V) ,Pressure (Pa) ,Pressure Altitude (m) ,Temperature (C) ,RC Channel #1 ,RC Channel #2 ,RC Channel #3 ,RC Channel #4 ,RC Channel #5 ,PWM Model 1 ,PWM Model 2 
 0.000000,6871393.000000,0.000000,0.000000,0.000000,0.000000,0.000000,0.000000,7616.180000,0.000000,0.200000,0.200000,0.200000,0.000000,0.000000,0.000000,0.000000,0.000000,500000.000000,0.000000,0.000000,0.000000,0.000000,0.000000,0.000000,0.000000,0.000000,1013.250000,-0.000000,25.500000,992,1500,1500,1500,992,1500.000000,1500.000000
0.010100,6871392.999569,76.923418,0.000000,0.077258,0.098789,0.115761,15.302565,7616.157739,-10.243341,0.081610,0.144053,0.199859,0.000000,0.000000,0.000000,0.000000,0.000641,500000.000000,90.000638,0.115761,0.000000,0.000000,0.000000,0.000000,0.000000,0.000000,1013.250000,-0.000000,25.500000,992,1500,1500,1500,992,1494.894000,1491.833191
0.020200,6871392.998278,153.846836,0.000000,0.108451,0.169475,0.231520,30.604600,7616.105037,-14.325410,0.032625,0.103173,0.199818,0.000000,0.000000,0.000000,0.000000,0.001283,500000.000000,90.001280,0.231520,0.000000,0.000000,0.000000,0.000000,0.000000,0.000000,1013.250000,-0.000000,25.500000,992,1500,1500,1500,992,1497.958793,1494.150737
0.030300,6871392.996125,230.770254,0.000000,0.121207,0.220000,0.347251,45.902753,7616.025000,-15.935110,0.013042,0.073878,0.199807,0.000000,0.000000,0.000000,0.000000,0.001924,500000.000000,90.001921,0.347251,0.000000,0.000000,0.000000,0.000000,0.000000,0.000000,1013.250000,-0.000000,25.500000,992,1500,1500,1500,992,1499.183994,1495.811595
0.040300,6871392.993145,306.932054,0.000000,0.126595,0.255791,0.461809,61.045646,7615.917355,-16.554877,0.005261,0.053069,0.199803,0.000000,0.000000,0.000000,0.000000,0.002559,500000.000000,90.002556,0.461809,0.000000,0.000000,0.000000,0.000000,0.000000,0.000000,1013.250000,-0.000000,25.500000,992,1500,1500,1500,992,1499.670813,1496.991316
0.050300,6871392.989321,383.093854,0.000000,0.129115,0.281423,0.576347,76.185453,7615.780442,-16.787799,0.002123,0.038119,0.199802,0.000000,0.000000,0.000000,0.000000,0.003194,500000.000000,90.003191,0.576347,0.000000,0.000000,0.000000,0.000000,0.000000,0.000000,1013.250000,-0.000000,25.500000,992,1500,1500,1500,992,1499.867202,1497.838907
0.060300,6871392.984653,459.255654,0.000000,0.130496,0.299758,0.690868,91.322841,7615.613792,-16.867416,0.000856,0.027379,0.199802,0.000000,0.000000,0.000000,0.000000,0.003829,500000.000000,90.003826,0.690868,0.000000,0.000000,0.000000,0.000000,0.000000,0.000000,1013.250000,-0.000000,25.500000,992,1500,1500,1500,992,1499.946428,1498.447781
0.070300,6871392.979140,535.417453,0.000000,0.131431,0.312851,0.805378,106.458327,7615.417206,-16.887771,0.000345,0.019665,0.199802,0.000000,0.000000,0.000000,0.000000,0.004464,500000.000000,90.004461,0.805378,0.000000,0.000000,0.000000,0.000000,0.000000,0.000000,1013.250000,-0.000000,25.500000,992,1500,1500,1500,992,1499.978388,1498.885134
0.080300,6871392.972784,611.579253,0.000000,0.132196,0.322180,0.919880,121.592283,7615.190605,-16.886509,0.000139,0.014124,0.199802,0.000000,0.000000,0.000000,0.000000,0.005100,500000.000000,90.005096,0.919880,0.000000,0.000000,0.000000,0.000000,0.000000,0.000000,1013.250000,-0.000000,25.500000,992,1500,1500,1500,992,1499.991282,1499.199269
0.090300,6871392.965583,687.741053,0.000000,0.132899,0.328805,1.034375,136.724960,7614.933959,-16.878486,0.000056,0.010144,0.199802,0.000000,0.000000,0.000000,0.000000,0.005735,500000.000000,90.005731,1.034375,0.000000,0.000000,0.000000,0.000000,0.000000,0.000000,1013.250000,-0.000000,25.500000,992,1500,1500,1500,992,1499.996483,1499.424894
0.100300,6871392.957538,763.902852,0.000000,0.133583,0.333487,1.148867,151.856525,7614.647255,-16.869366,0.000023,0.007286,0.199802,0.000000,0.000000,0.000000,0.000000,0.006370,500000.000000,90.006367,1.148867,0.000000,0.000000,0.000000,0.000000,0.000000,0.000000,1013.250000,-0.000000,25.500000,992,1500,1500,1500,992,1499.998581,1499.586946
0.110300,6871392.948649,840.064652,0.000000,0.134261,0.336773,1.263355,166.987079,7614.330490,-16.861136,0.000009,0.005233,0.199802,0.000000,0.000000,0.000000,0.000000,0.007005,500000.000000,90.007002,1.263355,0.000000,0.000000,0.000000,0.000000,0.000000,0.000000,1013.250000,-0.000000,25.500000,992,1500,1500,1500,992,1499.999428,1499.703336
0.120300,6871392.938916,916.226451,0.000000,0.134940,0.339057,1.377840,182.116678,7613.983664,-16.854338,0.000004,0.003758,0.199802,0.000000,0.000000,0.000000,0.000000,0.007640,500000.000000,90.007637,1.377840,0.000000,0.000000,0.000000,0.000000,0.000000,0.000000,1013.250000,-0.000000,25.500000,992,1500,1500,1500,992,1499.999769,1499.786930
0.130400,6871392.928228,993.149869,0.000000,0.135627,0.340632,1.493469,197.396629,7613.602858,-16.848926,0.000001,0.002690,0.199802,0.000000,0.000000,0.000000,0.000000,0.008281,500000.000000,90.008278,1.493469,0.000000,0.000000,0.000000,0.000000,0.000000,0.000000,1013.250000,-0.000000,25.500000,992,1500,1500,1500,992,1499.999908,1499.847474
0.140500,6871392.916679,1070.073286,0.000000,0.136316,0.341681,1.609097,212.675629,7613.191389,-16.844787,0.000001,0.001926,0.199802,0.000000,0.000000,0.000000,0.000000,0.008923,500000.000000,90.008919,1.609097,0.000000,0.000000,0.000000,0.000000,0.000000,0.000000,1013.250000,-0.000000,25.500000,992,1500,1500,1500,992,1499.999963,1499.890815
0.150600,6871392.904270,1146.996703,0.000000,0.137007,0.342353,1.724724,227.953663,7612.749259,-16.841696,0.000000,0.001379,0.199802,0.000000,0.000000,0.000000,0.000000,0.009564,500000.000000,90.009561,1.724724,0.000000,0.000000,0.000000,0.000000,0.000000,0.000000,1013.250000,-0.000000,25.500000,992,1500,1500,1500,992,1499.999985,1499.921840
0.160700,6871392.890999,1223.920120,0.000000,0.137698,0.342754,1.840350,243.230700,7612.276470,-16.839440,0.000000,0.000987,0.199802,0.000000,0.000000,0.000000,0.000000,0.010205,500000.000000,90.010202,1.840350,0.000000,0.000000,0.000000,0.000000,0.000000,0.000000,1013.250000,-0.000000,25.500000,992,1500,1500,1500,992,1499.999994,1499.944050
0.170800,6871392.876867,1300.843536,0.000000,0.138390,0.342961,1.955976,258.506701,7611.773024,-16.837840,0.000000,0.000706,0.199802,0.000000,0.000000,0.000000,0.000000,0.010847,500000.000000,90.010844,1.955976,0.000000,0.000000,0.000000,0.000000,0.000000,0.000000,1013.250000,-0.000000,25.500000,992,1500,1500,1500,992,1499.999998,1499.959948
0.180900,6871392.861874,1377.766953,0.000000,0.139082,0.343028,2.071601,273.781619,7611.238923,-16.836747,0.000000,0.000506,0.199802,0.000000,0.000000,0.000000,0.000000,0.011488,500000.000000,90.011485,2.071601,0.000000,0.000000,0.000000,0.000000,0.000000,0.000000,1013.250000,-0.000000,25.500000,992,1500,1500,1500,992,1499.999999,1499.971329
0.191000,6871392.846019,1454.690369,0.000000,0.139775,0.342996,2.187227,289.055407,7610.674169,-16.836046,0.000000,0.000362,0.199802,0.000000,0.000000,0.000000,0.000000,0.012130,500000.000000,90.012126,2.187227,0.000000,0.000000,0.000000,0.000000,0.000000,0.000000,1013.250000,-0.000000,25.500000,992,1500,1500,1500,992,1500.000000,1499.979476
0.201100,6871392.829304,1531.613785,0.000000,0.140467,0.342891,2.302852,304.328009,7610.078765,-16.835643,0.000000,0.000259,0.199802,0.000000,0.000000,0.000000,0.000000,0.012771,500000.000000,90.012768,2.302852,0.000000,0.000000,0.000000,0.000000,0.000000,0.000000,1013.250000,-0.000000,25.500000,992,1500,1500,1500,992,1500.000000,1499.985308
0.211200,6871392.811727,1608.537201,0.000000,0.141158,0.342734,2.418477,319.599371,7609.452714,-16.835469,0.000000,0.000186,0.199802,0.000000,0.000000,0.000000,0.000000,0.013412,500000.000000,90.013409,2.418477,0.000000,0.000000,0.000000,0.000000,0.000000,0.000000,1013.250000,-0.000000,25.500000,992,1500,1500,1500,992,1500.000000,1499.989483
0.221300,6871392.793290,1685.460617,0.000000,0.141850,0.342540,2.534101,334.869435,7608.796017,-16.835467,0.000000,0.000133,0.199802,0.000000,0.000000,0.000000,0.000000,0.014054,500000.000000,90.014051,2.534101,0.000000,0.000000,0.000000,0.000000,0.000000,0.000000,1013.250000,-0.000000,25.500000,992,1500,1500,1500,992,1500.000000,1499.992471
0.231400,6871392.773991,1762.384033,0.000000,0.142541,0.342318,2.649726,350.138143,7608.108677,-16.835595,0.000000,0.000095,0.199802,0.000000,0.000000,0.000000,0.000000,0.014695,500000.000000,90.014692,2.649726,0.000000,0.000000,0.000000,0.000000,0.000000,0.000000,1013.250000,-0.000000,25.500000,992,1500,1500,1500,992,1500.000000,1499.994611
0.241500,6871392.753831,1839.307448,0.000000,0.143231,0.342077,2.765351,365.405435,7607.390697,-16.835822,0.000000,0.000068,0.199802,0.000000,0.000000,0.000000,0.000000,0.015337,500000.000000,90.015334,2.765351,0.000000,0.000000,0.000000,0.000000,0.000000,0.000000,1013.250000,-0.000000,25.500000,992,1500,1500,1500,992,1500.000000,1499.996142
0.251600,6871392.732810,1916.230863,0.000000,0.143922,0.341820,2.880976,380.671252,7606.642080,-16.836123,0.000000,0.000049,0.199802,0.000000,0.000000,0.000000,0.000000,0.015978,500000.000000,90.015975,2.880976,0.000000,0.000000,0.000000,0.000000,0.000000,0.000000,1013.250000,-0.000000,25.500000,992,1500,1500,1500,992,1500.000000,1499.997238
0.261700,6871392.710927,1993.154278,0.000000,0.144611,0.341553,2.996600,395.935533,7605.862829,-16.836480,0.000000,0.000035,0.199802,0.000000,0.000000,0.000000,0.000000,0.016620,500000.000000,90.016616,2.996600,0.000000,0.000000,0.000000,0.000000,0.000000,0.000000,1013.250000,-0.000000,25.500000,992,1500,1500,1500,992,1500.000000,1499.998023
0.271800,6871392.688184,2070.077693,0.000000,0.145300,0.341278,3.112225,411.198217,7605.052948,-16.836878,0.000000,0.000025,0.199802,0.000000,0.000000,0.000000,0.000000,0.017261,500000.000000,90.017258,3.112225,0.000000,0.000000,0.000000,0.000000,0.000000,0.000000,1013.250000,-0.000000,25.500000,992,1500,1500,1500,992,1500.000000,1499.998585
0.281900,6871392.664580,2147.001107,0.000000,0.145988,0.340996,3.227849,426.459244,7604.212439,-16.837307,0.000000,0.000018,0.199802,0.000000,0.000000,0.000000,0.000000,0.017902,500000.000000,90.017899,3.227849,0.000000,0.000000,0.000000,0.000000,0.000000,0.000000,1013.250000,-0.000000,25.500000,992,1500,1500,1500,992,1500.000000,1499.998987
0.292000,6871392.640114,2223.924521,0.000000,0.146676,0.340710,3.343474,441.718553,7603.341305,-16.837759,0.000000,0.000013,0.199802,0.000000,0.000000,0.000000,0.000000,0.018544,500000.000000,90.018541,3.343474,0.000000,0.000000,0.000000,0.000000,0.000000,0.000000,1013.250000,-0.000000,25.500000,992,1500,1500,1500,992,1500.000000,1499.999275
0.302100,6871392.614787,2300.847935,0.000000,0.147364,0.340419,3.459099,456.976082,7602.439551,-16.838229,0.000000,0.000009,0.199802,0.000000,0.000000,0.000000,0.000000,0.019185,500000.000000,90.019182,3.459099,0.000000,0.000000,0.000000,0.000000,0.000000,0.000000,1013.250000,-0.000000,25.500000,992,1500,1500,1500,992,1500.000000,1499.999481
0.312200,6871392.588599,2377.771349,0.000000,0.148050,0.340126,3.574723,472.231770,7601.507180,-16.838711,0.000000,0.000007,0.199802,0.000000,0.000000,0.000000,0.000000,0.019827,500000.000000,90.019823,3.574723,0.000000,0.000000,0.000000,0.000000,0.000000,0.000000,1013.250000,-0.000000,25.500000,992,1500,1500,1500,992,1500.000000,1499.999628
0.322300,6871392.561550,2454.694762,0.000000,0.148736,0.339830,3.690348,487.485555,7600.544195,-16.839203,0.000000,0.000005,0.199802,0.000000,0.000000,0.000000,0.000000,0.020468,500000.000000,90.020465,3.690348,0.000000,0.000000,0.000000,0.000000,0.000000,0.000000,1013.250000,-0.000000,25.500000,992,1500,1500,1500,992,1500.000000,1499.999734
0.332400,6871392.533640,2531.618175,0.000000,0.149422,0.339531,3.805972,502.737377,7599.550602,-16.839702,0.000000,0.000003,0.199802,0.000000,0.000000,0.000000,0.000000,0.021109,500000.000000,90.021106,3.805972,0.000000,0.000000,0.000000,0.000000,0.000000,0.000000,1013.250000,-0.000000,25.500000,992,1500,1500,1500,992,1500.000000,1499.999810
0.342500,6871392.504868,2608.541587,0.000000,0.150107,0.339230,3.921597,517.987175,7598.526402,-16.840206,0.000000,0.000002,0.199802,0.000000,0.000000,0.000000,0.000000,0.021751,500000.000000,90.021748,3.921597,0.000000,0.000000,0.000000,0.000000,0.000000,0.000000,1013.250000,-0.000000,25.500000,992,1500,1500,1500,992,1500.000000,1499.999864
0.352600,6871392.475236,2685.465000,0.000000,0.150791,0.338928,4.037221,533.234886,7597.471602,-16.840714,0.000000,0.000002,0.199802,0.000000,0.000000,0.000000,0.000000,0.022392,500000.000000,90.022389,4.037221,0.000000,0.000000,0.000000,0.000000,0.000000,0.000000,1013.250000,-0.000000,25.500000,992,1500,1500,1500,992,1500.000000,1499.999902
0.362700,6871392.444742,2762.388412,0.000000,0.151475,0.338624,4.152846,548.480450,7596.386204,-16.841225,0.000000,0.000001,0.199802,0.000000,0.000000,0.000000,0.000000,0.023034,500000.000000,90.023030,4.152846,0.000000,0.000000,0.000000,0.000000,0.000000,0.000000,1013.250000,-0.000000,25.500000,992,1500,1500,1500,992,1500.000000,1499.999930
0.372800,6871392.413388,2839.311823,0.000000,0.152158,0.338318,4.268470,563.723804,7595.270214,-16.841738,0.000000,0.000001,0.199802,0.000000,0.000000,0.000000,0.000000,0.023675,500000.000000,90.023672,4.268470,0.000000,0.000000,0.000000,0.000000,0.000000,0.000000,1013.250000,-0.000000,25.500000,992,1500,1500,1500,992,1500.000000,1499.999950
0.382900,6871392.381172,2916.235234,0.000000,0.152840,0.338011,4.384095,578.964889,7594.123635,-16.842252,0.000000,0.000001,0.199802,0.000000,0.000000,0.000000,0.000000,0.024316,500000.000000,90.024313,4.384095,0.000000,0.000000,0.000000,0.000000,0.000000,0.000000,1013.250000,-0.000000,25.500000,992,1500,1500,1500,992,1500.000000,1499.999964
0.393000,6871392.348095,2993.158645,0.000000,0.153522,0.337702,4.499719,594.203641,7592.946473,-16.842768,0.000000,0.000000,0.199802,0.000000,0.000000,0.000000,0.000000,0.024958,500000.000000,90.024955,4.499719,0.000000,0.000000,0.000000,0.000000,0.000000,0.000000,1013.250000,-0.000000,25.500000,992,1500,1500,1500,992,1500.000000,1499.999974
0.403100,6871392.314156,3070.082056,0.000000,0.154203,0.337392,4.615344,609.440001,7591.738732,-16.843284,0.000000,0.000000,0.199802,0.000000,0.000000,0.000000,0.000000,0.025599,500000.000000,90.025596,4.615344,0.000000,0.000000,0.000000,0.000000,0.000000,0.000000,1013.250000,-0.000000,25.500000,992,1500,1500,1500,992,1500.000000,1499.999982
0.413200,6871392.279357,3147.005466,0.000000,0.154884,0.337080,4.730968,624.673906,7590.500418,-16.843802,0.000000,0.000000,0.199802,0.000000,0.000000,0.000000,0.000000,0.026241,500000.000000,90.026237,4.730968,0.000000,0.000000,0.000000,0.000000,0.000000,0.000000,1013.250000,-0.000000,25.500000,992,1500,1500,1500,992,1500.000000,1499.999987
0.423300,6871392.243697,3223.928876,0.000000,0.155564,0.336767,4.846593,639.905295,7589.231534,-16.844319,0.000000,0.000000,0.199802,0.000000,0.000000,0.000000,0.000000,0.026882,500000.000000,90.026879,4.846593,0.000000,0.000000,0.000000,0.000000,0.000000,0.000000,1013.250000,-0.000000,25.500000,992,1500,1500,1500,992,1500.000000,1499.999991
0.433400,6871392.207175,3300.852285,0.000000,0.156243,0.336452,4.962217,655.134108,7587.932086,-16.844837,0.000000,0.000000,0.199802,0.000000,0.000000,0.000000,0.000000,0.027524,500000.000000,90.027520,4.962217,0.000000,0.000000,0.000000,0.000000,0.000000,0.000000,1013.250000,-0.000000,25.500000,992,1500,1500,1500,992,1500.000000,1499.999993
0.443500,6871392.169792,3377.775694,0.000000,0.156921,0.336136,5.077841,670.360282,7586.602080,-16.845355,0.000000,0.000000,0.199802,0.000000,0.000000,0.000000,0.000000,0.028165,500000.000000,90.028162,5.077841,0.000000,0.000000,0.000000,0.000000,0.000000,0.000000,1013.250000,-0.000000,25.500000,992,1500,1500,1500,992,1500.000000,1499.999995
0.453600,6871392.131549,3454.699102,0.000000,0.157599,0.335819,5.193466,685.583756,7585.241520,-16.845873,0.000000,0.000000,0.199802,0.000000,0.000000,0.000000,0.000000,0.028806,500000.000000,90.028803,5.193466,0.000000,0.000000,0.000000,0.000000,0.000000,0.000000,1013.250000,-0.000000,25.500000,992,1500,1500,1500,992,1500.000000,1499.999997
0.463700,6871392.092444,3531.622511,0.000000,0.158277,0.335500,5.309090,700.804469,7583.850413,-16.846392,0.000000,0.000000,0.199802,0.000000,0.000000,0.000000,0.000000,0.029448,500000.000000,90.029445,5.309090,0.000000,0.000000,0.000000,0.000000,0.000000,0.000000,1013.250000,-0.000000,25.500000,992,1500,1500,1500,992,1500.000000,1499.999998
0.473800,6871392.052477,3608.545918,0.000000,0.158954,0.335180,5.424715,716.022360,7582.428764,-16.846910,0.000000,0.000000,0.199802,0.000000,0.000000,0.000000,0.000000,0.030089,500000.000000,90.030086,5.424715,0.000000,0.000000,0.000000,0.000000,0.000000,0.000000,1013.250000,-0.000000,25.500000,992,1500,1500,1500,992,1500.000000,1499.999998
0.483900,6871392.011650,3685.469325,0.000000,0.159630,0.334859,5.540339,731.237367,7580.976578,-16.847429,0.000000,0.000000,0.199802,0.000000,0.000000,0.000000,0.000000,0.030731,500000.000000,90.030727,5.540339,0.000000,0.000000,0.000000,0.000000,0.000000,0.000000,1013.250000,-0.000000,25.500000,992,1500,1500,1500,992,1500.000000,1499.999999
0.494000,6871391.969962,3762.392732,0.000000,0.160305,0.334536,5.655964,746.449429,7579.493861,-16.847948,0.000000,0.000000,0.199802,0.000000,0.000000,0.000000,0.000000,0.031372,500000.000000,90.031369,5.655964,0.000000,0.000000,0.000000,0.000000,0.000000,0.000000,1013.250000,-0.000000,25.500000,992,1500,1500,1500,992,1500.000000,1499.999999
0.504100,6871391.927412,3839.316138,0.000000,0.160980,0.334212,5.771588,761.658486,7577.980620,-16.848466,0.000000,0.000000,0.199802,0.000000,0.000000,0.000000,0.000000,0.032013,500000.000000,90.032010,5.771588,0.000000,0.000000,0.000000,0.000000,0.000000,0.000000,1013.250000,-0.000000,25.500000,992,1500,1500,1500,992,1500.000000,1499.999999
0.514200,6871391.884002,3916.239544,0.000000,0.161654,0.333886,5.887212,776.864474,7576.436860,-16.848985,0.000000,0.000000,0.199802,0.000000,0.000000,0.000000,0.000000,0.032655,500000.000000,90.032652,5.887212,0.000000,0.000000,0.000000,0.000000,0.000000,0.000000,1013.250000,-0.000000,25.500000,992,1500,1500,1500,992,1500.000000,1500.000000
0.524300,6871391.839730,3993.162949,0.000000,0.162327,0.333560,6.002837,792.067334,7574.862588,-16.849504,0.000000,0.000000,0.199802,0.000000,0.000000,0.000000,0.000000,0.033296,500000.000000,90.033293,6.002837,0.000000,0.000000,0.000000,0.000000,0.000000,0.000000,1013.250000,-0.000000,25.500000,992,1500,1500,1500,992,1500.000000,1500.000000
0.534400,6871391.794597,4070.086354,0.000000,0.163000,0.333231,6.118461,807.267005,7573.257810,-16.850023,0.000000,0.000000,0.199802,0.000000,0.000000,0.000000,0.000000,0.033938,500000.000000,90.033934,6.118461,0.000000,0.000000,0.000000,0.000000,0.000000,0.000000,1013.250000,-0.000000,25.500000,992,1500,1500,1500,992,1500.000000,1500.000000
0.544500,6871391.748603,4147.009758,0.000000,0.163672,0.332902,6.234085,822.463424,7571.622532,-16.850541,0.000000,0.000000,0.199802,0.000000,0.000000,0.000000,0.000000,0.034579,500000.000000,90.034576,6.234085,0.000000,0.000000,0.000000,0.000000,0.000000,0.000000,1013.250000,-0.000000,25.500000,992,1500,1500,1500,992,1500.000000,1500.000000
0.554600,6871391.701748,4223.933162,0.000000,0.164344,0.332571,6.349710,837.656531,7569.956761,-16.851060,0.000000,0.000000,0.199802,0.000000,0.000000,0.000000,0.000000,0.035220,500000.000001,90.035217,6.349710,0.000000,0.000000,0.000000,0.000000,0.000000,0.000000,1013.250000,-0.000000,25.500000,992,1500,1500,1500,992,1500.000000,1500.000000
0.564700,6871391.654031,4300.856565,0.000000,0.165015,0.332238,6.465334,852.846264,7568.260505,-16.851579,0.000000,0.000000,0.199802,0.000000,0.000000,0.000000,0.000000,0.035862,500000.000001,90.035859,6.465334,0.000000,0.000000,0.000000,0.000000,0.000000,0.000000,1013.250000,-0.000000,25.500000,992,1500,1500,1500,992,1500.000000,1500.000000
0.574800,6871391.605454,4377.779968,0.000000,0.165685,0.331905,6.580959,868.032563,7566.533768,-16.852098,0.000000,0.000000,0.199802,0.000000,0.000000,0.000000,0.000000,0.036503,500000.000001,90.036500,6.580959,0.000000,0.000000,0.000000,0.000000,0.000000,0.000000,1013.250000,-0.000000,25.500000,992,1500,1500,1500,992,1500.000000,1500.000000
0.584900,6871391.556015,4454.703370,0.000000,0.166354,0.331570,6.696583,883.215366,7564.776560,-16.852616,0.000000,0.000000,0.199802,0.000000,0.000000,0.000000,0.000000,0.037145,500000.000001,90.037141,6.696583,0.000000,0.000000,0.000000,0.000000,0.000000,0.000000,1013.250000,-0.000000,25.500000,992,1500,1500,1500,992,1500.000000,1500.000000
0.595000,6871391.505715,4531.626772,0.000000,0.167023,0.331233,6.812207,898.394612,7562.988886,-16.853135,0.000000,0.000000,0.199802,0.000000,0.000000,0.000000,0.000000,0.037786,500000.000001,90.037783,6.812207,0.000000,0.000000,0.000000,0.000000,0.000000,0.000000,1013.250000,-0.000000,25.500000,992,1500,1500,1500,992,1500.000000,1500.000000
0.605100,6871391.454554,4608.550172,0.000000,0.167691,0.330896,6.927831,913.570240,7561.170754,-16.853654,0.000000,0.000000,0.199802,0.000000,0.000000,0.000000,0.000000,0.038428,500000.000001,90.038424,6.927831,0.000000,0.000000,0.000000,0.000000,0.000000,0.000000,1013.250000,-0.000000,25.500000,992,1500,1500,1500,992,1500.000000,1500.000000
0.615200,6871391.402532,4685.473573,0.000000,0.168358,0.330557,7.043456,928.742188,7559.322170,-16.854173,0.000000,0.000000,0.199802,0.000000,0.000000,0.000000,0.000000,0.039069,500000.000001,90.039066,7.043456,0.000000,0.000000,0.000000,0.000000,0.000000,0.000000,1013.250000,-0.000000,25.500000,992,1500,1500,1500,992,1500.000000,1500.000000
0.625300,6871391.349649,4762.396973,0.000000,0.169025,0.330216,7.159080,943.910397,7557.443144,-16.854692,0.000000,0.000000,0.199802,0.000000,0.000000,0.000000,0.000000,0.039710,500000.000001,90.039707,7.159080,0.000000,0.000000,0.000000,0.000000,0.000000,0.000000,1013.250000,-0.000000,25.500000,992,1500,1500,1500,992,1500.000000,1500.000000
0.635400,6871391.295905,4839.320372,0.000000,0.169691,0.329874,7.274704,959.074804,7555.533682,-16.855210,0.000000,0.000000,0.199802,0.000000,0.000000,0.000000,0.000000,0.040352,500000.000001,90.040349,7.274704,0.000000,0.000000,0.000000,0.000000,0.000000,0.000000,1013.250000,-0.000000,25.500000,992,1500,1500,1500,992,1500.000000,1500.000000
0.645500,6871391.241299,4916.243771,0.000000,0.170357,0.329531,7.390329,974.235349,7553.593791,-16.855729,0.000000,0.000000,0.199802,0.000000,0.000000,0.000000,0.000000,0.040993,500000.000001,90.040990,7.390329,0.000000,0.000000,0.000000,0.000000,0.000000,0.000000,1013.250000,-0.000000,25.500000,992,1500,1500,1500,992,1500.000000,1500.000000
0.655600,6871391.185833,4993.167169,0.000000,0.171021,0.329187,7.505953,989.391970,7551.623480,-16.856248,0.000000,0.000000,0.199802,0.000000,0.000000,0.000000,0.000000,0.041635,500000.000001,90.041631,7.505953,0.000000,0.000000,0.000000,0.000000,0.000000,0.000000,1013.250000,-0.000000,25.500000,992,1500,1500,1500,992,1500.000000,1500.000000
0.665700,6871391.129505,5070.090566,0.000000,0.171685,0.328841,7.621577,1004.544606,7549.622757,-16.856767,0.000000,0.000000,0.199802,0.000000,0.000000,0.000000,0.000000,0.042276,500000.000001,90.042273,7.621577,0.000000,0.000000,0.000000,0.000000,0.000000,0.000000,1013.250000,-0.000000,25.500000,992,1500,1500,1500,992,1500.000000,1500.000000
0.675800,6871391.072316,5147.013963,0.000000,0.172348,0.328494,7.737202,1019.693197,7547.591630,-16.857285,0.000000,0.000000,0.199802,0.000000,0.000000,0.000000,0.000000,0.042917,500000.000001,90.042914,7.737202,0.000000,0.000000,0.000000,0.000000,0.000000,0.000000,1013.250000,-0.000000,25.500000,992,1500,1500,1500,992,1500.000000,1500.000000
0.685900,6871391.014266,5223.937359,0.000000,0.173011,0.328145,7.852826,1034.837682,7545.530106,-16.857804,0.000000,0.000000,0.199802,0.000000,0.000000,0.000000,0.000000,0.043559,500000.000001,90.043556,7.852826,0.000000,0.000000,0.000000,0.000000,0.000000,0.000000,1013.250000,-0.000000,25.500000,992,1500,1500,1500,992,1500.000000,1500.000000
0.696000,6871390.955355,5300.860754,0.000000,0.173673,0.327796,7.968450,1049.977998,7543.438194,-16.858323,0.000000,0.000000,0.199802,0.000000,0.000000,0.000000,0.000000,0.044200,500000.000001,90.044197,7.968450,0.000000,0.000000,0.000000,0.000000,0.000000,0.000000,1013.250000,-0.000000,25.500000,992,1500,1500,1500,992,1500.000000,1500.000000
0.706100,6871390.895583,5377.784149,0.000000,0.174334,0.327444,8.084074,1065.114087,7541.315903,-16.858842,0.000000,0.000000,0.199802,0.000000,0.000000,0.000000,0.000000,0.044842,500000.000001,90.044838,8.084074,0.000000,0.000000,0.000000,0.000000,0.000000,0.000000,1013.250000,-0.000000,25.500000,992,1500,1500,1500,992,1500.000000,1500.000000
0.716200,6871390.834949,5454.707543,0.000000,0.174994,0.327092,8.199698,1080.245885,7539.163241,-16.859360,0.000000,0.000000,0.199802,0.000000,0.000000,0.000000,0.000000,0.045483,500000.000001,90.045480,8.199698,0.000000,0.000000,0.000000,0.000000,0.000000,0.000000,1013.250000,-0.000000,25.500000,992,1500,1500,1500,992,1500.000000,1500.000000
0.726300,6871390.773455,5531.630937,0.000000,0.175654,0.326738,8.315323,1095.373334,7536.980217,-16.859879,0.000000,0.000000,0.199802,0.000000,0.000000,0.000000,0.000000,0.046124,500000.000001,90.046121,8.315323,0.000000,0.000000,0.000000,0.000000,0.000000,0.000000,1013.250000,-0.000000,25.500000,992,1500,1500,1500,992,1500.000000,1500.000000
0.736400,6871390.711099,5608.554329,0.000000,0.176313,0.326383,8.430947,1110.496371,7534.766840,-16.860398,0.000000,0.000000,0.199802,0.000000,0.000000,0.000000,0.000000,0.046766,500000.000001,90.046763,8.430947,0.000000,0.000000,0.000000,0.000000,0.000000,0.000000,1013.250000,-0.000000,25.500000,992,1500,1500,1500,992,1500.000000,1500.000000
0.746500,6871390.647882,5685.477721,0.000000,0.176971,0.326027,8.546571,1125.614935,7532.523118,-16.860917,0.000000,0.000000,0.199802,0.000000,0.000000,0.000000,0.000000,0.047407,500000.000001,90.047404,8.546571,0.000000,0.000000,0.000000,0.000000,0.000000,0.000000,1013.250000,-0.000000,25.500000,992,1500,1500,1500,992,1500.000000,1500.000000
0.756600,6871390.583804,5762.401113,0.000000,0.177629,0.325669,8.662195,1140.728967,7530.249060,-16.861435,0.000000,0.000000,0.199802,0.000000,0.000000,0.000000,0.000000,0.048049,500000.000001,90.048045,8.662195,0.000000,0.000000,0.000000,0.000000,0.000000,0.000000,1013.250000,-0.000000,25.500000,992,1500,1500,1500,992,1500.000000,1500.000000
0.766700,6871390.518865,5839.324503,0.000000,0.178286,0.325310,8.777820,1155.838404,7527.944676,-16.861954,0.000000,0.000000,0.199802,0.000000,0.000000,0.000000,0.000000,0.048690,500000.000001,90.048687,8.777820,0.000000,0.000000,0.000000,0.000000,0.000000,0.000000,1013.250000,-0.000000,25.500000,992,1500,1500,1500,992,1500.000000,1500.000000
0.776800,6871390.453065,5916.247893,0.000000,0.178942,0.324949,8.893444,1170.943187,7525.609975,-16.862473,0.000000,0.000000,0.199802,0.000000,0.000000,0.000000,0.000000,0.049331,500000.000001,90.049328,8.893444,0.000000,0.000000,0.000000,0.000000,0.000000,0.000000,1013.250000,-0.000000,25.500000,992,1500,1500,1500,992,1500.000000,1500.000000
0.786900,6871390.386404,5993.171282,0.000000,0.179597,0.324587,9.009068,1186.043254,7523.244967,-16.862992,0.000000,0.000000,0.199802,0.000000,0.000000,0.000000,0.000000,0.049973,500000.000001,90.049970,9.009068,0.000000,0.000000,0.000000,0.000000,0.000000,0.000000,1013.250000,-0.000000,25.500000,992,1500,1500,1500,992,1500.000000,1500.000000
0.797000,6871390.318881,6070.094671,0.000000,0.180252,0.324224,9.124692,1201.138544,7520.849660,-16.863510,0.000000,0.000000,0.199802,0.000000,0.000000,0.000000,0.000000,0.050614,500000.000001,90.050611,9.124692,0.000000,0.000000,0.000000,0.000000,0.000000,0.000000,1013.250000,-0.000000,25.500000,992,1500,1500,1500,992,1500.000000,1500.000000
0.807100,6871390.250498,6147.018058,0.000000,0.180906,0.323860,9.240316,1216.228997,7518.424065,-16.864029,0.000000,0.000000,0.199802,0.000000,0.000000,0.000000,0.000000,0.051256,500000.000001,90.051253,9.240316,0.000000,0.000000,0.000000,0.000000,0.000000,0.000000,1013.250000,-0.000000,25.500000,992,1500,1500,1500,992,1500.000000,1500.000000
0.817200,6871390.181253,6223.941445,0.000000,0.181559,0.323494,9.355940,1231.314552,7515.968191,-16.864548,0.000000,0.000000,0.199802,0.000000,0.000000,0.000000,0.000000,0.051897,500000.000001,90.051894,9.355940,0.000000,0.000000,0.000000,0.000000,0.000000,0.000000,1013.250000,-0.000000,25.500000,992,1500,1500,1500,992,1500.000000,1500.000000
0.827300,6871390.111147,6300.864831,0.000000,0.182212,0.323127,9.471564,1246.395149,7513.482049,-16.865066,0.000000,0.000000,0.199802,0.000000,0.000000,0.000000,0.000000,0.052539,500000.000001,90.052535,9.471564,0.000000,0.000000,0.000000,0.000000,0.000000,0.000000,1013.250000,-0.000000,25.500000,992,1500,1500,1500,992,1500.000000,1500.000000
0.837400,6871390.040180,6377.788216,0.000000,0.182863,0.322759,9.587189,1261.470725,7510.965647,-16.865585,0.000000,0.000000,0.199802,0.000000,0.000000,0.000000,0.000000,0.053180,500000.000001,90.053177,9.587189,0.000000,0.000000,0.000000,0.000000,0.000000,0.000000,1013.250000,-0.000000,25.500000,992,1500,1500,1500,992,1500.000000,1500.000000
0.847500,6871389.968352,6454.711601,0.000000,0.183514,0.322389,9.702813,1276.541222,7508.418997,-16.866104,0.000000,0.000000,0.199802,0.000000,0.000000,0.000000,0.000000,0.053821,500000.000001,90.053818,9.702813,0.000000,0.000000,0.000000,0.000000,0.000000,0.000000,1013.250000,-0.000000,25.500000,992,1500,1500,1500,992,1500.000000,1500.000000
0.857600,6871389.895662,6531.634984,0.000000,0.184164,0.322018,9.818437,1291.606577,7505.842109,-16.866623,0.000000,0.000000,0.199802,0.000000,0.000000,0.000000,0.000000,0.054463,500000.000001,90.054460,9.818437,0.000000,0.000000,0.000000,0.000000,0.000000,0.000000,1013.250000,-0.000000,25.500000,992,1500,1500,1500,992,1500.000000,1500.000000
0.867700,6871389.822112,6608.558367,0.000000,0.184814,0.321646,9.934061,1306.666731,7503.234992,-16.867141,0.000000,0.000000,0.199802,0.000000,0.000000,0.000000,0.000000,0.055104,500000.000001,90.055101,9.934061,0.000000,0.000000,0.000000,0.000000,0.000000,0.000000,1013.250000,-0.000000,25.500000,992,1500,1500,1500,992,1500.000000,1500.000000
0.877800,6871389.747700,6685.481749,0.000000,0.185463,0.321272,10.049685,1321.721622,7500.597658,-16.867660,0.000000,0.000000,0.199802,0.000000,0.000000,0.000000,0.000000,0.055746,500000.000001,90.055742,10.049685,0.000000,0.000000,0.000000,0.000000,0.000000,0.000000,1013.250000,-0.000000,25.500000,992,1500,1500,1500,992,1500.000000,1500.000000
0.887900,6871389.672428,6762.405130,0.000000,0.186111,0.320897,10.165309,1336.771190,7497.930117,-16.868179,0.000000,0.000000,0.199802,0.000000,0.000000,0.000000,0.000000,0.056387,500000.000001,90.056384,10.165309,0.000000,0.000000,0.000000,0.000000,0.000000,0.000000,1013.250000,-0.000000,25.500000,992,1500,1500,1500,992,1500.000000,1500.000000
0.898000,6871389.596294,6839.328511,0.000000,0.186758,0.320521,10.280933,1351.815375,7495.232380,-16.868698,0.000000,0.000000,0.199802,0.000000,0.000000,0.000000,0.000000,0.057028,500000.000001,90.057025,10.280933,0.000000,0.000000,0.000000,0.000000,0.000000,0.000000,1013.250000,-0.000000,25.500000,992,1500,1500,1500,992,1500.000000,1500.000000
0.908100,6871389.519299,6916.251890,0.000000,0.187404,0.320144,10.396557,1366.854116,7492.504458,-16.869216,0.000000,0.000000,0.199802,0.000000,0.000000,0.000000,0.000000,0.057670,500000.000001,90.057667,10.396557,0.000000,0.000000,0.000000,0.000000,0.000000,0.000000,1013.250000,-0.000000,25.500000,992,1500,1500,1500,992,1500.000000,1500.000000
0.918200,6871389.441443,6993.175269,0.000000,0.188050,0.319765,10.512181,1381.887352,7489.746361,-16.869735,0.000000,0.000000,0.199802,0.000000,0.000000,0.000000,0.000000,0.058311,500000.000001,90.058308,10.512181,0.000000,0.000000,0.000000,0.000000,0.000000,0.000000,1013.250000,-0.000000,25.500000,992,1500,1500,1500,992,1500.000000,1500.000000
0.928300,6871389.362725,7070.098647,0.000000,0.188695,0.319385,10.627805,1396.915023,7486.958101,-16.870254,0.000000,0.000000,0.199802,0.000000,0.000000,0.000000,0.000000,0.058953,500000.000001,90.058949,10.627805,0.000000,0.000000,0.000000,0.000000,0.000000,0.000000,1013.250000,-0.000000,25.500000,992,1500,1500,1500,992,1500.000000,1500.000000
0.938400,6871389.283147,7147.022023,0.000000,0.189339,0.319003,10.743429,1411.937068,7484.139689,-16.870772,0.000000,0.000000,0.199802,0.000000,0.000000,0.000000,0.000000,0.059594,500000.000001,90.059591,10.743429,0.000000,0.000000,0.000000,0.000000,0.000000,0.000000,1013.250000,-0.000000,25.500000,992,1500,1500,1500,992,1500.000000,1500.000000
0.948500,6871389.202707,7223.945399,0.000000,0.189982,0.318620,10.859054,1426.953427,7481.291136,-16.871291,0.000000,0.000000,0.199802,0.000000,0.000000,0.000000,0.000000,0.060235,500000.000002,90.060232,10.859054,0.000000,0.000000,0.000000,0.000000,0.000000,0.000000,1013.250000,-0.000000,25.500000,992,1500,1500,1500,992,1500.000000,1500.000000
0.958600,6871389.121407,7300.868774,0.000000,0.190625,0.318236,10.974678,1441.964039,7478.412455,-16.871810,0.000000,0.000000,0.199802,0.000000,0.000000,0.000000,0.000000,0.060877,500000.000002,90.060874,10.974678,0.000000,0.000000,0.000000,0.000000,0.000000,0.000000,1013.250000,-0.000000,25.500000,992,1500,1500,1500,992,1500.000000,1500.000000
0.968700,6871389.039245,7377.792148,0.000000,0.191267,0.317851,11.090302,1456.968844,7475.503656,-16.872328,0.000000,0.000000,0.199802,0.000000,0.000000,0.000000,0.000000,0.061518,500000.000002,90.061515,11.090302,0.000000,0.000000,0.000000,0.000000,0.000000,0.000000,1013.250000,-0.000000,25.500000,992,1500,1500,1500,992,1500.000000,1500.000000
0.978800,6871388.956222,7454.715522,0.000000,0.191908,0.317464,11.205926,1471.967782,7472.564750,-16.872847,0.000000,0.000000,0.199802,0.000000,0.000000,0.000000,0.000000,0.062160,500000.000002,90.062157,11.205926,0.000000,0.000000,0.000000,0.000000,0.000000,0.000000,1013.250000,-0.000000,25.500000,992,1500,1500,1500,992,1500.000000,1500.000000
0.988900,6871388.872338,7531.638894,0.000000,0.192548,0.317077,11.321550,1486.960791,7469.595751,-16.873366,0.000000,0.000000,0.199802,0.000000,0.000000,0.000000,0.000000,0.062801,500000.000002,90.062798,11.321550,0.000000,0.000000,0.000000,0.000000,0.000000,0.000000,1013.250000,-0.000000,25.500000,992,1500,1500,1500,992,1500.000000,1500.000000
0.999000,6871388.787593,7608.562265,0.000000,0.193187,0.316687,11.437174,1501.947812,7466.596670,-16.873885,0.000000,0.000000,0.199802,0.000000,0.000000,0.000000,0.000000,0.063443,500000.000002,90.063439,11.437174,0.000000,0.000000,0.000000,0.000000,0.000000,0.000000,1013.250000,-0.000000,25.500000,992,1500,1500,1500,992,1500.000000,1500.000000
1.009100,6871388.701986,7685.485636,0.000000,0.193826,0.316297,11.552798,1516.928784,7463.567519,-16.874403,0.000000,0.000000,0.199802,0.000000,0.000000,0.000000,0.000000,0.064084,500000.000002,90.064081,11.552798,0.000000,0.000000,0.000000,0.000000,0.000000,0.000000,1013.250000,-0.000000,25.500000,992,1500,1500,1500,992,1500.000000,1500.000000
1.019200,6871388.615519,7762.409005,0.000000,0.194464,0.315905,11.668422,1531.903647,7460.508310,-16.874922,0.000000,0.000000,0.199802,0.000000,0.000000,0.000000,0.000000,0.064725,500000.000002,90.064722,11.668422,0.000000,0.000000,0.000000,0.000000,0.000000,0.000000,1013.250000,-0.000000,25.500000,992,1500,1500,1500,992,1500.000000,1500.000000
1.029300,6871388.528190,7839.332373,0.000000,0.195101,0.315512,11.784046,1546.872341,7457.419056,-16.875441,0.000000,0.000000,0.199802,0.000000,0.000000,0.000000,0.000000,0.065367,500000.000002,90.065364,11.784046,0.000000,0.000000,0.000000,0.000000,0.000000,0.000000,1013.250000,-0.000000,25.500000,992,1500,1500,1500,992,1500.000000,1500.000000
1.039400,6871388.440000,7916.255741,0.000000,0.195737,0.315118,11.899669,1561.834805,7454.299768,-16.875959,0.000000,0.000000,0.199802,0.000000,0.000000,0.000000,0.000000,0.066008,500000.000002,90.066005,11.899669,0.000000,0.000000,0.000000,0.000000,0.000000,0.000000,1013.250000,-0.000000,25.500000,992,1500,1500,1500,992,1500.000000,1500.000000
1.049500,6871388.350949,7993.179107,0.000000,0.196373,0.314722,12.015293,1576.790979,7451.150460,-16.876478,0.000000,0.000000,0.199802,0.000000,0.000000,0.000000,0.000000,0.066650,500000.000002,90.066646,12.015293,0.000000,0.000000,0.000000,0.000000,0.000000,0.000000,1013.250000,-0.000000,25.500000,992,1500,1500,1500,992,1500.000000,1500.000000
1.059600,6871388.261037,8070.102473,0.000000,0.197008,0.314325,12.130917,1591.740803,7447.971145,-16.876997,0.000000,0.000000,0.199802,0.000000,0.000000,0.000000,0.000000,0.067291,500000.000002,90.067288,12.130917,0.000000,0.000000,0.000000,0.000000,0.000000,0.000000,1013.250000,-0.000000,25.500000,992,1500,1500,1500,992,1500.000000,1500.000000
1.069700,6871388.170264,8147.025837,0.000000,0.197642,0.313927,12.246541,1606.684217,7444.761834,-16.877515,0.000000,0.000000,0.199802,0.000000,0.000000,0.000000,0.000000,0.067932,500000.000002,90.067929,12.246541,0.000000,0.000000,0.000000,0.000000,0.000000,0.000000,1013.250000,-0.000000,25.500000,992,1500,1500,1500,992,1500.000000,1500.000000
1.079800,6871388.078630,8223.949201,0.000000,0.198275,0.313527,12.362165,1621.621160,7441.522542,-16.878034,0.000000,0.000000,0.199802,0.000000,0.000000,0.000000,0.000000,0.068574,500000.000002,90.068571,12.362165,0.000000,0.000000,0.000000,0.000000,0.000000,0.000000,1013.250000,-0.000000,25.500000,992,1500,1500,1500,992,1500.000000,1500.000000
1.089900,6871387.986134,8300.872563,0.000000,0.198907,0.313127,12.477789,1636.551572,7438.253280,-16.878553,0.000000,0.000000,0.199802,0.000000,0.000000,0.000000,0.000000,0.069215,500000.000002,90.069212,12.477789,0.000000,0.000000,0.000000,0.000000,0.000000,0.000000,1013.250000,-0.000000,25.500000,992,1500,1500,1500,992,1500.000000,1500.000000
1.100000,6871387.892778,8377.795924,0.000000,0.199538,0.312725,12.593413,1651.475394,7434.954063,-16.879071,0.000000,0.000000,0.199802,0.000000,0.000000,0.000000,0.000000,0.069857,500000.000002,90.069853,12.593413,0.000000,0.000000,0.000000,0.000000,0.000000,0.000000,1013.250000,-0.000000,25.500000,992,1500,1500,1500,992,1500.000000,1500.000000
1.110100,6871387.798560,8454.719285,0.000000,0.200169,0.312321,12.709037,1666.392564,7431.624903,-16.879590,0.000000,0.000000,0.199802,0.000000,0.000000,0.000000,0.000000,0.070498,500000.000002,90.070495,12.709037,0.000000,0.000000,0.000000,0.000000,0.000000,0.000000,1013.250000,-0.000000,25.500000,992,1500,1500,1500,992,1500.000000,1500.000000
1.120200,6871387.703481,8531.642644,0.000000,0.200799,0.311917,12.824661,1681.303024,7428.265814,-16.880109,0.000000,0.000000,0.199802,0.000000,0.000000,0.000000,0.000000,0.071139,500000.000002,90.071136,12.824661,0.000000,0.000000,0.000000,0.000000,0.000000,0.000000,1013.250000,-0.000000,25.500000,992,1500,1500,1500,992,1500.000000,1500.000000
1.130300,6871387.607541,8608.566002,0.000000,0.201428,0.311511,12.940285,1696.206712,7424.876809,-16.880627,0.000000,0.000000,0.199802,0.000000,0.000000,0.000000,0.000000,0.071781,500000.000002,90.071778,12.940285,0.000000,0.000000,0.000000,0.000000,0.000000,0.000000,1013.250000,-0.000000,25.500000,992,1500,1500,1500,992,1500.000000,1500.000000
1.140400,6871387.510740,8685.489359,0.000000,0.202056,0.311104,13.055909,1711.103570,7421.457902,-16.881146,0.000000,0.000000,0.199802,0.000000,0.000000,0.000000,0.000000,0.072422,500000.000002,90.072419,13.055909,0.000000,0.000000,0.000000,0.000000,0.000000,0.000000,1013.250000,-0.000000,25.500000,992,1500,1500,1500,992,1500.000000,1500.000000
1.150500,6871387.413078,8762.412715,0.000000,0.202684,0.310695,13.171532,1725.993536,7418.009107,-16.881665,0.000000,0.000000,0.199802,0.000000,0.000000,0.000000,0.000000,0.073064,500000.000002,90.073060,13.171532,0.000000,0.000000,0.000000,0.000000,0.000000,0.000000,1013.250000,-0.000000,25.500000,992,1500,1500,1500,992,1500.000000,1500.000000
1.160600,6871387.314554,8839.336070,0.000000,0.203310,0.310286,13.287156,1740.876551,7414.530438,-16.882183,0.000000,0.000000,0.199802,0.000000,0.000000,0.000000,0.000000,0.073705,500000.000002,90.073702,13.287156,0.000000,0.000000,0.000000,0.000000,0.000000,0.000000,1013.250000,-0.000000,25.500000,992,1500,1500,1500,992,1500.000000,1500.000000
1.170700,6871387.215170,8916.259424,0.000000,0.203936,0.309875,13.402780,1755.752556,7411.021909,-16.882702,0.000000,0.000000,0.199802,0.000000,0.000000,0.000000,0.000000,0.074347,500000.000002,90.074343,13.402780,0.000000,0.000000,0.000000,0.000000,0.000000,0.000000,1013.250000,-0.000000,25.500000,992,1500,1500,1500,992,1500.000000,1500.000000
1.180800,6871387.114924,8993.182777,0.000000,0.204561,0.309463,13.518404,1770.621489,7407.483533,-16.883221,0.000000,0.000000,0.199802,0.000000,0.000000,0.000000,0.000000,0.074988,500000.000002,90.074985,13.518404,0.000000,0.000000,0.000000,0.000000,0.000000,0.000000,1013.250000,-0.000000,25.500000,992,1500,1500,1500,992,1500.000000,1500.000000
1.190900,6871387.013817,9070.106128,0.000000,0.205185,0.309049,13.634028,1785.483292,7403.915325,-16.883739,0.000000,0.000000,0.199802,0.000000,0.000000,0.000000,0.000000,0.075629,500000.000002,90.075626,13.634028,0.000000,0.000000,0.000000,0.000000,0.000000,0.000000,1013.250000,-0.000000,25.500000,992,1500,1500,1500,992,1500.000000,1500.000000
1.201000,6871386.911849,9147.029479,0.000000,0.205808,0.308635,13.749652,1800.337904,7400.317300,-16.884258,0.000000,0.000000,0.199802,0.000000,0.000000,0.000000,0.000000,0.076271,500000.000002,90.076268,13.749652,0.000000,0.000000,0.000000,0.000000,0.000000,0.000000,1013.250000,-0.000000,25.500000,992,1500,1500,1500,992,1500.000000,1500.000000
1.211100,6871386.809020,9223.952828,0.000000,0.206431,0.308219,13.865275,1815.185265,7396.689472,-16.884777,0.000000,0.000000,0.199802,0.000000,0.000000,0.000000,0.000000,0.076912,500000.000002,90.076909,13.865275,0.000000,0.000000,0.000000,0.000000,0.000000,0.000000,1013.250000,-0.000000,25.500000,992,1500,1500,1500,992,1500.000000,1500.000000
1.221200,6871386.705330,9300.876176,0.000000,0.207052,0.307801,13.980899,1830.025317,7393.031856,-16.885295,0.000000,0.000000,0.199802,0.000000,0.000000,0.000000,0.000000,0.077554,500000.000002,90.077550,13.980899,0.000000,0.000000,0.000000,0.000000,0.000000,0.000000,1013.250000,-0.000000,25.500000,992,1500,1500,1500,992,1500.000000,1500.000000
1.231300,6871386.600779,9377.799523,0.000000,0.207673,0.307383,14.096523,1844.857998,7389.344465,-16.885814,0.000000,0.000000,0.199802,0.000000,0.000000,0.000000,0.000000,0.078195,500000.000003,90.078192,14.096523,0.000000,0.000000,0.000000,0.000000,0.000000,0.000000,1013.250000,-0.000000,25.500000,992,1500,1500,1500,992,1500.000000,1500.000000
1.241400,6871386.495366,9454.722869,0.000000,0.208293,0.306963,14.212147,1859.683250,7385.627316,-16.886333,0.000000,0.000000,0.199802,0.000000,0.000000,0.000000,0.000000,0.078836,500000.000003,90.078833,14.212147,0.000000,0.000000,0.000000,0.000000,0.000000,0.000000,1013.250000,-0.000000,25.500000,992,1500,1500,1500,992,1500.000000,1500.000000
1.251500,6871386.389092,9531.646213,0.000000,0.208912,0.306542,14.327771,1874.501012,7381.880423,-16.886851,0.000000,0.000000,0.199802,0.000000,0.000000,0.000000,0.000000,0.079478,500000.000003,90.079475,14.327771,0.000000,0.000000,0.000000,0.000000,0.000000,0.000000,1013.250000,-0.000000,25.500000,992,1500,1500,1500,992,1500.000000,1500.000000
1.261600,6871386.281958,9608.569557,0.000000,0.209530,0.306120,14.443394,1889.311225,7378.103801,-16.887370,0.000000,0.000000,0.199802,0.000000,0.000000,0.000000,0.000000,0.080119,500000.000003,90.080116,14.443394,0.000000,0.000000,0.000000,0.000000,0.000000,0.000000,1013.250000,-0.000000,25.500000,992,1500,1500,1500,992,1500.000000,1500.000000
1.271700,6871386.173962,9685.492899,0.000000,0.210147,0.305697,14.559018,1904.113829,7374.297466,-16.887888,0.000000,0.000000,0.199802,0.000000,0.000000,0.000000,0.000000,0.080761,500000.000003,90.080757,14.559018,0.000000,0.000000,0.000000,0.000000,0.000000,0.000000,1013.250000,-0.000000,25.500000,992,1500,1500,1500,992,1500.000000,1500.000000
1.281800,6871386.065105,9762.416240,0.000000,0.210764,0.305272,14.674642,1918.908765,7370.461432,-16.888407,0.000000,0.000000,0.199802,0.000000,0.000000,0.000000,0.000000,0.081402,500000.000003,90.081399,14.674642,0.000000,0.000000,0.000000,0.000000,0.000000,0.000000,1013.250000,-0.000000,25.500000,992,1500,1500,1500,992,1500.000000,1500.000000
1.291900,6871385.955387,9839.339580,0.000000,0.211379,0.304846,14.790266,1933.695973,7366.595716,-16.888926,0.000000,0.000000,0.199802,0.000000,0.000000,0.000000,0.000000,0.082043,500000.000003,90.082040,14.790266,0.000000,0.000000,0.000000,0.000000,0.000000,0.000000,1013.250000,-0.000000,25.500000,992,1500,1500,1500,992,1500.000000,1500.000000
1.302000,6871385.844807,9916.262918,0.000000,0.211994,0.304419,14.905889,1948.475394,7362.700332,-16.889444,0.000000,0.000000,0.199802,0.000000,0.000000,0.000000,0.000000,0.082685,500000.000003,90.082682,14.905889,0.000000,0.000000,0.000000,0.000000,0.000000,0.000000,1013.250000,-0.000000,25.500000,992,1500,1500,1500,992,1500.000000,1500.000000
1.312100,6871385.733367,9993.186255,0.000000,0.212608,0.303990,15.021513,1963.246967,7358.775297,-16.889963,0.000000,0.000000,0.199802,0.000000,0.000000,0.000000,0.000000,0.083326,500000.000003,90.083323,15.021513,0.000000,0.000000,0.000000,0.000000,0.000000,0.000000,1013.250000,-0.000000,25.500000,992,1500,1500,1500,992,1500.000000,1500.000000
1.322200,6871385.621065,10070.109591,0.000000,0.213221,0.303561,15.137137,1978.010634,7354.820626,-16.890482,0.000000,0.000000,0.199802,0.000000,0.000000,0.000000,0.000000,0.083968,500000.000003,90.083964,15.137137,0.000000,0.000000,0.000000,0.000000,0.000000,0.000000,1013.250000,-0.000000,25.500000,992,1500,1500,1500,992,1500.000000,1500.000000
1.332300,6871385.507902,10147.032926,0.000000,0.213833,0.303130,15.252760,1992.766335,7350.836335,-16.891000,0.000000,0.000000,0.199802,0.000000,0.000000,0.000000,0.000000,0.084609,500000.000003,90.084606,15.252760,0.000000,0.000000,0.000000,0.000000,0.000000,0.000000,1013.250000,-0.000000,25.500000,992,1500,1500,1500,992,1500.000000,1500.000000
1.342400,6871385.393879,10223.956260,0.000000,0.214444,0.302698,15.368384,2007.514010,7346.822440,-16.891519,0.000000,0.000000,0.199802,0.000000,0.000000,0.000000,0.000000,0.085251,500000.000003,90.085247,15.368384,0.000000,0.000000,0.000000,0.000000,0.000000,0.000000,1013.250000,-0.000000,25.500000,992,1500,1500,1500,992,1500.000000,1500.000000
1.352500,6871385.278994,10300.879592,0.000000,0.215055,0.302264,15.484008,2022.253601,7342.778958,-16.892037,0.000000,0.000000,0.199802,0.000000,0.000000,0.000000,0.000000,0.085892,500000.000003,90.085889,15.484008,0.000000,0.000000,0.000000,0.000000,0.000000,0.000000,1013.250000,-0.000000,25.500000,992,1500,1500,1500,992,1500.000000,1500.000000
1.362600,6871385.163248,10377.802923,0.000000,0.215664,0.301830,15.599632,2036.985047,7338.705904,-16.892556,0.000000,0.000000,0.199802,0.000000,0.000000,0.000000,0.000000,0.086533,500000.000003,90.086530,15.599632,0.000000,0.000000,0.000000,0.000000,0.000000,0.000000,1013.250000,-0.000000,25.500000,992,1500,1500,1500,992,1500.000000,1500.000000
1.372700,6871385.046640,10454.726252,0.000000,0.216273,0.301394,15.715255,2051.708290,7334.603296,-16.893075,0.000000,0.000000,0.199802,0.000000,0.000000,0.000000,0.000000,0.087175,500000.000003,90.087172,15.715255,0.000000,0.000000,0.000000,0.000000,0.000000,0.000000,1013.250000,-0.000000,25.500000,992,1500,1500,1500,992,1500.000000,1500.000000
1.382800,6871384.929172,10531.649581,0.000000,0.216881,0.300957,15.830879,2066.423271,7330.471149,-16.893593,0.000000,0.000000,0.199802,0.000000,0.000000,0.000000,0.000000,0.087816,500000.000003,90.087813,15.830879,0.000000,0.000000,0.000000,0.000000,0.000000,0.000000,1013.250000,-0.000000,25.500000,992,1500,1500,1500,992,1500.000000,1500.000000
1.392900,6871384.810842,10608.572908,0.000000,0.217488,0.300519,15.946502,2081.129929,7326.309480,-16.894112,0.000000,0.000000,0.199802,0.000000,0.000000,0.000000,0.000000,0.088458,500000.000003,90.088454,15.946502,0.000000,0.000000,0.000000,0.000000,0.000000,0.000000,1013.250000,-0.000000,25.500000,992,1500,1500,1500,992,1500.000000,1500.000000
1.403000,6871384.691652,10685.496233,0.000000,0.218094,0.300079,16.062126,2095.828206,7322.118307,-16.894631,0.000000,0.000000,0.199802,0.000000,0.000000,0.000000,0.000000,0.089099,500000.000003,90.089096,16.062126,0.000000,0.000000,0.000000,0.000000,0.000000,0.000000,1013.250000,-0.000000,25.500000,992,1500,1500,1500,992,1500.000000,1500.000000
1.413100,6871384.571600,10762.419558,0.000000,0.218699,0.299638,16.177750,2110.518042,7317.897645,-16.895149,0.000000,0.000000,0.199802,0.000000,0.000000,0.000000,0.000000,0.089740,500000.000003,90.089737,16.177750,0.000000,0.000000,0.000000,0.000000,0.000000,0.000000,1013.250000,-0.000000,25.500000,992,1500,1500,1500,992,1500.000000,1500.000000
1.423200,6871384.450687,10839.342881,0.000000,0.219303,0.299196,16.293373,2125.199379,7313.647512,-16.895668,0.000000,0.000000,0.199802,0.000000,0.000000,0.000000,0.000000,0.090382,500000.000003,90.090379,16.293373,0.000000,0.000000,0.000000,0.000000,0.000000,0.000000,1013.250000,-0.000000,25.500000,992,1500,1500,1500,992,1500.000000,1500.000000
1.433300,6871384.328913,10916.266202,0.000000,0.219906,0.298753,16.408997,2139.872157,7309.367925,-16.896186,0.000000,0.000000,0.199802,0.000000,0.000000,0.000000,0.000000,0.091023,500000.000003,90.091020,16.408997,0.000000,0.000000,0.000000,0.000000,0.000000,0.000000,1013.250000,-0.000000,25.500000,992,1500,1500,1500,992,1500.000000,1500.000000
1.443400,6871384.206278,10993.189522,0.000000,0.220509,0.298309,16.524621,2154.536318,7305.058901,-16.896705,0.000000,0.000000,0.199802,0.000000,0.000000,0.000000,0.000000,0.091665,500000.000003,90.091661,16.524621,0.000000,0.000000,0.000000,0.000000,0.000000,0.000000,1013.250000,-0.000000,25.500000,992,1500,1500,1500,992,1500.000000,1500.000000
1.453500,6871384.082781,11070.112841,0.000000,0.221110,0.297863,16.640244,2169.191801,7300.720458,-16.897224,0.000000,0.000000,0.199802,0.000000,0.000000,0.000000,0.000000,0.092306,500000.000004,90.092303,16.640244,0.000000,0.000000,0.000000,0.000000,0.000000,0.000000,1013.250000,-0.000000,25.500000,992,1500,1500,1500,992,1500.000000,1500.000000
1.463600,6871383.958424,11147.036159,0.000000,0.221711,0.297416,16.755868,2183.838548,7296.352613,-16.897742,0.000000,0.000000,0.199802,0.000000,0.000000,0.000000,0.000000,0.092947,500000.000004,90.092944,16.755868,0.000000,0.000000,0.000000,0.000000,0.000000,0.000000,1013.250000,-0.000000,25.500000,992,1500,1500,1500,992,1500.000000,1500.000000
1.473700,6871383.833205,11223.959475,0.000000,0.222311,0.296968,16.871491,2198.476501,7291.955384,-16.898261,0.000000,0.000000,0.199802,0.000000,0.000000,0.000000,0.000000,0.093589,500000.000004,90.093586,16.871491,0.000000,0.000000,0.000000,0.000000,0.000000,0.000000,1013.250000,-0.000000,25.500000,992,1500,1500,1500,992,1500.000000,1500.000000
1.483800,6871383.707125,11300.882790,0.000000,0.222910,0.296519,16.987115,2213.105600,7287.528787,-16.898779,0.000000,0.000000,0.199802,0.000000,0.000000,0.000000,0.000000,0.094230,500000.000004,90.094227,16.987115,0.000000,0.000000,0.000000,0.000000,0.000000,0.000000,1013.250000,-0.000000,25.500000,992,1500,1500,1500,992,1500.000000,1500.000000
1.493900,6871383.580184,11377.806103,0.000000,0.223507,0.296069,17.102738,2227.725786,7283.072843,-16.899298,0.000000,0.000000,0.199802,0.000000,0.000000,0.000000,0.000000,0.094872,500000.000004,90.094868,17.102738,0.000000,0.000000,0.000000,0.000000,0.000000,0.000000,1013.250000,-0.000000,25.500000,992,1500,1500,1500,992,1500.000000,1500.000000
1.504000,6871383.452382,11454.729415,0.000000,0.224104,0.295617,17.218362,2242.337000,7278.587567,-16.899816,0.000000,0.000000,0.199802,0.000000,0.000000,0.000000,0.000000,0.095513,500000.000004,90.095510,17.218362,0.000000,0.000000,0.000000,0.000000,0.000000,0.000000,1013.250000,-0.000000,25.500000,992,1500,1500,1500,992,1500.000000,1500.000000
1.514100,6871383.323719,11531.652725,0.000000,0.224701,0.295164,17.333985,2256.939184,7274.072978,-16.900335,0.000000,0.000000,0.199802,0.000000,0.000000,0.000000,0.000000,0.096154,500000.000004,90.096151,17.333985,0.000000,0.000000,0.000000,0.000000,0.000000,0.000000,1013.250000,-0.000000,25.500000,992,1500,1500,1500,992,1500.000000,1500.000000
1.524200,6871383.194195,11608.576034,0.000000,0.225296,0.294710,17.449609,2271.532278,7269.529095,-16.900854,0.000000,0.000000,0.199802,0.000000,0.000000,0.000000,0.000000,0.096796,500000.000004,90.096793,17.449609,0.000000,0.000000,0.000000,0.000000,0.000000,0.000000,1013.250000,-0.000000,25.500000,992,1500,1500,1500,992,1500.000000,1500.000000
1.534300,6871383.063810,11685.499341,0.000000,0.225890,0.294255,17.565233,2286.116225,7264.955935,-16.901372,0.000000,0.000000,0.199802,0.000000,0.000000,0.000000,0.000000,0.097437,500000.000004,90.097434,17.565233,0.000000,0.000000,0.000000,0.000000,0.000000,0.000000,1013.250000,-0.000000,25.500000,992,1500,1500,1500,992,1500.000000,1500.000000
1.544400,6871382.932563,11762.422648,0.000000,0.226483,0.293799,17.680856,2300.690964,7260.353518,-16.901891,0.000000,0.000000,0.199802,0.000000,0.000000,0.000000,0.000000,0.098079,500000.000004,90.098075,17.680856,0.000000,0.000000,0.000000,0.000000,0.000000,0.000000,1013.250000,-0.000000,25.500000,992,1500,1500,1500,992,1500.000000,1500.000000
1.554500,6871382.800455,11839.345952,0.000000,0.227076,0.293341,17.796480,2315.256438,7255.721861,-16.902409,0.000000,0.000000,0.199802,0.000000,0.000000,0.000000,0.000000,0.098720,500000.000004,90.098717,17.796480,0.000000,0.000000,0.000000,0.000000,0.000000,0.000000,1013.250000,-0.000000,25.500000,992,1500,1500,1500,992,1500.000000,1500.000000
1.564600,6871382.667486,11916.269255,0.000000,0.227667,0.292882,17.912103,2329.812588,7251.060984,-16.902928,0.000000,0.000000,0.199802,0.000000,0.000000,0.000000,0.000000,0.099362,500000.000004,90.099358,17.912103,0.000000,0.000000,0.000000,0.000000,0.000000,0.000000,1013.250000,-0.000000,25.500000,992,1500,1500,1500,992,1500.000000,1500.000000
1.574700,6871382.533656,11993.192557,0.000000,0.228258,0.292422,18.027726,2344.359355,7246.370904,-16.903447,0.000000,0.000000,0.199802,0.000000,0.000000,0.000000,0.000000,0.100003,500000.000004,90.100000,18.027726,0.000000,0.000000,0.000000,0.000000,0.000000,0.000000,1013.250000,-0.000000,25.500000,992,1500,1500,1500,992,1500.000000,1500.000000
1.584800,6871382.398965,12070.115857,0.000000,0.228848,0.291961,18.143350,2358.896681,7241.651641,-16.903965,0.000000,0.000000,0.199802,0.000000,0.000000,0.000000,0.000000,0.100644,500000.000004,90.100641,18.143350,0.000000,0.000000,0.000000,0.000000,0.000000,0.000000,1013.250000,-0.000000,25.500000,992,1500,1500,1500,992,1500.000000,1500.000000
1.594900,6871382.263413,12147.039155,0.000000,0.229436,0.291498,18.258973,2373.424507,7236.903215,-16.904484,0.000000,0.000000,0.199802,0.000000,0.000000,0.000000,0.000000,0.101286,500000.000004,90.101283,18.258973,0.000000,0.000000,0.000000,0.000000,0.000000,0.000000,1013.250000,-0.000000,25.500000,992,1500,1500,1500,992,1500.000000,1500.000000
1.605000,6871382.127000,12223.962452,0.000000,0.230024,0.291035,18.374597,2387.942775,7232.125643,-16.905002,0.000000,0.000000,0.199802,0.000000,0.000000,0.000000,0.000000,0.101927,500000.000004,90.101924,18.374597,0.000000,0.000000,0.000000,0.000000,0.000000,0.000000,1013.250000,-0.000000,25.500000,992,1500,1500,1500,992,1500.000000,1500.000000
1.615100,6871381.989725,12300.885748,0.000000,0.230611,0.290570,18.490220,2402.451425,7227.318946,-16.905521,0.000000,0.000000,0.199802,0.000000,0.000000,0.000000,0.000000,0.102569,500000.000004,90.102565,18.490220,0.000000,0.000000,0.000000,0.000000,0.000000,0.000000,1013.250000,-0.000000,25.500000,992,1500,1500,1500,992,1500.000000,1500.000000
1.625200,6871381.851589,12377.809042,0.000000,0.231197,0.290104,18.605844,2416.950400,7222.483142,-16.906039,0.000000,0.000000,0.199802,0.000000,0.000000,0.000000,0.000000,0.103210,500000.000004,90.103207,18.605844,0.000000,0.000000,0.000000,0.000000,0.000000,0.000000,1013.250000,-0.000000,25.500000,992,1500,1500,1500,992,1500.000000,1500.000000
1.635300,6871381.712593,12454.732334,0.000000,0.231782,0.289637,18.721467,2431.439642,7217.618252,-16.906558,0.000000,0.000000,0.199802,0.000000,0.000000,0.000000,0.000000,0.103851,500000.000004,90.103848,18.721467,0.000000,0.000000,0.000000,0.000000,0.000000,0.000000,1013.250000,-0.000000,25.500000,992,1500,1500,1500,992,1500.000000,1500.000000
1.645400,6871381.572735,12531.655625,0.000000,0.232366,0.289169,18.837091,2445.919091,7212.724294,-16.907076,0.000000,0.000000,0.199802,0.000000,0.000000,0.000000,0.000000,0.104493,500000.000005,90.104490,18.837091,0.000000,0.000000,0.000000,0.000000,0.000000,0.000000,1013.250000,-0.000000,25.500000,992,1500,1500,1500,992,1500.000000,1500.000000
1.655500,6871381.432016,12608.578914,0.000000,0.232949,0.288699,18.952714,2460.388691,7207.801289,-16.907595,0.000000,0.000000,0.199802,0.000000,0.000000,0.000000,0.000000,0.105134,500000.000005,90.105131,18.952714,0.000000,0.000000,0.000000,0.000000,0.000000,0.000000,1013.250000,-0.000000,25.500000,992,1500,1500,1500,992,1500.000000,1500.000000
1.665600,6871381.290435,12685.502202,0.000000,0.233531,0.288228,19.068337,2474.848381,7202.849256,-16.908114,0.000000,0.000000,0.199802,0.000000,0.000000,0.000000,0.000000,0.105776,500000.000005,90.105772,19.068337,0.000000,0.000000,0.000000,0.000000,0.000000,0.000000,1013.250000,-0.000000,25.500000,992,1500,1500,1500,992,1500.000000,1500.000000
1.675700,6871381.147994,12762.425488,0.000000,0.234112,0.287757,19.183961,2489.298105,7197.868215,-16.908632,0.000000,0.000000,0.199802,0.000000,0.000000,0.000000,0.000000,0.106417,500000.000005,90.106414,19.183961,0.000000,0.000000,0.000000,0.000000,0.000000,0.000000,1013.250000,-0.000000,25.500000,992,1500,1500,1500,992,1500.000000,1500.000000
1.685800,6871381.004692,12839.348773,0.000000,0.234692,0.287284,19.299584,2503.737803,7192.858186,-16.909151,0.000000,0.000000,0.199802,0.000000,0.000000,0.000000,0.000000,0.107058,500000.000005,90.107055,19.299584,0.000000,0.000000,0.000000,0.000000,0.000000,0.000000,1013.250000,-0.000000,25.500000,992,1500,1500,1500,992,1500.000000,1500.000000
1.695900,6871380.860528,12916.272056,0.000000,0.235272,0.286809,19.415207,2518.167419,7187.819190,-16.909669,0.000000,0.000000,0.199802,0.000000,0.000000,0.000000,0.000000,0.107700,500000.000005,90.107697,19.415207,0.000000,0.000000,0.000000,0.000000,0.000000,0.000000,1013.250000,-0.000000,25.500000,992,1500,1500,1500,992,1500.000000,1500.000000
1.706000,6871380.715503,12993.195337,0.000000,0.235850,0.286334,19.530831,2532.586892,7182.751247,-16.910188,0.000000,0.000000,0.199802,0.000000,0.000000,0.000000,0.000000,0.108341,500000.000005,90.108338,19.530831,0.000000,0.000000,0.000000,0.000000,0.000000,0.000000,1013.250000,-0.000000,25.500000,992,1500,1500,1500,992,1500.000000,1500.000000
1.716100,6871380.569617,13070.118617,0.000000,0.236427,0.285858,19.646454,2546.996167,7177.654376,-16.910706,0.000000,0.000000,0.199802,0.000000,0.000000,0.000000,0.000000,0.108983,500000.000005,90.108979,19.646454,0.000000,0.000000,0.000000,0.000000,0.000000,0.000000,1013.250000,-0.000000,25.500000,992,1500,1500,1500,992,1500.000000,1500.000000
1.726200,6871380.422870,13147.041895,0.000000,0.237004,0.285380,19.762077,2561.395184,7172.528600,-16.911225,0.000000,0.000000,0.199802,0.000000,0.000000,0.000000,0.000000,0.109624,500000.000005,90.109621,19.762077,0.000000,0.000000,0.000000,0.000000,0.000000,0.000000,1013.250000,-0.000000,25.500000,992,1500,1500,1500,992,1500.000000,1500.000000
