Time (sec) ,X(m) ,Y(m) ,Z(m) ,Roll (deg) ,Pitch (deg) ,Yaw (deg) ,U(m/s) ,V(m/s) ,W(m/s) ,P(rad/s) ,Q(rad/s) ,R(rad/s) ,Mx(Gauss) ,My(Gauss) ,Mz(Gauss) ,GPS Latitude (deg) ,GPS Longitude (deg) ,GPS Altitude (m) ,GPS Heading (deg) ,Yaw (deg) ,Analog 1 (V) ,Analog 2 (V) ,Analog 3 (V) ,Analog 4 (V) ,Analog 5 (V) ,Analog 6 (V) ,Pressure (Pa) ,Pressure Altitude (m) ,Temperature (C) ,RC Channel #1 ,RC Channel #2 ,RC Channel #3 ,RC Channel #4 ,RC Channel #5 ,PWM Model 1 ,PWM Model 2 ,PWM Model 3 
 0.000000,6871393.000000,0.000000,0.000000,0.000000,0.000000,0.000000,0.000000,7616.180000,0.000000,0.200000,0.200000,0.200000,0.000000,0.000000,0.000000,0.000000,0.000000,500000.000000,0.000000,0.000000,0.000000,0.000000,0.000000,0.000000,0.000000,0.000000,1013.250000,-0.000000,25.500000,992,1500,1500,1500,992,1500.000000,1500.000000,1500.000000
0.010100,6871392.999569,76.923418,0.000000,0.112967,0.111910,0.109097,14.416748,7616.151607,-14.988245,0.190144,0.187279,0.177133,0.000000,0.000000,0.000000,0.000000,0.000641,500000.000000,90.000638,0.109097,0.000000,0.000000,0.000000,0.000000,0.000000,0.000000,1013.250000,-0.000000,25.500000,992,1500,1500,1500,992,1499.347078,1497.880976,1496.392855
0.020200,6871392.998278,153.846836,0.000000,0.220544,0.216522,0.205929,27.202801,7616.075393,-29.213221,0.180773,0.175368,0.156881,0.000000,0.000000,0.000000,0.000000,0.001283,500000.000000,90.001280,0.205929,0.000000,0.000000,0.000000,0.000000,0.000000,0.000000,1013.250000,-0.000000,25.500000,992,1500,1500,1500,992,1499.379256,1498.019021,1496.805446
0.030300,6871392.996125,230.770254,0.000000,0.322953,0.314336,0.291884,38.542891,7615.962677,-42.717033,0.171864,0.164214,0.138944,0.000000,0.000000,0.000000,0.000000,0.001924,500000.000000,90.001921,0.291884,0.000000,0.000000,0.000000,0.000000,0.000000,0.000000,1013.250000,-0.000000,25.500000,992,1500,1500,1500,992,1499.409847,1498.147769,1497.170845
0.040300,6871392.993145,306.932054,0.000000,0.419474,0.404941,0.367484,48.506968,7615.823923,-55.415210,0.163476,0.153869,0.123206,0.000000,0.000000,0.000000,0.000000,0.002559,500000.000000,90.002556,0.367484,0.000000,0.000000,0.000000,0.000000,0.000000,0.000000,1013.250000,-0.000000,25.500000,992,1500,1500,1500,992,1499.438650,1498.266743,1497.491434
0.050300,6871392.989321,383.093854,0.000000,0.511359,0.489752,0.434691,57.355050,7615.665077,-67.480533,0.155497,0.144176,0.109250,0.000000,0.000000,0.000000,0.000000,0.003194,500000.000000,90.003191,0.434691,0.000000,0.000000,0.000000,0.000000,0.000000,0.000000,1013.250000,-0.000000,25.500000,992,1500,1500,1500,992,1499.466048,1498.377864,1497.775696
0.060300,6871392.984653,459.255654,0.000000,0.598812,0.569154,0.494445,65.212207,7615.491621,-78.946362,0.147908,0.135094,0.096875,0.000000,0.000000,0.000000,0.000000,0.003829,500000.000000,90.003826,0.494445,0.000000,0.000000,0.000000,0.000000,0.000000,0.000000,1013.250000,-0.000000,25.500000,992,1500,1500,1500,992,1499.492108,1498.481681,1498.027747
0.070300,6871392.979140,535.417453,0.000000,0.682034,0.643504,0.547581,72.189425,7615.307908,-89.844000,0.140689,0.126584,0.085902,0.000000,0.000000,0.000000,0.000000,0.004464,500000.000000,90.004461,0.547581,0.000000,0.000000,0.000000,0.000000,0.000000,0.000000,1013.250000,-0.000000,25.500000,992,1500,1500,1500,992,1499.516896,1498.578703,1498.251237
0.080300,6871392.972784,611.579253,0.000000,0.761218,0.713133,0.594840,78.385200,7615.117395,-100.202868,0.133823,0.118610,0.076172,0.000000,0.000000,0.000000,0.000000,0.005100,500000.000000,90.005096,0.594840,0.000000,0.000000,0.000000,0.000000,0.000000,0.000000,1013.250000,-0.000000,25.500000,992,1500,1500,1500,992,1499.540475,1498.669397,1498.449402
0.090300,6871392.965583,687.741053,0.000000,0.836553,0.778349,0.636879,83.886942,7614.922825,-110.050653,0.127291,0.111138,0.067544,0.000000,0.000000,0.000000,0.000000,0.005735,500000.000000,90.005731,0.636879,0.000000,0.000000,0.000000,0.000000,0.000000,0.000000,1013.250000,-0.000000,25.500000,992,1500,1500,1500,992,1499.562903,1498.754195,1498.625111
0.100300,6871392.957538,763.902852,0.000000,0.908219,0.839437,0.674281,88.772223,7614.726372,-119.413448,0.121079,0.104138,0.059893,0.000000,0.000000,0.000000,0.000000,0.006370,500000.000000,90.006367,0.674281,0.000000,0.000000,0.000000,0.000000,0.000000,0.000000,1013.250000,-0.000000,25.500000,992,1500,1500,1500,992,1499.584236,1498.833499,1498.780911
0.110300,6871392.948649,840.064652,0.000000,0.976389,0.896664,0.707565,93.109896,7614.529754,-128.315866,0.115169,0.097578,0.053109,0.000000,0.000000,0.000000,0.000000,0.007005,500000.000000,90.007002,0.707565,0.000000,0.000000,0.000000,0.000000,0.000000,0.000000,1013.250000,-0.000000,25.500000,992,1500,1500,1500,992,1499.604528,1498.907677,1498.919055
0.120300,6871392.938916,916.226451,0.000000,1.041230,0.950279,0.737188,96.961067,7614.334328,-136.781152,0.109548,0.091431,0.047094,0.000000,0.000000,0.000000,0.000000,0.007640,500000.000000,90.007637,0.737188,0.000000,0.000000,0.000000,0.000000,0.000000,0.000000,1013.250000,-0.000000,25.500000,992,1500,1500,1500,992,1499.623829,1498.977074,1499.041546
0.130400,6871392.928228,993.149869,0.000000,1.103502,1.000999,0.763809,100.412153,7614.139239,-144.909751,0.104150,0.085616,0.041709,0.000000,0.000000,0.000000,0.000000,0.008281,500000.000000,90.008278,0.763809,0.000000,0.000000,0.000000,0.000000,0.000000,0.000000,1013.250000,-0.000000,25.500000,992,1500,1500,1500,992,1499.642368,1499.042635,1499.151178
0.140500,6871392.916679,1070.073286,0.000000,1.162698,1.048492,0.787486,103.471858,7613.947304,-152.636244,0.099017,0.080170,0.036940,0.000000,0.000000,0.000000,0.000000,0.008923,500000.000000,90.008919,0.787486,0.000000,0.000000,0.000000,0.000000,0.000000,0.000000,1013.250000,-0.000000,25.500000,992,1500,1500,1500,992,1499.659992,1499.103946,1499.248270
0.150600,6871392.904270,1146.996703,0.000000,1.218967,1.092966,0.808548,106.184144,7613.759179,-159.980881,0.094137,0.075071,0.032717,0.000000,0.000000,0.000000,0.000000,0.009564,500000.000000,90.009561,0.808548,0.000000,0.000000,0.000000,0.000000,0.000000,0.000000,1013.250000,-0.000000,25.500000,992,1500,1500,1500,992,1499.676749,1499.161292,1499.334256
0.160700,6871392.890999,1223.920120,0.000000,1.272454,1.134615,0.827290,108.587989,7613.575366,-166.962833,0.089498,0.070297,0.028976,0.000000,0.000000,0.000000,0.000000,0.010205,500000.000000,90.010202,0.827290,0.000000,0.000000,0.000000,0.000000,0.000000,0.000000,1013.250000,-0.000000,25.500000,992,1500,1500,1500,992,1499.692679,1499.214934,1499.410407
0.170800,6871392.876867,1300.843536,0.000000,1.323294,1.173619,0.843971,110.717963,7613.396238,-173.600255,0.085087,0.065826,0.025663,0.000000,0.000000,0.000000,0.000000,0.010847,500000.000000,90.010844,0.843971,0.000000,0.000000,0.000000,0.000000,0.000000,0.000000,1013.250000,-0.000000,25.500000,992,1500,1500,1500,992,1499.707825,1499.265117,1499.477848
0.180900,6871392.861874,1377.766953,0.000000,1.371619,1.210148,0.858822,112.604720,7613.222066,-179.910354,0.080894,0.061639,0.022729,0.000000,0.000000,0.000000,0.000000,0.011488,500000.000000,90.011485,0.858822,0.000000,0.000000,0.000000,0.000000,0.000000,0.000000,1013.250000,-0.000000,25.500000,992,1500,1500,1500,992,1499.722224,1499.312069,1499.537575
0.191000,6871392.846019,1454.690369,0.000000,1.417551,1.244360,0.872048,114.275454,7613.053040,-185.909442,0.076907,0.057719,0.020130,0.000000,0.000000,0.000000,0.000000,0.012130,500000.000000,90.012126,0.872048,0.000000,0.000000,0.000000,0.000000,0.000000,0.000000,1013.250000,-0.000000,25.500000,992,1500,1500,1500,992,1499.735913,1499.356001,1499.590470
0.201100,6871392.829304,1531.613785,0.000000,1.461209,1.276401,0.883829,115.754281,7612.889281,-191.612989,0.073117,0.054048,0.017829,0.000000,0.000000,0.000000,0.000000,0.012771,500000.000000,90.012768,0.883829,0.000000,0.000000,0.000000,0.000000,0.000000,0.000000,1013.250000,-0.000000,25.500000,992,1500,1500,1500,992,1499.748928,1499.397111,1499.637314
0.211200,6871392.811727,1608.537201,0.000000,1.502706,1.306411,0.894327,117.062598,7612.730856,-197.035672,0.069514,0.050610,0.015790,0.000000,0.000000,0.000000,0.000000,0.013412,500000.000000,90.013409,0.894327,0.000000,0.000000,0.000000,0.000000,0.000000,0.000000,1013.250000,-0.000000,25.500000,992,1500,1500,1500,992,1499.761301,1499.435582,1499.678800
0.221300,6871392.793290,1685.460617,0.000000,1.542149,1.334518,0.903684,118.219387,7612.577789,-202.191420,0.066088,0.047391,0.013985,0.000000,0.000000,0.000000,0.000000,0.014054,500000.000000,90.014051,0.903684,0.000000,0.000000,0.000000,0.000000,0.000000,0.000000,1013.250000,-0.000000,25.500000,992,1500,1500,1500,992,1499.773065,1499.471586,1499.715541
0.231400,6871392.773991,1762.384033,0.000000,1.579639,1.360844,0.912027,119.241491,7612.430069,-207.093452,0.062831,0.044377,0.012386,0.000000,0.000000,0.000000,0.000000,0.014695,500000.000000,90.014692,0.912027,0.000000,0.000000,0.000000,0.000000,0.000000,0.000000,1013.250000,-0.000000,25.500000,992,1500,1500,1500,992,1499.784249,1499.505284,1499.748080
0.241500,6871392.753831,1839.307448,0.000000,1.615274,1.385501,0.919469,120.143857,7612.287656,-211.754322,0.059735,0.041555,0.010970,0.000000,0.000000,0.000000,0.000000,0.015337,500000.000000,90.015334,0.919469,0.000000,0.000000,0.000000,0.000000,0.000000,0.000000,1013.250000,-0.000000,25.500000,992,1500,1500,1500,992,1499.794881,1499.536824,1499.776896
0.251600,6871392.732810,1916.230863,0.000000,1.649144,1.408595,0.926109,120.939748,7612.150485,-216.185950,0.056791,0.038912,0.009716,0.000000,0.000000,0.000000,0.000000,0.015978,500000.000000,90.015975,0.926109,0.000000,0.000000,0.000000,0.000000,0.000000,0.000000,1013.250000,-0.000000,25.500000,992,1500,1500,1500,992,1499.804990,1499.566347,1499.802416
0.261700,6871392.710927,1993.154278,0.000000,1.681339,1.430226,0.932037,121.640939,7612.018475,-220.399658,0.053992,0.036437,0.008605,0.000000,0.000000,0.000000,0.000000,0.016620,500000.000000,90.016616,0.932037,0.000000,0.000000,0.000000,0.000000,0.000000,0.000000,1013.250000,-0.000000,25.500000,992,1500,1500,1500,992,1499.814601,1499.593981,1499.825017
0.271800,6871392.688184,2070.077693,0.000000,1.711940,1.450486,0.937329,122.257883,7611.891530,-224.406200,0.051331,0.034119,0.007621,0.000000,0.000000,0.000000,0.000000,0.017261,500000.000000,90.017258,0.937329,0.000000,0.000000,0.000000,0.000000,0.000000,0.000000,1013.250000,-0.000000,25.500000,992,1500,1500,1500,992,1499.823737,1499.619850,1499.845033
0.281900,6871392.664580,2147.001107,0.000000,1.741027,1.469462,0.942058,122.799858,7611.769541,-228.215795,0.048801,0.031949,0.006750,0.000000,0.000000,0.000000,0.000000,0.017902,500000.000000,90.017899,0.942058,0.000000,0.000000,0.000000,0.000000,0.000000,0.000000,1013.250000,-0.000000,25.500000,992,1500,1500,1500,992,1499.832424,1499.644066,1499.862760
0.292000,6871392.640114,2223.924521,0.000000,1.768675,1.487235,0.946283,123.275106,7611.652390,-231.838152,0.046396,0.029917,0.005978,0.000000,0.000000,0.000000,0.000000,0.018544,500000.000000,90.018541,0.946283,0.000000,0.000000,0.000000,0.000000,0.000000,0.000000,1013.250000,-0.000000,25.500000,992,1500,1500,1500,992,1499.840683,1499.666736,1499.878458
0.302100,6871392.614787,2300.847935,0.000000,1.794955,1.503882,0.950062,123.690945,7611.539955,-235.282495,0.044110,0.028015,0.005294,0.000000,0.000000,0.000000,0.000000,0.019185,500000.000000,90.019182,0.950062,0.000000,0.000000,0.000000,0.000000,0.000000,0.000000,1013.250000,-0.000000,25.500000,992,1500,1500,1500,992,1499.848534,1499.687959,1499.892361
0.312200,6871392.588599,2377.771349,0.000000,1.819936,1.519473,0.953441,124.053876,7611.432106,-238.557593,0.041936,0.026233,0.004689,0.000000,0.000000,0.000000,0.000000,0.019827,500000.000000,90.019823,0.953441,0.000000,0.000000,0.000000,0.000000,0.000000,0.000000,1013.250000,-0.000000,25.500000,992,1500,1500,1500,992,1499.855999,1499.707828,1499.904674
0.322300,6871392.561550,2454.694762,0.000000,1.843681,1.534077,0.956466,124.369674,7611.328710,-241.671778,0.039869,0.024564,0.004153,0.000000,0.000000,0.000000,0.000000,0.020468,500000.000000,90.020465,0.956466,0.000000,0.000000,0.000000,0.000000,0.000000,0.000000,1013.250000,-0.000000,25.500000,992,1500,1500,1500,992,1499.863095,1499.726429,1499.915578
0.332400,6871392.533640,2531.618175,0.000000,1.866253,1.547754,0.959174,124.643472,7611.229632,-244.632971,0.037904,0.023002,0.003678,0.000000,0.000000,0.000000,0.000000,0.021109,500000.000000,90.021106,0.959174,0.000000,0.000000,0.000000,0.000000,0.000000,0.000000,1013.250000,-0.000000,25.500000,992,1500,1500,1500,992,1499.869842,1499.743845,1499.925235
0.342500,6871392.504868,2608.541587,0.000000,1.887708,1.560565,0.961600,124.879831,7611.134735,-247.448700,0.036036,0.021539,0.003258,0.000000,0.000000,0.000000,0.000000,0.021751,500000.000000,90.021748,0.961600,0.000000,0.000000,0.000000,0.000000,0.000000,0.000000,1013.250000,-0.000000,25.500000,992,1500,1500,1500,992,1499.876257,1499.760150,1499.933787
0.352600,6871392.475236,2685.465000,0.000000,1.908103,1.572563,0.963775,125.082805,7611.043884,-250.126122,0.034261,0.020169,0.002885,0.000000,0.000000,0.000000,0.000000,0.022392,500000.000000,90.022389,0.963775,0.000000,0.000000,0.000000,0.000000,0.000000,0.000000,1013.250000,-0.000000,25.500000,992,1500,1500,1500,992,1499.882355,1499.775417,1499.941362
0.362700,6871392.444742,2762.388412,0.000000,1.927491,1.583801,0.965725,125.255999,7610.956942,-252.672039,0.032572,0.018886,0.002555,0.000000,0.000000,0.000000,0.000000,0.023034,500000.000000,90.023030,0.965725,0.000000,0.000000,0.000000,0.000000,0.000000,0.000000,1013.250000,-0.000000,25.500000,992,1500,1500,1500,992,1499.888153,1499.789710,1499.948069
0.372800,6871392.413388,2839.311823,0.000000,1.945920,1.594325,0.967475,125.402619,7610.873772,-255.092919,0.030967,0.017685,0.002263,0.000000,0.000000,0.000000,0.000000,0.023675,500000.000000,90.023672,0.967475,0.000000,0.000000,0.000000,0.000000,0.000000,0.000000,1013.250000,-0.000000,25.500000,992,1500,1500,1500,992,1499.893665,1499.803093,1499.954010
0.382900,6871392.381172,2916.235234,0.000000,1.963439,1.604183,0.969046,125.525517,7610.794242,-257.394911,0.029441,0.016560,0.002004,0.000000,0.000000,0.000000,0.000000,0.024316,500000.000000,90.024313,0.969046,0.000000,0.000000,0.000000,0.000000,0.000000,0.000000,1013.250000,-0.000000,25.500000,992,1500,1500,1500,992,1499.898905,1499.815623,1499.959270
0.393000,6871392.348095,2993.158645,0.000000,1.980092,1.613415,0.970457,125.627230,7610.718219,-259.583860,0.027990,0.015507,0.001775,0.000000,0.000000,0.000000,0.000000,0.024958,500000.000000,90.024955,0.970457,0.000000,0.000000,0.000000,0.000000,0.000000,0.000000,1013.250000,-0.000000,25.500000,992,1500,1500,1500,992,1499.903887,1499.827356,1499.963930
0.403100,6871392.314156,3070.082056,0.000000,1.995923,1.622061,0.971726,125.710016,7610.645573,-261.665323,0.026610,0.014521,0.001572,0.000000,0.000000,0.000000,0.000000,0.025599,500000.000000,90.025596,0.971726,0.000000,0.000000,0.000000,0.000000,0.000000,0.000000,1013.250000,-0.000000,25.500000,992,1500,1500,1500,992,1499.908624,1499.838341,1499.968056
0.413200,6871392.279357,3147.005466,0.000000,2.010971,1.630159,0.972867,125.775886,7610.576177,-263.644585,0.025299,0.013597,0.001392,0.000000,0.000000,0.000000,0.000000,0.026241,500000.000000,90.026237,0.972867,0.000000,0.000000,0.000000,0.000000,0.000000,0.000000,1013.250000,-0.000000,25.500000,992,1500,1500,1500,992,1499.913127,1499.848627,1499.971710
0.423300,6871392.243697,3223.928876,0.000000,2.025277,1.637743,0.973894,125.826629,7610.509907,-265.526669,0.024052,0.012732,0.001233,0.000000,0.000000,0.000000,0.000000,0.026882,500000.000000,90.026879,0.973894,0.000000,0.000000,0.000000,0.000000,0.000000,0.000000,1013.250000,-0.000000,25.500000,992,1500,1500,1500,992,1499.917409,1499.858258,1499.974946
0.433400,6871392.207175,3300.852285,0.000000,2.038876,1.644846,0.974818,125.863840,7610.446640,-267.316353,0.022867,0.011923,0.001092,0.000000,0.000000,0.000000,0.000000,0.027524,500000.000000,90.027520,0.974818,0.000000,0.000000,0.000000,0.000000,0.000000,0.000000,1013.250000,-0.000000,25.500000,992,1500,1500,1500,992,1499.921479,1499.867276,1499.977812
0.443500,6871392.169792,3377.775694,0.000000,2.051804,1.651498,0.975652,125.888938,7610.386258,-269.018176,0.021740,0.011164,0.000967,0.000000,0.000000,0.000000,0.000000,0.028165,500000.000000,90.028162,0.975652,0.000000,0.000000,0.000000,0.000000,0.000000,0.000000,1013.250000,-0.000000,25.500000,992,1500,1500,1500,992,1499.925349,1499.875719,1499.980350
0.453600,6871392.131549,3454.699102,0.000000,2.064094,1.657728,0.976404,125.903191,7610.328645,-270.636459,0.020669,0.010454,0.000857,0.000000,0.000000,0.000000,0.000000,0.028806,500000.000000,90.028803,0.976404,0.000000,0.000000,0.000000,0.000000,0.000000,0.000000,1013.250000,-0.000000,25.500000,992,1500,1500,1500,992,1499.929028,1499.883626,1499.982598
0.463700,6871392.092444,3531.622511,0.000000,2.075777,1.663563,0.977082,125.907726,7610.273690,-272.175306,0.019650,0.009789,0.000759,0.000000,0.000000,0.000000,0.000000,0.029448,500000.000000,90.029445,0.977082,0.000000,0.000000,0.000000,0.000000,0.000000,0.000000,1013.250000,-0.000000,25.500000,992,1500,1500,1500,992,1499.932525,1499.891029,1499.984589
0.473800,6871392.052477,3608.545918,0.000000,2.086884,1.669027,0.977694,125.903551,7610.221284,-273.638623,0.018682,0.009167,0.000672,0.000000,0.000000,0.000000,0.000000,0.030089,500000.000000,90.030086,0.977694,0.000000,0.000000,0.000000,0.000000,0.000000,0.000000,1013.250000,-0.000000,25.500000,992,1500,1500,1500,992,1499.935850,1499.897961,1499.986352
0.483900,6871392.011650,3685.469325,0.000000,2.097442,1.674144,0.978248,125.891562,7610.171321,-275.030121,0.017761,0.008584,0.000595,0.000000,0.000000,0.000000,0.000000,0.030731,500000.000000,90.030727,0.978248,0.000000,0.000000,0.000000,0.000000,0.000000,0.000000,1013.250000,-0.000000,25.500000,992,1500,1500,1500,992,1499.939012,1499.904452,1499.987913
0.494000,6871391.969962,3762.392732,0.000000,2.107479,1.678937,0.978749,125.872563,7610.123700,-276.353329,0.016886,0.008038,0.000527,0.000000,0.000000,0.000000,0.000000,0.031372,500000.000000,90.031369,0.978749,0.000000,0.000000,0.000000,0.000000,0.000000,0.000000,1013.250000,-0.000000,25.500000,992,1500,1500,1500,992,1499.942018,1499.910530,1499.989296
0.504100,6871391.927412,3839.316138,0.000000,2.117021,1.683425,0.979202,125.847268,7610.078321,-277.611605,0.016053,0.007527,0.000467,0.000000,0.000000,0.000000,0.000000,0.032013,500000.000000,90.032010,0.979202,0.000000,0.000000,0.000000,0.000000,0.000000,0.000000,1013.250000,-0.000000,25.500000,992,1500,1500,1500,992,1499.944875,1499.916222,1499.990520
0.514200,6871391.884002,3916.239544,0.000000,2.126092,1.687628,0.979613,125.816317,7610.035090,-278.808140,0.015262,0.007048,0.000414,0.000000,0.000000,0.000000,0.000000,0.032655,500000.000000,90.032652,0.979613,0.000000,0.000000,0.000000,0.000000,0.000000,0.000000,1013.250000,-0.000000,25.500000,992,1500,1500,1500,992,1499.947592,1499.921551,1499.991605
0.524300,6871391.839730,3993.162949,0.000000,2.134716,1.691565,0.979985,125.780280,7609.993914,-279.945967,0.014510,0.006600,0.000366,0.000000,0.000000,0.000000,0.000000,0.033296,500000.000000,90.033293,0.979985,0.000000,0.000000,0.000000,0.000000,0.000000,0.000000,1013.250000,-0.000000,25.500000,992,1500,1500,1500,992,1499.950174,1499.926541,1499.992565
0.534400,6871391.794597,4070.086354,0.000000,2.142914,1.695251,0.980322,125.739670,7609.954705,-281.027973,0.013795,0.006180,0.000324,0.000000,0.000000,0.000000,0.000000,0.033938,500000.000000,90.033934,0.980322,0.000000,0.000000,0.000000,0.000000,0.000000,0.000000,1013.250000,-0.000000,25.500000,992,1500,1500,1500,992,1499.952630,1499.931213,1499.993415
0.544500,6871391.748603,4147.009758,0.000000,2.150708,1.698703,0.980629,125.694941,7609.917377,-282.056902,0.013115,0.005787,0.000287,0.000000,0.000000,0.000000,0.000000,0.034579,500000.000000,90.034576,0.980629,0.000000,0.000000,0.000000,0.000000,0.000000,0.000000,1013.250000,-0.000000,25.500000,992,1500,1500,1500,992,1499.954965,1499.935589,1499.994169
0.554600,6871391.701748,4223.933162,0.000000,2.158117,1.701936,0.980907,125.646504,7609.881848,-283.035361,0.012469,0.005419,0.000254,0.000000,0.000000,0.000000,0.000000,0.035220,500000.000001,90.035217,0.980907,0.000000,0.000000,0.000000,0.000000,0.000000,0.000000,1013.250000,-0.000000,25.500000,992,1500,1500,1500,992,1499.957184,1499.939686,1499.994836
0.564700,6871391.654031,4300.856565,0.000000,2.165161,1.704964,0.981160,125.594723,7609.848038,-283.965832,0.011854,0.005074,0.000225,0.000000,0.000000,0.000000,0.000000,0.035862,500000.000001,90.035859,0.981160,0.000000,0.000000,0.000000,0.000000,0.000000,0.000000,1013.250000,-0.000000,25.500000,992,1500,1500,1500,992,1499.959294,1499.943522,1499.995427
0.574800,6871391.605454,4377.779968,0.000000,2.171857,1.707799,0.981390,125.539927,7609.815872,-284.850673,0.011270,0.004751,0.000200,0.000000,0.000000,0.000000,0.000000,0.036503,500000.000001,90.036500,0.981390,0.000000,0.000000,0.000000,0.000000,0.000000,0.000000,1013.250000,-0.000000,25.500000,992,1500,1500,1500,992,1499.961300,1499.947115,1499.995950
0.584900,6871391.556015,4454.703370,0.000000,2.178224,1.710454,0.981600,125.482410,7609.785277,-285.692127,0.010715,0.004449,0.000177,0.000000,0.000000,0.000000,0.000000,0.037145,500000.000001,90.037141,0.981600,0.000000,0.000000,0.000000,0.000000,0.000000,0.000000,1013.250000,-0.000000,25.500000,992,1500,1500,1500,992,1499.963207,1499.950478,1499.996413
0.595000,6871391.505715,4531.626772,0.000000,2.184276,1.712940,0.981791,125.422434,7609.756182,-286.492328,0.010187,0.004166,0.000157,0.000000,0.000000,0.000000,0.000000,0.037786,500000.000001,90.037783,0.981791,0.000000,0.000000,0.000000,0.000000,0.000000,0.000000,1013.250000,-0.000000,25.500000,992,1500,1500,1500,992,1499.965021,1499.953628,1499.996823
0.605100,6871391.454554,4608.550172,0.000000,2.190029,1.715269,0.981966,125.360236,7609.728520,-287.253302,0.009685,0.003901,0.000139,0.000000,0.000000,0.000000,0.000000,0.038428,500000.000001,90.038424,0.981966,0.000000,0.000000,0.000000,0.000000,0.000000,0.000000,1013.250000,-0.000000,25.500000,992,1500,1500,1500,992,1499.966744,1499.956578,1499.997187
0.615200,6871391.402532,4685.473573,0.000000,2.195499,1.717449,0.982125,125.296027,7609.702225,-287.976979,0.009207,0.003653,0.000123,0.000000,0.000000,0.000000,0.000000,0.039069,500000.000001,90.039066,0.982125,0.000000,0.000000,0.000000,0.000000,0.000000,0.000000,1013.250000,-0.000000,25.500000,992,1500,1500,1500,992,1499.968383,1499.959340,1499.997509
0.625300,6871391.349649,4762.396973,0.000000,2.200699,1.719491,0.982270,125.229999,7609.677237,-288.665191,0.008754,0.003421,0.000109,0.000000,0.000000,0.000000,0.000000,0.039710,500000.000001,90.039707,0.982270,0.000000,0.000000,0.000000,0.000000,0.000000,0.000000,1013.250000,-0.000000,25.500000,992,1500,1500,1500,992,1499.969941,1499.961926,1499.997794
0.635400,6871391.295905,4839.320372,0.000000,2.205643,1.721404,0.982403,125.162323,7609.653495,-289.319683,0.008322,0.003203,0.000096,0.000000,0.000000,0.000000,0.000000,0.040352,500000.000001,90.040349,0.982403,0.000000,0.000000,0.000000,0.000000,0.000000,0.000000,1013.250000,-0.000000,25.500000,992,1500,1500,1500,992,1499.971423,1499.964347,1499.998046
0.645500,6871391.241299,4916.243771,0.000000,2.210343,1.723194,0.982525,125.093152,7609.630942,-289.942111,0.007912,0.002999,0.000085,0.000000,0.000000,0.000000,0.000000,0.040993,500000.000001,90.040990,0.982525,0.000000,0.000000,0.000000,0.000000,0.000000,0.000000,1013.250000,-0.000000,25.500000,992,1500,1500,1500,992,1499.972831,1499.966615,1499.998270
0.655600,6871391.185833,4993.167169,0.000000,2.214811,1.724871,0.982636,125.022625,7609.609523,-290.534053,0.007522,0.002809,0.000076,0.000000,0.000000,0.000000,0.000000,0.041635,500000.000001,90.041631,0.982636,0.000000,0.000000,0.000000,0.000000,0.000000,0.000000,1013.250000,-0.000000,25.500000,992,1500,1500,1500,992,1499.974170,1499.968738,1499.998468
0.665700,6871391.129505,5070.090566,0.000000,2.219059,1.726442,0.982738,124.950867,7609.589188,-291.097007,0.007151,0.002630,0.000067,0.000000,0.000000,0.000000,0.000000,0.042276,500000.000001,90.042273,0.982738,0.000000,0.000000,0.000000,0.000000,0.000000,0.000000,1013.250000,-0.000000,25.500000,992,1500,1500,1500,992,1499.975443,1499.970727,1499.998643
0.675800,6871391.072316,5147.013963,0.000000,2.223098,1.727912,0.982832,124.877990,7609.569884,-291.632399,0.006799,0.002463,0.000059,0.000000,0.000000,0.000000,0.000000,0.042917,500000.000001,90.042914,0.982832,0.000000,0.000000,0.000000,0.000000,0.000000,0.000000,1013.250000,-0.000000,25.500000,992,1500,1500,1500,992,1499.976653,1499.972589,1499.998798
0.685900,6871391.014266,5223.937359,0.000000,2.226937,1.729289,0.982918,124.804095,7609.551565,-292.141583,0.006464,0.002306,0.000052,0.000000,0.000000,0.000000,0.000000,0.043559,500000.000001,90.043556,0.982918,0.000000,0.000000,0.000000,0.000000,0.000000,0.000000,1013.250000,-0.000000,25.500000,992,1500,1500,1500,992,1499.977804,1499.974332,1499.998936
0.696000,6871390.955355,5300.860754,0.000000,2.230587,1.730579,0.982997,124.729274,7609.534185,-292.625848,0.006145,0.002159,0.000046,0.000000,0.000000,0.000000,0.000000,0.044200,500000.000001,90.044197,0.982997,0.000000,0.000000,0.000000,0.000000,0.000000,0.000000,1013.250000,-0.000000,25.500000,992,1500,1500,1500,992,1499.978898,1499.975965,1499.999057
0.706100,6871390.895583,5377.784149,0.000000,2.234057,1.731786,0.983069,124.653610,7609.517700,-293.086420,0.005843,0.002022,0.000041,0.000000,0.000000,0.000000,0.000000,0.044842,500000.000001,90.044838,0.983069,0.000000,0.000000,0.000000,0.000000,0.000000,0.000000,1013.250000,-0.000000,25.500000,992,1500,1500,1500,992,1499.979938,1499.977493,1499.999165
0.716200,6871390.834949,5454.707543,0.000000,2.237356,1.732917,0.983136,124.577177,7609.502067,-293.524464,0.005555,0.001894,0.000036,0.000000,0.000000,0.000000,0.000000,0.045483,500000.000001,90.045480,0.983136,0.000000,0.000000,0.000000,0.000000,0.000000,0.000000,1013.250000,-0.000000,25.500000,992,1500,1500,1500,992,1499.980926,1499.978925,1499.999261
0.726300,6871390.773455,5531.630937,0.000000,2.240493,1.733976,0.983197,124.500042,7609.487247,-293.941087,0.005281,0.001773,0.000032,0.000000,0.000000,0.000000,0.000000,0.046124,500000.000001,90.046121,0.983197,0.000000,0.000000,0.000000,0.000000,0.000000,0.000000,1013.250000,-0.000000,25.500000,992,1500,1500,1500,992,1499.981866,1499.980265,1499.999345
0.736400,6871390.711099,5608.554329,0.000000,2.243474,1.734968,0.983253,124.422267,7609.473203,-294.337342,0.005021,0.001660,0.000029,0.000000,0.000000,0.000000,0.000000,0.046766,500000.000001,90.046763,0.983253,0.000000,0.000000,0.000000,0.000000,0.000000,0.000000,1013.250000,-0.000000,25.500000,992,1500,1500,1500,992,1499.982760,1499.981520,1499.999420
0.746500,6871390.647882,5685.477721,0.000000,2.246309,1.735896,0.983305,124.343907,7609.459896,-294.714233,0.004773,0.001555,0.000025,0.000000,0.000000,0.000000,0.000000,0.047407,500000.000001,90.047404,0.983305,0.000000,0.000000,0.000000,0.000000,0.000000,0.000000,1013.250000,-0.000000,25.500000,992,1500,1500,1500,992,1499.983610,1499.982696,1499.999487
0.756600,6871390.583804,5762.401113,0.000000,2.249004,1.736766,0.983353,124.265012,7609.447292,-295.072709,0.004538,0.001456,0.000022,0.000000,0.000000,0.000000,0.000000,0.048049,500000.000001,90.048045,0.983353,0.000000,0.000000,0.000000,0.000000,0.000000,0.000000,1013.250000,-0.000000,25.500000,992,1500,1500,1500,992,1499.984417,1499.983796,1499.999545
0.766700,6871390.518865,5839.324503,0.000000,2.251566,1.737580,0.983398,124.185626,7609.435359,-295.413678,0.004314,0.001363,0.000020,0.000000,0.000000,0.000000,0.000000,0.048690,500000.000001,90.048687,0.983398,0.000000,0.000000,0.000000,0.000000,0.000000,0.000000,1013.250000,-0.000000,25.500000,992,1500,1500,1500,992,1499.985185,1499.984827,1499.999597
0.776800,6871390.453065,5916.247893,0.000000,2.254002,1.738343,0.983439,124.105793,7609.424064,-295.738001,0.004102,0.001277,0.000018,0.000000,0.000000,0.000000,0.000000,0.049331,500000.000001,90.049328,0.983439,0.000000,0.000000,0.000000,0.000000,0.000000,0.000000,1013.250000,-0.000000,25.500000,992,1500,1500,1500,992,1499.985915,1499.985792,1499.999643
0.786900,6871390.386404,5993.171282,0.000000,2.256318,1.739057,0.983476,124.025548,7609.413376,-296.046496,0.003900,0.001195,0.000016,0.000000,0.000000,0.000000,0.000000,0.049973,500000.000001,90.049970,0.983476,0.000000,0.000000,0.000000,0.000000,0.000000,0.000000,1013.250000,-0.000000,25.500000,992,1500,1500,1500,992,1499.986610,1499.986696,1499.999684
0.797000,6871390.318881,6070.094671,0.000000,2.258519,1.739725,0.983511,123.944927,7609.403267,-296.339941,0.003707,0.001119,0.000014,0.000000,0.000000,0.000000,0.000000,0.050614,500000.000001,90.050611,0.983511,0.000000,0.000000,0.000000,0.000000,0.000000,0.000000,1013.250000,-0.000000,25.500000,992,1500,1500,1500,992,1499.987269,1499.987542,1499.999720
0.807100,6871390.250498,6147.018058,0.000000,2.260613,1.740352,0.983543,123.863960,7609.393710,-296.619077,0.003525,0.001048,0.000012,0.000000,0.000000,0.000000,0.000000,0.051256,500000.000001,90.051253,0.983543,0.000000,0.000000,0.000000,0.000000,0.000000,0.000000,1013.250000,-0.000000,25.500000,992,1500,1500,1500,992,1499.987897,1499.988334,1499.999752
0.817200,6871390.181253,6223.941445,0.000000,2.262602,1.740938,0.983573,123.782675,7609.384678,-296.884607,0.003351,0.000981,0.000011,0.000000,0.000000,0.000000,0.000000,0.051897,500000.000001,90.051894,0.983573,0.000000,0.000000,0.000000,0.000000,0.000000,0.000000,1013.250000,-0.000000,25.500000,992,1500,1500,1500,992,1499.988493,1499.989076,1499.999781
0.827300,6871390.111147,6300.864831,0.000000,2.264494,1.741487,0.983601,123.701097,7609.376145,-297.137201,0.003186,0.000919,0.000010,0.000000,0.000000,0.000000,0.000000,0.052539,500000.000001,90.052535,0.983601,0.000000,0.000000,0.000000,0.000000,0.000000,0.000000,1013.250000,-0.000000,25.500000,992,1500,1500,1500,992,1499.989060,1499.989771,1499.999806
0.837400,6871390.040180,6377.788216,0.000000,2.266293,1.742001,0.983626,123.619252,7609.368088,-297.377496,0.003029,0.000861,0.000008,0.000000,0.000000,0.000000,0.000000,0.053180,500000.000001,90.053177,0.983626,0.000000,0.000000,0.000000,0.000000,0.000000,0.000000,1013.250000,-0.000000,25.500000,992,1500,1500,1500,992,1499.989600,1499.990422,1499.999828
0.847500,6871389.968352,6454.711601,0.000000,2.268003,1.742483,0.983650,123.537159,7609.360484,-297.606095,0.002880,0.000806,0.000008,0.000000,0.000000,0.000000,0.000000,0.053821,500000.000001,90.053818,0.983650,0.000000,0.000000,0.000000,0.000000,0.000000,0.000000,1013.250000,-0.000000,25.500000,992,1500,1500,1500,992,1499.990112,1499.991031,1499.999848
0.857600,6871389.895662,6531.634984,-0.000000,2.269628,1.742933,0.983672,123.454838,7609.353311,-297.823575,0.002738,0.000755,0.000007,0.000000,0.000000,0.000000,0.000000,0.054463,500000.000001,90.054460,0.983672,0.000000,0.000000,0.000000,0.000000,0.000000,0.000000,1013.250000,0.000000,25.500000,992,1500,1500,1500,992,1499.990599,1499.991601,1499.999865
0.867700,6871389.822112,6608.558367,-0.000000,2.271174,1.743356,0.983692,123.372307,7609.346549,-298.030483,0.002603,0.000707,0.000006,0.000000,0.000000,0.000000,0.000000,0.055104,500000.000001,90.055101,0.983692,0.000000,0.000000,0.000000,0.000000,0.000000,0.000000,1013.250000,0.000000,25.500000,992,1500,1500,1500,992,1499.991063,1499.992135,1499.999881
0.877800,6871389.747700,6685.481749,-0.000000,2.272643,1.743751,0.983711,123.289583,7609.340177,-298.227338,0.002474,0.000662,0.000005,0.000000,0.000000,0.000000,0.000000,0.055746,500000.000001,90.055742,0.983711,0.000000,0.000000,0.000000,0.000000,0.000000,0.000000,1013.250000,0.000000,25.500000,992,1500,1500,1500,992,1499.991503,1499.992636,1499.999894
0.887900,6871389.672428,6762.405130,-0.000000,2.274040,1.744121,0.983729,123.206681,7609.334177,-298.414635,0.002353,0.000620,0.000005,0.000000,0.000000,0.000000,0.000000,0.056387,500000.000001,90.056384,0.983729,0.000000,0.000000,0.000000,0.000000,0.000000,0.000000,1013.250000,0.000000,25.500000,992,1500,1500,1500,992,1499.991922,1499.993104,1499.999906
0.898000,6871389.596294,6839.328511,-0.000000,2.275368,1.744468,0.983745,123.123613,7609.328530,-298.592845,0.002237,0.000580,0.000004,0.000000,0.000000,0.000000,0.000000,0.057028,500000.000001,90.057025,0.983745,0.000000,0.000000,0.000000,0.000000,0.000000,0.000000,1013.250000,0.000000,25.500000,992,1500,1500,1500,992,1499.992320,1499.993543,1499.999917
0.908100,6871389.519299,6916.251890,-0.000000,2.276631,1.744792,0.983760,123.040393,7609.323220,-298.762414,0.002126,0.000543,0.000004,0.000000,0.000000,0.000000,0.000000,0.057670,500000.000001,90.057667,0.983760,0.000000,0.000000,0.000000,0.000000,0.000000,0.000000,1013.250000,0.000000,25.500000,992,1500,1500,1500,992,1499.992698,1499.993953,1499.999926
0.918200,6871389.441443,6993.175269,-0.000000,2.277831,1.745096,0.983774,122.957033,7609.318231,-298.923768,0.002022,0.000509,0.000003,0.000000,0.000000,0.000000,0.000000,0.058311,500000.000001,90.058308,0.983774,0.000000,0.000000,0.000000,0.000000,0.000000,0.000000,1013.250000,0.000000,25.500000,992,1500,1500,1500,992,1499.993058,1499.994338,1499.999935
0.928300,6871389.362725,7070.098647,-0.000000,2.278972,1.745381,0.983788,122.873542,7609.313546,-299.077310,0.001922,0.000476,0.000003,0.000000,0.000000,0.000000,0.000000,0.058953,500000.000001,90.058949,0.983788,0.000000,0.000000,0.000000,0.000000,0.000000,0.000000,1013.250000,0.000000,25.500000,992,1500,1500,1500,992,1499.993400,1499.994698,1499.999942
0.938400,6871389.283147,7147.022023,-0.000000,2.280057,1.745647,0.983800,122.789931,7609.309152,-299.223426,0.001827,0.000446,0.000003,0.000000,0.000000,0.000000,0.000000,0.059594,500000.000001,90.059591,0.983800,0.000000,0.000000,0.000000,0.000000,0.000000,0.000000,1013.250000,0.000000,25.500000,992,1500,1500,1500,992,1499.993726,1499.995035,1499.999949
0.948500,6871389.202707,7223.945399,-0.000000,2.281089,1.745897,0.983811,122.706208,7609.305033,-299.362480,0.001737,0.000418,0.000002,0.000000,0.000000,0.000000,0.000000,0.060235,500000.000002,90.060232,0.983811,0.000000,0.000000,0.000000,0.000000,0.000000,0.000000,1013.250000,0.000000,25.500000,992,1500,1500,1500,992,1499.994035,1499.995351,1499.999955
0.958600,6871389.121407,7300.868774,-0.000000,2.282069,1.746131,0.983822,122.622382,7609.301177,-299.494820,0.001652,0.000391,0.000002,0.000000,0.000000,0.000000,0.000000,0.060877,500000.000002,90.060874,0.983822,0.000000,0.000000,0.000000,0.000000,0.000000,0.000000,1013.250000,0.000000,25.500000,992,1500,1500,1500,992,1499.994329,1499.995647,1499.999960
0.968700,6871389.039245,7377.792148,-0.000000,2.283001,1.746350,0.983831,122.538460,7609.297570,-299.620777,0.001570,0.000366,0.000002,0.000000,0.000000,0.000000,0.000000,0.061518,500000.000002,90.061515,0.983831,0.000000,0.000000,0.000000,0.000000,0.000000,0.000000,1013.250000,0.000000,25.500000,992,1500,1500,1500,992,1499.994608,1499.995924,1499.999965
0.978800,6871388.956222,7454.715522,-0.000000,2.283888,1.746555,0.983840,122.454449,7609.294201,-299.740663,0.001493,0.000343,0.000002,0.000000,0.000000,0.000000,0.000000,0.062160,500000.000002,90.062157,0.983840,0.000000,0.000000,0.000000,0.000000,0.000000,0.000000,1013.250000,0.000000,25.500000,992,1500,1500,1500,992,1499.994874,1499.996183,1499.999969
0.988900,6871388.872338,7531.638894,-0.000000,2.284730,1.746746,0.983849,122.370356,7609.291058,-299.854780,0.001419,0.000321,0.000001,0.000000,0.000000,0.000000,0.000000,0.062801,500000.000002,90.062798,0.983849,0.000000,0.000000,0.000000,0.000000,0.000000,0.000000,1013.250000,0.000000,25.500000,992,1500,1500,1500,992,1499.995127,1499.996426,1499.999972
0.999000,6871388.787593,7608.562265,-0.000000,2.285532,1.746926,0.983857,122.286187,7609.288129,-299.963409,0.001349,0.000301,0.000001,0.000000,0.000000,0.000000,0.000000,0.063443,500000.000002,90.063439,0.983857,0.000000,0.000000,0.000000,0.000000,0.000000,0.000000,1013.250000,0.000000,25.500000,992,1500,1500,1500,992,1499.995367,1499.996653,1499.999975
1.009100,6871388.701986,7685.485636,-0.000000,2.286293,1.747094,0.983864,122.201946,7609.285405,-300.066821,0.001283,0.000282,0.000001,0.000000,0.000000,0.000000,0.000000,0.064084,500000.000002,90.064081,0.983864,0.000000,0.000000,0.000000,0.000000,0.000000,0.000000,1013.250000,0.000000,25.500000,992,1500,1500,1500,992,1499.995595,1499.996866,1499.999978
1.019200,6871388.615519,7762.409005,-0.000000,2.287017,1.747252,0.983871,122.117640,7609.282876,-300.165273,0.001220,0.000264,0.000001,0.000000,0.000000,0.000000,0.000000,0.064725,500000.000002,90.064722,0.983871,0.000000,0.000000,0.000000,0.000000,0.000000,0.000000,1013.250000,0.000000,25.500000,992,1500,1500,1500,992,1499.995812,1499.997065,1499.999981
1.029300,6871388.528190,7839.332373,-0.000000,2.287706,1.747400,0.983878,122.033273,7609.280531,-300.259009,0.001159,0.000247,0.000001,0.000000,0.000000,0.000000,0.000000,0.065367,500000.000002,90.065364,0.983878,0.000000,0.000000,0.000000,0.000000,0.000000,0.000000,1013.250000,0.000000,25.500000,992,1500,1500,1500,992,1499.996019,1499.997252,1499.999983
1.039400,6871388.440000,7916.255741,-0.000000,2.288360,1.747538,0.983884,121.948848,7609.278362,-300.348261,0.001102,0.000231,0.000001,0.000000,0.000000,0.000000,0.000000,0.066008,500000.000002,90.066005,0.983884,0.000000,0.000000,0.000000,0.000000,0.000000,0.000000,1013.250000,0.000000,25.500000,992,1500,1500,1500,992,1499.996215,1499.997427,1499.999985
1.049500,6871388.350949,7993.179107,-0.000000,2.288982,1.747667,0.983889,121.864371,7609.276360,-300.433250,0.001048,0.000217,0.000001,0.000000,0.000000,0.000000,0.000000,0.066650,500000.000002,90.066646,0.983889,0.000000,0.000000,0.000000,0.000000,0.000000,0.000000,1013.250000,0.000000,25.500000,992,1500,1500,1500,992,1499.996401,1499.997590,1499.999987
1.059600,6871388.261037,8070.102473,-0.000000,2.289574,1.747788,0.983894,121.779844,7609.274518,-300.514186,0.000996,0.000203,0.000001,0.000000,0.000000,0.000000,0.000000,0.067291,500000.000002,90.067288,0.983894,0.000000,0.000000,0.000000,0.000000,0.000000,0.000000,1013.250000,0.000000,25.500000,992,1500,1500,1500,992,1499.996579,1499.997744,1499.999988
1.069700,6871388.170264,8147.025837,-0.000000,2.290136,1.747902,0.983899,121.695272,7609.272826,-300.591267,0.000947,0.000190,0.000001,0.000000,0.000000,0.000000,0.000000,0.067932,500000.000002,90.067929,0.983899,0.000000,0.000000,0.000000,0.000000,0.000000,0.000000,1013.250000,0.000000,25.500000,992,1500,1500,1500,992,1499.996747,1499.997887,1499.999989
1.079800,6871388.078630,8223.949201,-0.000000,2.290671,1.748008,0.983904,121.610657,7609.271278,-300.664685,0.000901,0.000178,0.000000,0.000000,0.000000,0.000000,0.000000,0.068574,500000.000002,90.068571,0.983904,0.000000,0.000000,0.000000,0.000000,0.000000,0.000000,1013.250000,0.000000,25.500000,992,1500,1500,1500,992,1499.996908,1499.998021,1499.999991
1.089900,6871387.986134,8300.872563,-0.000000,2.291179,1.748107,0.983908,121.526002,7609.269867,-300.734618,0.000856,0.000166,0.000000,0.000000,0.000000,0.000000,0.000000,0.069215,500000.000002,90.069212,0.983908,0.000000,0.000000,0.000000,0.000000,0.000000,0.000000,1013.250000,0.000000,25.500000,992,1500,1500,1500,992,1499.997060,1499.998147,1499.999992
1.100000,6871387.892778,8377.795924,-0.000000,2.291663,1.748201,0.983912,121.441311,7609.268586,-300.801239,0.000814,0.000156,0.000000,0.000000,0.000000,0.000000,0.000000,0.069857,500000.000002,90.069853,0.983912,0.000000,0.000000,0.000000,0.000000,0.000000,0.000000,1013.250000,0.000000,25.500000,992,1500,1500,1500,992,1499.997205,1499.998265,1499.999993
1.110100,6871387.798560,8454.719285,-0.000000,2.292122,1.748288,0.983916,121.356585,7609.267428,-300.864710,0.000774,0.000146,0.000000,0.000000,0.000000,0.000000,0.000000,0.070498,500000.000002,90.070495,0.983916,0.000000,0.000000,0.000000,0.000000,0.000000,0.000000,1013.250000,0.000000,25.500000,992,1500,1500,1500,992,1499.997343,1499.998375,1499.999994
1.120200,6871387.703481,8531.642644,-0.000000,2.292559,1.748369,0.983919,121.271827,7609.266388,-300.925187,0.000736,0.000137,0.000000,0.000000,0.000000,0.000000,0.000000,0.071139,500000.000002,90.071136,0.983919,0.000000,0.000000,0.000000,0.000000,0.000000,0.000000,1013.250000,0.000000,25.500000,992,1500,1500,1500,992,1499.997474,1499.998479,1499.999994
1.130300,6871387.607541,8608.566002,-0.000000,2.292974,1.748446,0.983922,121.187039,7609.265460,-300.982817,0.000699,0.000128,0.000000,0.000000,0.000000,0.000000,0.000000,0.071781,500000.000002,90.071778,0.983922,0.000000,0.000000,0.000000,0.000000,0.000000,0.000000,1013.250000,0.000000,25.500000,992,1500,1500,1500,992,1499.997598,1499.998576,1499.999995
1.140400,6871387.510740,8685.489359,-0.000000,2.293369,1.748518,0.983925,121.102223,7609.264637,-301.037740,0.000665,0.000120,0.000000,0.000000,0.000000,0.000000,0.000000,0.072422,500000.000002,90.072419,0.983925,0.000000,0.000000,0.000000,0.000000,0.000000,0.000000,1013.250000,0.000000,25.500000,992,1500,1500,1500,992,1499.997716,1499.998666,1499.999996
1.150500,6871387.413078,8762.412715,-0.000000,2.293744,1.748585,0.983928,121.017381,7609.263916,-301.090090,0.000632,0.000112,0.000000,0.000000,0.000000,0.000000,0.000000,0.073064,500000.000002,90.073060,0.983928,0.000000,0.000000,0.000000,0.000000,0.000000,0.000000,1013.250000,0.000000,25.500000,992,1500,1500,1500,992,1499.997829,1499.998751,1499.999996
1.160600,6871387.314554,8839.336070,-0.000000,2.294101,1.748647,0.983931,120.932515,7609.263291,-301.139992,0.000601,0.000105,0.000000,0.000000,0.000000,0.000000,0.000000,0.073705,500000.000002,90.073702,0.983931,0.000000,0.000000,0.000000,0.000000,0.000000,0.000000,1013.250000,0.000000,25.500000,992,1500,1500,1500,992,1499.997936,1499.998830,1499.999996
1.170700,6871387.215170,8916.259424,-0.000000,2.294440,1.748706,0.983933,120.847626,7609.262756,-301.187568,0.000571,0.000098,0.000000,0.000000,0.000000,0.000000,0.000000,0.074347,500000.000002,90.074343,0.983933,0.000000,0.000000,0.000000,0.000000,0.000000,0.000000,1013.250000,0.000000,25.500000,992,1500,1500,1500,992,1499.998038,1499.998905,1499.999997
1.180800,6871387.114924,8993.182777,-0.000000,2.294763,1.748761,0.983935,120.762717,7609.262308,-301.232933,0.000543,0.000092,0.000000,0.000000,0.000000,0.000000,0.000000,0.074988,500000.000002,90.074985,0.983935,0.000000,0.000000,0.000000,0.000000,0.000000,0.000000,1013.250000,0.000000,25.500000,992,1500,1500,1500,992,1499.998134,1499.998974,1499.999997
1.190900,6871387.013817,9070.106128,-0.000000,2.295070,1.748813,0.983938,120.677787,7609.261943,-301.276194,0.000517,0.000086,0.000000,0.000000,0.000000,0.000000,0.000000,0.075629,500000.000002,90.075626,0.983938,0.000000,0.000000,0.000000,0.000000,0.000000,0.000000,1013.250000,0.000000,25.500000,992,1500,1500,1500,992,1499.998226,1499.999040,1499.999998
1.201000,6871386.911849,9147.029479,-0.000000,2.295361,1.748861,0.983940,120.592840,7609.261656,-301.317455,0.000491,0.000081,0.000000,0.000000,0.000000,0.000000,0.000000,0.076271,500000.000002,90.076268,0.983940,0.000000,0.000000,0.000000,0.000000,0.000000,0.000000,1013.250000,0.000000,25.500000,992,1500,1500,1500,992,1499.998314,1499.999101,1499.999998
1.211100,6871386.809020,9223.952828,-0.000000,2.295638,1.748906,0.983942,120.507875,7609.261443,-301.356815,0.000467,0.000076,0.000000,0.000000,0.000000,0.000000,0.000000,0.076912,500000.000002,90.076909,0.983942,0.000000,0.000000,0.000000,0.000000,0.000000,0.000000,1013.250000,0.000000,25.500000,992,1500,1500,1500,992,1499.998397,1499.999158,1499.999998
1.221200,6871386.705330,9300.876176,-0.000000,2.295902,1.748949,0.983943,120.422894,7609.261301,-301.394368,0.000444,0.000071,0.000000,0.000000,0.000000,0.000000,0.000000,0.077554,500000.000002,90.077550,0.983943,0.000000,0.000000,0.000000,0.000000,0.000000,0.000000,1013.250000,0.000000,25.500000,992,1500,1500,1500,992,1499.998476,1499.999211,1499.999998
1.231300,6871386.600779,9377.799523,-0.000000,2.296152,1.748988,0.983945,120.337898,7609.261227,-301.430203,0.000422,0.000066,0.000000,0.000000,0.000000,0.000000,0.000000,0.078195,500000.000003,90.078192,0.983945,0.000000,0.000000,0.000000,0.000000,0.000000,0.000000,1013.250000,0.000000,25.500000,992,1500,1500,1500,992,1499.998551,1499.999262,1499.999998
1.241400,6871386.495366,9454.722869,-0.000000,2.296391,1.749025,0.983946,120.252888,7609.261216,-301.464403,0.000401,0.000062,0.000000,0.000000,0.000000,0.000000,0.000000,0.078836,500000.000003,90.078833,0.983946,0.000000,0.000000,0.000000,0.000000,0.000000,0.000000,1013.250000,0.000000,25.500000,992,1500,1500,1500,992,1499.998622,1499.999309,1499.999999
1.251500,6871386.389092,9531.646213,-0.000000,2.296617,1.749060,0.983948,120.167865,7609.261265,-301.497050,0.000381,0.000058,0.000000,0.000000,0.000000,0.000000,0.000000,0.079478,500000.000003,90.079475,0.983948,0.000000,0.000000,0.000000,0.000000,0.000000,0.000000,1013.250000,0.000000,25.500000,992,1500,1500,1500,992,1499.998690,1499.999353,1499.999999
1.261600,6871386.281958,9608.569557,-0.000000,2.296832,1.749093,0.983949,120.082830,7609.261373,-301.528220,0.000363,0.000054,0.000000,0.000000,0.000000,0.000000,0.000000,0.080119,500000.000003,90.080116,0.983949,0.000000,0.000000,0.000000,0.000000,0.000000,0.000000,1013.250000,0.000000,25.500000,992,1500,1500,1500,992,1499.998755,1499.999394,1499.999999
1.271700,6871386.173962,9685.492899,-0.000000,2.297037,1.749123,0.983950,119.997784,7609.261535,-301.557985,0.000345,0.000051,0.000000,0.000000,0.000000,0.000000,0.000000,0.080761,500000.000003,90.080757,0.983950,0.000000,0.000000,0.000000,0.000000,0.000000,0.000000,1013.250000,0.000000,25.500000,992,1500,1500,1500,992,1499.998816,1499.999432,1499.999999
1.281800,6871386.065105,9762.416240,-0.000000,2.297231,1.749152,0.983952,119.912726,7609.261749,-301.586416,0.000328,0.000048,0.000000,0.000000,0.000000,0.000000,0.000000,0.081402,500000.000003,90.081399,0.983952,0.000000,0.000000,0.000000,0.000000,0.000000,0.000000,1013.250000,0.000000,25.500000,992,1500,1500,1500,992,1499.998875,1499.999468,1499.999999
1.291900,6871385.955387,9839.339580,-0.000000,2.297416,1.749179,0.983953,119.827659,7609.262012,-301.613577,0.000312,0.000045,0.000000,0.000000,0.000000,0.000000,0.000000,0.082043,500000.000003,90.082040,0.983953,0.000000,0.000000,0.000000,0.000000,0.000000,0.000000,1013.250000,0.000000,25.500000,992,1500,1500,1500,992,1499.998930,1499.999502,1499.999999
1.302000,6871385.844807,9916.262918,-0.000000,2.297592,1.749204,0.983954,119.742583,7609.262323,-301.639531,0.000296,0.000042,0.000000,0.000000,0.000000,0.000000,0.000000,0.082685,500000.000003,90.082682,0.983954,0.000000,0.000000,0.000000,0.000000,0.000000,0.000000,1013.250000,0.000000,25.500000,992,1500,1500,1500,992,1499.998983,1499.999534,1499.999999
1.312100,6871385.733367,9993.186255,-0.000000,2.297760,1.749227,0.983955,119.657498,7609.262678,-301.664338,0.000282,0.000039,0.000000,0.000000,0.000000,0.000000,0.000000,0.083326,500000.000003,90.083323,0.983955,0.000000,0.000000,0.000000,0.000000,0.000000,0.000000,1013.250000,0.000000,25.500000,992,1500,1500,1500,992,1499.999033,1499.999564,1499.999999
1.322200,6871385.621065,10070.109591,-0.000000,2.297918,1.749249,0.983956,119.572405,7609.263075,-301.688053,0.000268,0.000037,0.000000,0.000000,0.000000,0.000000,0.000000,0.083968,500000.000003,90.083964,0.983956,0.000000,0.000000,0.000000,0.000000,0.000000,0.000000,1013.250000,0.000000,25.500000,992,1500,1500,1500,992,1499.999081,1499.999591,1499.999999
1.332300,6871385.507902,10147.032926,-0.000000,2.298070,1.749269,0.983956,119.487304,7609.263513,-301.710732,0.000255,0.000034,0.000000,0.000000,0.000000,0.000000,0.000000,0.084609,500000.000003,90.084606,0.983956,0.000000,0.000000,0.000000,0.000000,0.000000,0.000000,1013.250000,0.000000,25.500000,992,1500,1500,1500,992,1499.999126,1499.999617,1500.000000
1.342400,6871385.393879,10223.956260,-0.000000,2.298213,1.749289,0.983957,119.402196,7609.263989,-301.732424,0.000242,0.000032,0.000000,0.000000,0.000000,0.000000,0.000000,0.085251,500000.000003,90.085247,0.983957,0.000000,0.000000,0.000000,0.000000,0.000000,0.000000,1013.250000,0.000000,25.500000,992,1500,1500,1500,992,1499.999169,1499.999642,1500.000000
1.352500,6871385.278994,10300.879592,-0.000000,2.298350,1.749307,0.983958,119.317082,7609.264501,-301.753178,0.000230,0.000030,0.000000,0.000000,0.000000,0.000000,0.000000,0.085892,500000.000003,90.085889,0.983958,0.000000,0.000000,0.000000,0.000000,0.000000,0.000000,1013.250000,0.000000,25.500000,992,1500,1500,1500,992,1499.999210,1499.999664,1500.000000
1.362600,6871385.163248,10377.802923,-0.000000,2.298480,1.749324,0.983959,119.231961,7609.265048,-301.773041,0.000219,0.000028,0.000000,0.000000,0.000000,0.000000,0.000000,0.086533,500000.000003,90.086530,0.983959,0.000000,0.000000,0.000000,0.000000,0.000000,0.000000,1013.250000,0.000000,25.500000,992,1500,1500,1500,992,1499.999249,1499.999686,1500.000000
1.372700,6871385.046640,10454.726252,-0.000000,2.298603,1.749339,0.983959,119.146835,7609.265627,-301.792057,0.000208,0.000026,0.000000,0.000000,0.000000,0.000000,0.000000,0.087175,500000.000003,90.087172,0.983959,0.000000,0.000000,0.000000,0.000000,0.000000,0.000000,1013.250000,0.000000,25.500000,992,1500,1500,1500,992,1499.999286,1499.999706,1500.000000
1.382800,6871384.929172,10531.649581,-0.000000,2.298721,1.749354,0.983960,119.061703,7609.266237,-301.810266,0.000198,0.000025,0.000000,0.000000,0.000000,0.000000,0.000000,0.087816,500000.000003,90.087813,0.983960,0.000000,0.000000,0.000000,0.000000,0.000000,0.000000,1013.250000,0.000000,25.500000,992,1500,1500,1500,992,1499.999321,1499.999724,1500.000000
1.392900,6871384.810842,10608.572908,-0.000000,2.298832,1.749368,0.983960,118.976566,7609.266877,-301.827709,0.000188,0.000023,0.000000,0.000000,0.000000,0.000000,0.000000,0.088458,500000.000003,90.088454,0.983960,0.000000,0.000000,0.000000,0.000000,0.000000,0.000000,1013.250000,0.000000,25.500000,992,1500,1500,1500,992,1499.999355,1499.999742,1500.000000
1.403000,6871384.691652,10685.496233,-0.000000,2.298938,1.749381,0.983961,118.891424,7609.267545,-301.844424,0.000179,0.000022,0.000000,0.000000,0.000000,0.000000,0.000000,0.089099,500000.000003,90.089096,0.983961,0.000000,0.000000,0.000000,0.000000,0.000000,0.000000,1013.250000,0.000000,25.500000,992,1500,1500,1500,992,1499.999386,1499.999758,1500.000000
1.413100,6871384.571600,10762.419558,-0.000000,2.299039,1.749393,0.983961,118.806278,7609.268239,-301.860447,0.000170,0.000020,0.000000,0.000000,0.000000,0.000000,0.000000,0.089740,500000.000003,90.089737,0.983961,0.000000,0.000000,0.000000,0.000000,0.000000,0.000000,1013.250000,0.000000,25.500000,992,1500,1500,1500,992,1499.999417,1499.999774,1500.000000
1.423200,6871384.450687,10839.342881,-0.000000,2.299135,1.749405,0.983962,118.721127,7609.268958,-301.875811,0.000162,0.000019,0.000000,0.000000,0.000000,0.000000,0.000000,0.090382,500000.000003,90.090379,0.983962,0.000000,0.000000,0.000000,0.000000,0.000000,0.000000,1013.250000,0.000000,25.500000,992,1500,1500,1500,992,1499.999445,1499.999788,1500.000000
1.433300,6871384.328913,10916.266202,-0.000000,2.299226,1.749415,0.983962,118.635973,7609.269702,-301.890549,0.000154,0.000018,0.000000,0.000000,0.000000,0.000000,0.000000,0.091023,500000.000003,90.091020,0.983962,0.000000,0.000000,0.000000,0.000000,0.000000,0.000000,1013.250000,0.000000,25.500000,992,1500,1500,1500,992,1499.999473,1499.999802,1500.000000
1.443400,6871384.206278,10993.189522,-0.000000,2.299313,1.749425,0.983963,118.550815,7609.270468,-301.904691,0.000146,0.000017,0.000000,0.000000,0.000000,0.000000,0.000000,0.091665,500000.000003,90.091661,0.983963,0.000000,0.000000,0.000000,0.000000,0.000000,0.000000,1013.250000,0.000000,25.500000,992,1500,1500,1500,992,1499.999499,1499.999814,1500.000000
1.453500,6871384.082781,11070.112841,-0.000000,2.299395,1.749435,0.983963,118.465654,7609.271256,-301.918268,0.000139,0.000016,0.000000,0.000000,0.000000,0.000000,0.000000,0.092306,500000.000004,90.092303,0.983963,0.000000,0.000000,0.000000,0.000000,0.000000,0.000000,1013.250000,0.000000,25.500000,992,1500,1500,1500,992,1499.999523,1499.999826,1500.000000
1.463600,6871383.958424,11147.036159,-0.000000,2.299474,1.749443,0.983963,118.380489,7609.272064,-301.931307,0.000132,0.000015,0.000000,0.000000,0.000000,0.000000,0.000000,0.092947,500000.000004,90.092944,0.983963,0.000000,0.000000,0.000000,0.000000,0.000000,0.000000,1013.250000,0.000000,25.500000,992,1500,1500,1500,992,1499.999547,1499.999837,1500.000000
1.473700,6871383.833205,11223.959475,-0.000000,2.299548,1.749451,0.983964,118.295322,7609.272891,-301.943834,0.000125,0.000014,0.000000,0.000000,0.000000,0.000000,0.000000,0.093589,500000.000004,90.093586,0.983964,0.000000,0.000000,0.000000,0.000000,0.000000,0.000000,1013.250000,0.000000,25.500000,992,1500,1500,1500,992,1499.999569,1499.999847,1500.000000
1.483800,6871383.707125,11300.882790,-0.000000,2.299619,1.749459,0.983964,118.210152,7609.273737,-301.955875,0.000119,0.000013,0.000000,0.000000,0.000000,0.000000,0.000000,0.094230,500000.000004,90.094227,0.983964,0.000000,0.000000,0.000000,0.000000,0.000000,0.000000,1013.250000,0.000000,25.500000,992,1500,1500,1500,992,1499.999590,1499.999857,1500.000000
1.493900,6871383.580184,11377.806103,-0.000000,2.299686,1.749466,0.983964,118.124979,7609.274600,-301.967453,0.000113,0.000012,0.000000,0.000000,0.000000,0.000000,0.000000,0.094872,500000.000004,90.094868,0.983964,0.000000,0.000000,0.000000,0.000000,0.000000,0.000000,1013.250000,0.000000,25.500000,992,1500,1500,1500,992,1499.999611,1499.999866,1500.000000
1.504000,6871383.452382,11454.729415,-0.000000,2.299750,1.749473,0.983965,118.039803,7609.275480,-301.978592,0.000108,0.000011,0.000000,0.000000,0.000000,0.000000,0.000000,0.095513,500000.000004,90.095510,0.983965,0.000000,0.000000,0.000000,0.000000,0.000000,0.000000,1013.250000,0.000000,25.500000,992,1500,1500,1500,992,1499.999630,1499.999875,1500.000000
1.514100,6871383.323719,11531.652725,-0.000000,2.299811,1.749479,0.983965,117.954626,7609.276375,-301.989313,0.000103,0.000011,0.000000,0.000000,0.000000,0.000000,0.000000,0.096154,500000.000004,90.096151,0.983965,0.000000,0.000000,0.000000,0.000000,0.000000,0.000000,1013.250000,0.000000,25.500000,992,1500,1500,1500,992,1499.999648,1499.999883,1500.000000
1.524200,6871383.194195,11608.576034,-0.000000,2.299869,1.749485,0.983965,117.869446,7609.277285,-301.999636,0.000097,0.000010,0.000000,0.000000,0.000000,0.000000,0.000000,0.096796,500000.000004,90.096793,0.983965,0.000000,0.000000,0.000000,0.000000,0.000000,0.000000,1013.250000,0.000000,25.500000,992,1500,1500,1500,992,1499.999665,1499.999890,1500.000000
1.534300,6871383.063810,11685.499341,-0.000000,2.299924,1.749491,0.983965,117.784264,7609.278210,-302.009581,0.000093,0.000009,0.000000,0.000000,0.000000,0.000000,0.000000,0.097437,500000.000004,90.097434,0.983965,0.000000,0.000000,0.000000,0.000000,0.000000,0.000000,1013.250000,0.000000,25.500000,992,1500,1500,1500,992,1499.999682,1499.999897,1500.000000
1.544400,6871382.932563,11762.422648,-0.000000,2.299976,1.749496,0.983966,117.699080,7609.279147,-302.019168,0.000088,0.000009,0.000000,0.000000,0.000000,0.000000,0.000000,0.098079,500000.000004,90.098075,0.983966,0.000000,0.000000,0.000000,0.000000,0.000000,0.000000,1013.250000,0.000000,25.500000,992,1500,1500,1500,992,1499.999698,1499.999904,1500.000000
1.554500,6871382.800455,11839.345952,-0.000000,2.300026,1.749501,0.983966,117.613895,7609.280097,-302.028413,0.000084,0.000008,0.000000,0.000000,0.000000,0.000000,0.000000,0.098720,500000.000004,90.098717,0.983966,0.000000,0.000000,0.000000,0.000000,0.000000,0.000000,1013.250000,0.000000,25.500000,992,1500,1500,1500,992,1499.999712,1499.999910,1500.000000
1.564600,6871382.667486,11916.269255,-0.000000,2.300073,1.749505,0.983966,117.528708,7609.281060,-302.037333,0.000080,0.000008,0.000000,0.000000,0.000000,0.000000,0.000000,0.099362,500000.000004,90.099358,0.983966,0.000000,0.000000,0.000000,0.000000,0.000000,0.000000,1013.250000,0.000000,25.500000,992,1500,1500,1500,992,1499.999727,1499.999916,1500.000000
1.574700,6871382.533656,11993.192557,-0.000000,2.300118,1.749510,0.983966,117.443519,7609.282033,-302.045944,0.000076,0.000007,0.000000,0.000000,0.000000,0.000000,0.000000,0.100003,500000.000004,90.100000,0.983966,0.000000,0.000000,0.000000,0.000000,0.000000,0.000000,1013.250000,0.000000,25.500000,992,1500,1500,1500,992,1499.999740,1499.999921,1500.000000
1.584800,6871382.398965,12070.115857,-0.000000,2.300161,1.749514,0.983966,117.358329,7609.283017,-302.054262,0.000072,0.000007,0.000000,0.000000,0.000000,0.000000,0.000000,0.100644,500000.000004,90.100641,0.983966,0.000000,0.000000,0.000000,0.000000,0.000000,0.000000,1013.250000,0.000000,25.500000,992,1500,1500,1500,992,1499.999753,1499.999926,1500.000000
1.594900,6871382.263413,12147.039155,-0.000000,2.300201,1.749517,0.983966,117.273137,7609.284012,-302.062301,0.000068,0.000006,0.000000,0.000000,0.000000,0.000000,0.000000,0.101286,500000.000004,90.101283,0.983966,0.000000,0.000000,0.000000,0.000000,0.000000,0.000000,1013.250000,0.000000,25.500000,992,1500,1500,1500,992,1499.999765,1499.999931,1500.000000
1.605000,6871382.127000,12223.962452,-0.000000,2.300240,1.749521,0.983967,117.187944,7609.285016,-302.070074,0.000065,0.000006,0.000000,0.000000,0.000000,0.000000,0.000000,0.101927,500000.000004,90.101924,0.983967,0.000000,0.000000,0.000000,0.000000,0.000000,0.000000,1013.250000,0.000000,25.500000,992,1500,1500,1500,992,1499.999777,1499.999935,1500.000000
1.615100,6871381.989725,12300.885748,-0.000000,2.300277,1.749524,0.983967,117.102751,7609.286029,-302.077595,0.000062,0.000005,0.000000,0.000000,0.000000,0.000000,0.000000,0.102569,500000.000004,90.102565,0.983967,0.000000,0.000000,0.000000,0.000000,0.000000,0.000000,1013.250000,0.000000,25.500000,992,1500,1500,1500,992,1499.999788,1499.999939,1500.000000
1.625200,6871381.851589,12377.809042,-0.000000,2.300312,1.749527,0.983967,117.017555,7609.287050,-302.084877,0.000059,0.000005,0.000000,0.000000,0.000000,0.000000,0.000000,0.103210,500000.000004,90.103207,0.983967,0.000000,0.000000,0.000000,0.000000,0.000000,0.000000,1013.250000,0.000000,25.500000,992,1500,1500,1500,992,1499.999798,1499.999943,1500.000000
1.635300,6871381.712593,12454.732334,-0.000000,2.300345,1.749530,0.983967,116.932359,7609.288080,-302.091930,0.000056,0.000005,0.000000,0.000000,0.000000,0.000000,0.000000,0.103851,500000.000004,90.103848,0.983967,0.000000,0.000000,0.000000,0.000000,0.000000,0.000000,1013.250000,0.000000,25.500000,992,1500,1500,1500,992,1499.999808,1499.999947,1500.000000
1.645400,6871381.572735,12531.655625,-0.000000,2.300376,1.749533,0.983967,116.847162,7609.289117,-302.098767,0.000053,0.000004,0.000000,0.000000,0.000000,0.000000,0.000000,0.104493,500000.000005,90.104490,0.983967,0.000000,0.000000,0.000000,0.000000,0.000000,0.000000,1013.250000,0.000000,25.500000,992,1500,1500,1500,992,1499.999818,1499.999950,1500.000000
1.655500,6871381.432016,12608.578914,-0.000000,2.300406,1.749535,0.983967,116.761964,7609.290162,-302.105397,0.000051,0.000004,0.000000,0.000000,0.000000,0.000000,0.000000,0.105134,500000.000005,90.105131,0.983967,0.000000,0.000000,0.000000,0.000000,0.000000,0.000000,1013.250000,0.000000,25.500000,992,1500,1500,1500,992,1499.999827,1499.999953,1500.000000
1.665600,6871381.290435,12685.502202,-0.000000,2.300435,1.749537,0.983967,116.676765,7609.291213,-302.111831,0.000048,0.000004,0.000000,0.000000,0.000000,0.000000,0.000000,0.105776,500000.000005,90.105772,0.983967,0.000000,0.000000,0.000000,0.000000,0.000000,0.000000,1013.250000,0.000000,25.500000,992,1500,1500,1500,992,1499.999835,1499.999956,1500.000000
