Time (sec) ,X(m) ,Y(m) ,Z(m) ,Roll (deg) ,Pitch (deg) ,Yaw (deg) ,U(m/s) ,V(m/s) ,W(m/s) ,P(rad/s) ,Q(rad/s) ,R(rad/s) ,Mx(Gauss) ,My(Gauss) ,Mz(Gauss) ,GPS Latitude (deg) ,GPS Longitude (deg) ,GPS Altitude (m) ,GPS Heading (deg) ,Yaw (deg) ,Analog 1 (V) ,Analog 2 (V) ,Analog 3 (V) ,Analog 4 (V) ,Analog 5 (V) ,Analog 6 (V) ,Pressure (Pa) ,Pressure Altitude (m) ,Temperature (C) ,RC Channel #1 ,RC Channel #2 ,RC Channel #3 ,RC Channel #4 ,RC Channel #5 ,PWM Model 1 ,PWM Model 2 ,PWM Model 3 
 0.000000,6871393.000000,0.000000,0.000000,0.000000,0.000000,0.000000,0.000000,7616.180000,0.000000,0.200000,0.200000,0.200000,0.000000,0.000000,0.000000,0.000000,0.000000,500000.000000,0.000000,0.000000,0.000000,0.000000,0.000000,0.000000,0.000000,0.000000,1013.250000,-0.000000,25.500000,992,1500,1500,1500,992,1500.000000,1500.000000,1500.000000
0.010100,6871392.999569,76.923418,0.000000,0.115854,0.115690,0.115785,15.305634,7616.149113,-15.369280,0.200000,0.200242,0.199758,0.000000,0.000000,0.000000,0.000000,0.000641,500000.000000,90.000638,0.115785,0.000000,0.000000,0.000000,0.000000,0.000000,0.000000,1013.250000,-0.000000,25.500000,992,1500,1500,1500,992,1500.000000,1500.000000,1500.000000
0.020200,6871392.998278,153.846836,0.000000,0.231943,0.231287,0.231664,30.623603,7616.056528,-30.707603,0.200000,0.200483,0.199516,0.000000,0.000000,0.000000,0.000000,0.001283,500000.000000,90.001280,0.231664,0.000000,0.000000,0.000000,0.000000,0.000000,0.000000,1013.250000,-0.000000,25.500000,992,1500,1500,1500,992,1500.000000,1500.000000,1500.000000
0.030300,6871392.996125,230.770254,0.000000,0.348265,0.346788,0.347638,45.953772,7615.902355,-46.014747,0.200000,0.200724,0.199273,0.000000,0.000000,0.000000,0.000000,0.001924,500000.000000,90.001921,0.347638,0.000000,0.000000,0.000000,0.000000,0.000000,0.000000,1013.250000,-0.000000,25.500000,992,1500,1500,1500,992,1500.000000,1500.000000,1500.000000
0.040300,6871392.993145,306.932054,0.000000,0.463667,0.461052,0.462560,61.144046,7615.689146,-61.139397,0.200000,0.200963,0.199032,0.000000,0.000000,0.000000,0.000000,0.002559,500000.000000,90.002556,0.462560,0.000000,0.000000,0.000000,0.000000,0.000000,0.000000,1013.250000,-0.000000,25.500000,992,1500,1500,1500,992,1500.000000,1500.000000,1500.000000
0.050300,6871392.989321,383.093854,0.000000,0.579299,0.575221,0.577577,76.346020,7615.415786,-76.233047,0.200000,0.201201,0.198792,0.000000,0.000000,0.000000,0.000000,0.003194,500000.000000,90.003191,0.577577,0.000000,0.000000,0.000000,0.000000,0.000000,0.000000,1013.250000,-0.000000,25.500000,992,1500,1500,1500,992,1500.000000,1500.000000,1500.000000
0.060300,6871392.984653,459.255654,0.000000,0.695161,0.689296,0.692690,91.559562,7615.082388,-91.295482,0.200000,0.201439,0.198550,0.000000,0.000000,0.000000,0.000000,0.003829,500000.000000,90.003826,0.692690,0.000000,0.000000,0.000000,0.000000,0.000000,0.000000,1013.250000,-0.000000,25.500000,992,1500,1500,1500,992,1500.000000,1500.000000,1500.000000
0.070300,6871392.979140,535.417453,0.000000,0.811253,0.803276,0.807899,106.784543,7614.689063,-106.326487,0.200000,0.201677,0.198309,0.000000,0.000000,0.000000,0.000000,0.004464,500000.000000,90.004461,0.807899,0.000000,0.000000,0.000000,0.000000,0.000000,0.000000,1013.250000,-0.000000,25.500000,992,1500,1500,1500,992,1500.000000,1500.000000,1500.000000
0.080300,6871392.972784,611.579253,0.000000,0.927576,0.917160,0.923207,122.020832,7614.235927,-121.325848,0.200000,0.201914,0.198067,0.000000,0.000000,0.000000,0.000000,0.005100,500000.000000,90.005096,0.923207,0.000000,0.000000,0.000000,0.000000,0.000000,0.000000,1013.250000,-0.000000,25.500000,992,1500,1500,1500,992,1500.000000,1500.000000,1500.000000
0.090300,6871392.965583,687.741053,0.000000,1.044129,1.030947,1.038614,137.268299,7613.723092,-136.293351,0.200000,0.202151,0.197825,0.000000,0.000000,0.000000,0.000000,0.005735,500000.000000,90.005731,1.038614,0.000000,0.000000,0.000000,0.000000,0.000000,0.000000,1013.250000,-0.000000,25.500000,992,1500,1500,1500,992,1500.000000,1500.000000,1500.000000
0.100300,6871392.957538,763.902852,0.000000,1.160913,1.144638,1.154120,152.526814,7613.150676,-151.228783,0.200000,0.202388,0.197583,0.000000,0.000000,0.000000,0.000000,0.006370,500000.000000,90.006367,1.154120,0.000000,0.000000,0.000000,0.000000,0.000000,0.000000,1013.250000,-0.000000,25.500000,992,1500,1500,1500,992,1500.000000,1500.000000,1500.000000
0.110300,6871392.948649,840.064652,0.000000,1.277929,1.258232,1.269726,167.796245,7612.518794,-166.131931,0.200000,0.202624,0.197341,0.000000,0.000000,0.000000,0.000000,0.007005,500000.000000,90.007002,1.269726,0.000000,0.000000,0.000000,0.000000,0.000000,0.000000,1013.250000,-0.000000,25.500000,992,1500,1500,1500,992,1500.000000,1500.000000,1500.000000
0.120300,6871392.938916,916.226451,0.000000,1.395176,1.371727,1.385434,183.076463,7611.827564,-181.002584,0.200000,0.202861,0.197098,0.000000,0.000000,0.000000,0.000000,0.007640,500000.000000,90.007637,1.385434,0.000000,0.000000,0.000000,0.000000,0.000000,0.000000,1013.250000,-0.000000,25.500000,992,1500,1500,1500,992,1500.000000,1500.000000,1500.000000
0.130400,6871392.928228,993.149869,0.000000,1.513830,1.486258,1.502402,198.520299,7611.069300,-195.988743,0.200000,0.203099,0.196852,0.000000,0.000000,0.000000,0.000000,0.008281,500000.000000,90.008278,1.502402,0.000000,0.000000,0.000000,0.000000,0.000000,0.000000,1013.250000,-0.000000,25.500000,992,1500,1500,1500,992,1500.000000,1500.000000,1500.000000
0.140500,6871392.916679,1070.073286,0.000000,1.632721,1.600688,1.619475,213.974869,7610.250739,-210.941320,0.200000,0.203337,0.196607,0.000000,0.000000,0.000000,0.000000,0.008923,500000.000000,90.008919,1.619475,0.000000,0.000000,0.000000,0.000000,0.000000,0.000000,1013.250000,-0.000000,25.500000,992,1500,1500,1500,992,1500.000000,1500.000000,1500.000000
0.150600,6871392.904270,1146.996703,0.000000,1.751849,1.715016,1.736654,229.440038,7609.372003,-225.860098,0.200000,0.203574,0.196360,0.000000,0.000000,0.000000,0.000000,0.009564,500000.000000,90.009561,1.736654,0.000000,0.000000,0.000000,0.000000,0.000000,0.000000,1013.250000,-0.000000,25.500000,992,1500,1500,1500,992,1500.000000,1500.000000,1500.000000
0.160700,6871392.890999,1223.920120,0.000000,1.871213,1.829242,1.853940,244.915673,7608.433217,-240.744862,0.200000,0.203812,0.196114,0.000000,0.000000,0.000000,0.000000,0.010205,500000.000000,90.010202,1.853940,0.000000,0.000000,0.000000,0.000000,0.000000,0.000000,1013.250000,-0.000000,25.500000,992,1500,1500,1500,992,1500.000000,1500.000000,1500.000000
0.170800,6871392.876867,1300.843536,0.000000,1.990815,1.943365,1.971333,260.401637,7607.434507,-255.595396,0.200000,0.204049,0.195867,0.000000,0.000000,0.000000,0.000000,0.010847,500000.000000,90.010844,1.971333,0.000000,0.000000,0.000000,0.000000,0.000000,0.000000,1013.250000,-0.000000,25.500000,992,1500,1500,1500,992,1500.000000,1500.000000,1500.000000
0.180900,6871392.861874,1377.766953,0.000000,2.110654,2.057385,2.088834,275.897796,7606.375998,-270.411484,0.200000,0.204286,0.195620,0.000000,0.000000,0.000000,0.000000,0.011488,500000.000000,90.011485,2.088834,0.000000,0.000000,0.000000,0.000000,0.000000,0.000000,1013.250000,-0.000000,25.500000,992,1500,1500,1500,992,1500.000000,1500.000000,1500.000000
0.191000,6871392.846019,1454.690369,0.000000,2.230731,2.171301,2.206445,291.404014,7605.257819,-285.192913,0.200000,0.204522,0.195373,0.000000,0.000000,0.000000,0.000000,0.012130,500000.000000,90.012126,2.206445,0.000000,0.000000,0.000000,0.000000,0.000000,0.000000,1013.250000,-0.000000,25.500000,992,1500,1500,1500,992,1500.000000,1500.000000,1500.000000
0.201100,6871392.829304,1531.613785,0.000000,2.351045,2.285113,2.324166,306.920155,7604.080097,-299.939469,0.200000,0.204758,0.195126,0.000000,0.000000,0.000000,0.000000,0.012771,500000.000000,90.012768,2.324166,0.000000,0.000000,0.000000,0.000000,0.000000,0.000000,1013.250000,-0.000000,25.500000,992,1500,1500,1500,992,1500.000000,1500.000000,1500.000000
0.211200,6871392.811727,1608.537201,0.000000,2.471598,2.398819,2.441998,322.446085,7602.842962,-314.650938,0.200000,0.204994,0.194878,0.000000,0.000000,0.000000,0.000000,0.013412,500000.000000,90.013409,2.441998,0.000000,0.000000,0.000000,0.000000,0.000000,0.000000,1013.250000,-0.000000,25.500000,992,1500,1500,1500,992,1500.000000,1500.000000,1500.000000
0.221300,6871392.793290,1685.460617,0.000000,2.592389,2.512420,2.559941,337.981667,7601.546543,-329.327108,0.200000,0.205230,0.194630,0.000000,0.000000,0.000000,0.000000,0.014054,500000.000000,90.014051,2.559941,0.000000,0.000000,0.000000,0.000000,0.000000,0.000000,1013.250000,-0.000000,25.500000,992,1500,1500,1500,992,1500.000000,1500.000000,1500.000000
0.231400,6871392.773991,1762.384033,0.000000,2.713418,2.625915,2.677997,353.526766,7600.190971,-343.967767,0.200000,0.205465,0.194381,0.000000,0.000000,0.000000,0.000000,0.014695,500000.000000,90.014692,2.677997,0.000000,0.000000,0.000000,0.000000,0.000000,0.000000,1013.250000,-0.000000,25.500000,992,1500,1500,1500,992,1500.000000,1500.000000,1500.000000
0.241500,6871392.753831,1839.307448,0.000000,2.834686,2.739303,2.796167,369.081246,7598.776378,-358.572705,0.200000,0.205700,0.194133,0.000000,0.000000,0.000000,0.000000,0.015337,500000.000000,90.015334,2.796167,0.000000,0.000000,0.000000,0.000000,0.000000,0.000000,1013.250000,-0.000000,25.500000,992,1500,1500,1500,992,1500.000000,1500.000000,1500.000000
0.251600,6871392.732810,1916.230863,0.000000,2.956193,2.852584,2.914451,384.644972,7597.302897,-373.141709,0.200000,0.205935,0.193884,0.000000,0.000000,0.000000,0.000000,0.015978,500000.000000,90.015975,2.914451,0.000000,0.000000,0.000000,0.000000,0.000000,0.000000,1013.250000,-0.000000,25.500000,992,1500,1500,1500,992,1500.000000,1500.000000,1500.000000
0.261700,6871392.710927,1993.154278,0.000000,3.077940,2.965757,3.032850,400.217808,7595.770660,-387.674570,0.200000,0.206169,0.193635,0.000000,0.000000,0.000000,0.000000,0.016620,500000.000000,90.016616,3.032850,0.000000,0.000000,0.000000,0.000000,0.000000,0.000000,1013.250000,-0.000000,25.500000,992,1500,1500,1500,992,1500.000000,1500.000000,1500.000000
0.271800,6871392.688184,2070.077693,0.000000,3.199926,3.078821,3.151365,415.799616,7594.179804,-402.171079,0.200000,0.206403,0.193385,0.000000,0.000000,0.000000,0.000000,0.017261,500000.000000,90.017258,3.151365,0.000000,0.000000,0.000000,0.000000,0.000000,0.000000,1013.250000,-0.000000,25.500000,992,1500,1500,1500,992,1500.000000,1500.000000,1500.000000
0.281900,6871392.664580,2147.001107,0.000000,3.322152,3.191776,3.269997,431.390263,7592.530462,-416.631028,0.200000,0.206637,0.193135,0.000000,0.000000,0.000000,0.000000,0.017902,500000.000000,90.017899,3.269997,0.000000,0.000000,0.000000,0.000000,0.000000,0.000000,1013.250000,-0.000000,25.500000,992,1500,1500,1500,992,1500.000000,1500.000000,1500.000000
0.292000,6871392.640114,2223.924521,0.000000,3.444618,3.304622,3.388747,446.989610,7590.822772,-431.054206,0.200000,0.206870,0.192885,0.000000,0.000000,0.000000,0.000000,0.018544,500000.000000,90.018541,3.388747,0.000000,0.000000,0.000000,0.000000,0.000000,0.000000,1013.250000,-0.000000,25.500000,992,1500,1500,1500,992,1500.000000,1500.000000,1500.000000
0.302100,6871392.614787,2300.847935,0.000000,3.567325,3.417357,3.507615,462.597523,7589.056869,-445.440408,0.200000,0.207103,0.192635,0.000000,0.000000,0.000000,0.000000,0.019185,500000.000000,90.019182,3.507615,0.000000,0.000000,0.000000,0.000000,0.000000,0.000000,1013.250000,-0.000000,25.500000,992,1500,1500,1500,992,1500.000000,1500.000000,1500.000000
0.312200,6871392.588599,2377.771349,0.000000,3.690272,3.529981,3.626603,478.213864,7587.232893,-459.789427,0.200000,0.207336,0.192384,0.000000,0.000000,0.000000,0.000000,0.019827,500000.000000,90.019823,3.626603,0.000000,0.000000,0.000000,0.000000,0.000000,0.000000,1013.250000,-0.000000,25.500000,992,1500,1500,1500,992,1500.000000,1500.000000,1500.000000
0.322300,6871392.561550,2454.694762,0.000000,3.813459,3.642494,3.745711,493.838498,7585.350982,-474.101055,0.200000,0.207569,0.192133,0.000000,0.000000,0.000000,0.000000,0.020468,500000.000000,90.020465,3.745711,0.000000,0.000000,0.000000,0.000000,0.000000,0.000000,1013.250000,-0.000000,25.500000,992,1500,1500,1500,992,1500.000000,1500.000000,1500.000000
0.332400,6871392.533640,2531.618175,0.000000,3.936888,3.754894,3.864940,509.471288,7583.411275,-488.375089,0.200000,0.207801,0.191882,0.000000,0.000000,0.000000,0.000000,0.021109,500000.000000,90.021106,3.864940,0.000000,0.000000,0.000000,0.000000,0.000000,0.000000,1013.250000,-0.000000,25.500000,992,1500,1500,1500,992,1500.000000,1500.000000,1500.000000
0.342500,6871392.504868,2608.541587,0.000000,4.060559,3.867182,3.984291,525.112097,7581.413914,-502.611322,0.200000,0.208033,0.191630,0.000000,0.000000,0.000000,0.000000,0.021751,500000.000000,90.021748,3.984291,0.000000,0.000000,0.000000,0.000000,0.000000,0.000000,1013.250000,-0.000000,25.500000,992,1500,1500,1500,992,1500.000000,1500.000000,1500.000000
0.352600,6871392.475236,2685.465000,0.000000,4.184471,3.979357,4.103765,540.760789,7579.359040,-516.809550,0.200000,0.208265,0.191379,0.000000,0.000000,0.000000,0.000000,0.022392,500000.000000,90.022389,4.103765,0.000000,0.000000,0.000000,0.000000,0.000000,0.000000,1013.250000,-0.000000,25.500000,992,1500,1500,1500,992,1500.000000,1500.000000,1500.000000
0.362700,6871392.444742,2762.388412,0.000000,4.308625,4.091418,4.223362,556.417227,7577.246794,-530.969570,0.200000,0.208496,0.191127,0.000000,0.000000,0.000000,0.000000,0.023034,500000.000000,90.023030,4.223362,0.000000,0.000000,0.000000,0.000000,0.000000,0.000000,1013.250000,-0.000000,25.500000,992,1500,1500,1500,992,1500.000000,1500.000000,1500.000000
0.372800,6871392.413388,2839.311823,0.000000,4.433021,4.203364,4.343084,572.081274,7575.077321,-545.091179,0.200000,0.208727,0.190874,0.000000,0.000000,0.000000,0.000000,0.023675,500000.000000,90.023672,4.343084,0.000000,0.000000,0.000000,0.000000,0.000000,0.000000,1013.250000,-0.000000,25.500000,992,1500,1500,1500,992,1500.000000,1500.000000,1500.000000
0.382900,6871392.381172,2916.235234,0.000000,4.557659,4.315195,4.462932,587.752794,7572.850764,-559.174175,0.200000,0.208958,0.190622,0.000000,0.000000,0.000000,0.000000,0.024316,500000.000000,90.024313,4.462932,0.000000,0.000000,0.000000,0.000000,0.000000,0.000000,1013.250000,-0.000000,25.500000,992,1500,1500,1500,992,1500.000000,1500.000000,1500.000000
0.393000,6871392.348095,2993.158645,0.000000,4.682540,4.426911,4.582905,603.431650,7570.567268,-573.218356,0.200000,0.209188,0.190369,0.000000,0.000000,0.000000,0.000000,0.024958,500000.000000,90.024955,4.582905,0.000000,0.000000,0.000000,0.000000,0.000000,0.000000,1013.250000,-0.000000,25.500000,992,1500,1500,1500,992,1500.000000,1500.000000,1500.000000
0.403100,6871392.314156,3070.082056,0.000000,4.807665,4.538510,4.703005,619.117705,7568.226978,-587.223521,0.200000,0.209418,0.190116,0.000000,0.000000,0.000000,0.000000,0.025599,500000.000000,90.025596,4.703005,0.000000,0.000000,0.000000,0.000000,0.000000,0.000000,1013.250000,-0.000000,25.500000,992,1500,1500,1500,992,1500.000000,1500.000000,1500.000000
0.413200,6871392.279357,3147.005466,0.000000,4.933033,4.649992,4.823234,634.810822,7565.830043,-601.189470,0.200000,0.209648,0.189862,0.000000,0.000000,0.000000,0.000000,0.026241,500000.000000,90.026237,4.823234,0.000000,0.000000,0.000000,0.000000,0.000000,0.000000,1013.250000,-0.000000,25.500000,992,1500,1500,1500,992,1500.000000,1500.000000,1500.000000
0.423300,6871392.243697,3223.928876,0.000000,5.058644,4.761356,4.943590,650.510863,7563.376608,-615.116003,0.200000,0.209878,0.189608,0.000000,0.000000,0.000000,0.000000,0.026882,500000.000000,90.026879,4.943590,0.000000,0.000000,0.000000,0.000000,0.000000,0.000000,1013.250000,-0.000000,25.500000,992,1500,1500,1500,992,1500.000000,1500.000000,1500.000000
0.433400,6871392.207175,3300.852285,0.000000,5.184499,4.872603,5.064077,666.217693,7560.866822,-629.002922,0.200000,0.210107,0.189354,0.000000,0.000000,0.000000,0.000000,0.027524,500000.000000,90.027520,5.064077,0.000000,0.000000,0.000000,0.000000,0.000000,0.000000,1013.250000,-0.000000,25.500000,992,1500,1500,1500,992,1500.000000,1500.000000,1500.000000
0.443500,6871392.169792,3377.775694,0.000000,5.310598,4.983730,5.184693,681.931172,7558.300835,-642.850028,0.200000,0.210336,0.189100,0.000000,0.000000,0.000000,0.000000,0.028165,500000.000000,90.028162,5.184693,0.000000,0.000000,0.000000,0.000000,0.000000,0.000000,1013.250000,-0.000000,25.500000,992,1500,1500,1500,992,1500.000000,1500.000000,1500.000000
0.453600,6871392.131549,3454.699102,0.000000,5.436942,5.094738,5.305441,697.651165,7555.678796,-656.657124,0.200000,0.210564,0.188846,0.000000,0.000000,0.000000,0.000000,0.028806,500000.000000,90.028803,5.305441,0.000000,0.000000,0.000000,0.000000,0.000000,0.000000,1013.250000,-0.000000,25.500000,992,1500,1500,1500,992,1500.000000,1500.000000,1500.000000
0.463700,6871392.092444,3531.622511,0.000000,5.563530,5.205626,5.426321,713.377534,7553.000856,-670.424013,0.200000,0.210793,0.188591,0.000000,0.000000,0.000000,0.000000,0.029448,500000.000000,90.029445,5.426321,0.000000,0.000000,0.000000,0.000000,0.000000,0.000000,1013.250000,-0.000000,25.500000,992,1500,1500,1500,992,1500.000000,1500.000000,1500.000000
0.473800,6871392.052477,3608.545918,0.000000,5.690364,5.316394,5.547333,729.110142,7550.267167,-684.150499,0.200000,0.211021,0.188336,0.000000,0.000000,0.000000,0.000000,0.030089,500000.000000,90.030086,5.547333,0.000000,0.000000,0.000000,0.000000,0.000000,0.000000,1013.250000,-0.000000,25.500000,992,1500,1500,1500,992,1500.000000,1500.000000,1500.000000
0.483900,6871392.011650,3685.469325,0.000000,5.817443,5.427040,5.668480,744.848850,7547.477881,-697.836386,0.200000,0.211248,0.188080,0.000000,0.000000,0.000000,0.000000,0.030731,500000.000000,90.030727,5.668480,0.000000,0.000000,0.000000,0.000000,0.000000,0.000000,1013.250000,-0.000000,25.500000,992,1500,1500,1500,992,1500.000000,1500.000000,1500.000000
0.494000,6871391.969962,3762.392732,0.000000,5.944767,5.537564,5.789760,760.593523,7544.633151,-711.481481,0.200000,0.211476,0.187825,0.000000,0.000000,0.000000,0.000000,0.031372,500000.000000,90.031369,5.789760,0.000000,0.000000,0.000000,0.000000,0.000000,0.000000,1013.250000,-0.000000,25.500000,992,1500,1500,1500,992,1500.000000,1500.000000,1500.000000
0.504100,6871391.927412,3839.316138,0.000000,6.072338,5.647965,5.911176,776.344022,7541.733133,-725.085588,0.200000,0.211703,0.187569,0.000000,0.000000,0.000000,0.000000,0.032013,500000.000000,90.032010,5.911176,0.000000,0.000000,0.000000,0.000000,0.000000,0.000000,1013.250000,-0.000000,25.500000,992,1500,1500,1500,992,1500.000000,1500.000000,1500.000000
0.514200,6871391.884002,3916.239544,0.000000,6.200154,5.758244,6.032729,792.100209,7538.777979,-738.648515,0.200000,0.211929,0.187313,0.000000,0.000000,0.000000,0.000000,0.032655,500000.000000,90.032652,6.032729,0.000000,0.000000,0.000000,0.000000,0.000000,0.000000,1013.250000,-0.000000,25.500000,992,1500,1500,1500,992,1500.000000,1500.000000,1500.000000
0.524300,6871391.839730,3993.162949,0.000000,6.328217,5.868398,6.154418,807.861947,7535.767848,-752.170069,0.200000,0.212156,0.187056,0.000000,0.000000,0.000000,0.000000,0.033296,500000.000000,90.033293,6.154418,0.000000,0.000000,0.000000,0.000000,0.000000,0.000000,1013.250000,-0.000000,25.500000,992,1500,1500,1500,992,1500.000000,1500.000000,1500.000000
0.534400,6871391.794597,4070.086354,0.000000,6.456527,5.978428,6.276245,823.629099,7532.702894,-765.650058,0.200000,0.212382,0.186799,0.000000,0.000000,0.000000,0.000000,0.033938,500000.000000,90.033934,6.276245,0.000000,0.000000,0.000000,0.000000,0.000000,0.000000,1013.250000,-0.000000,25.500000,992,1500,1500,1500,992,1500.000000,1500.000000,1500.000000
0.544500,6871391.748603,4147.009758,0.000000,6.585084,6.088333,6.398210,839.401527,7529.583275,-779.088292,0.200000,0.212608,0.186542,0.000000,0.000000,0.000000,0.000000,0.034579,500000.000000,90.034576,6.398210,0.000000,0.000000,0.000000,0.000000,0.000000,0.000000,1013.250000,-0.000000,25.500000,992,1500,1500,1500,992,1500.000000,1500.000000,1500.000000
0.554600,6871391.701748,4223.933162,0.000000,6.713889,6.198112,6.520315,855.179092,7526.409151,-792.484579,0.200000,0.212833,0.186285,0.000000,0.000000,0.000000,0.000000,0.035220,500000.000001,90.035217,6.520315,0.000000,0.000000,0.000000,0.000000,0.000000,0.000000,1013.250000,-0.000000,25.500000,992,1500,1500,1500,992,1500.000000,1500.000000,1500.000000
0.564700,6871391.654031,4300.856565,0.000000,6.842941,6.307765,6.642560,870.961658,7523.180679,-805.838731,0.200000,0.213058,0.186027,0.000000,0.000000,0.000000,0.000000,0.035862,500000.000001,90.035859,6.642560,0.000000,0.000000,0.000000,0.000000,0.000000,0.000000,1013.250000,-0.000000,25.500000,992,1500,1500,1500,992,1500.000000,1500.000000,1500.000000
0.574800,6871391.605454,4377.779968,0.000000,6.972241,6.417291,6.764946,886.749086,7519.898019,-819.150558,0.200000,0.213283,0.185770,0.000000,0.000000,0.000000,0.000000,0.036503,500000.000001,90.036500,6.764946,0.000000,0.000000,0.000000,0.000000,0.000000,0.000000,1013.250000,-0.000000,25.500000,992,1500,1500,1500,992,1500.000000,1500.000000,1500.000000
0.584900,6871391.556015,4454.703370,0.000000,7.101790,6.526689,6.887475,902.541238,7516.561332,-832.419872,0.200000,0.213508,0.185511,0.000000,0.000000,0.000000,0.000000,0.037145,500000.000001,90.037141,6.887475,0.000000,0.000000,0.000000,0.000000,0.000000,0.000000,1013.250000,-0.000000,25.500000,992,1500,1500,1500,992,1500.000000,1500.000000,1500.000000
0.595000,6871391.505715,4531.626772,0.000000,7.231587,6.635958,7.010145,918.337976,7513.170780,-845.646485,0.200000,0.213732,0.185253,0.000000,0.000000,0.000000,0.000000,0.037786,500000.000001,90.037783,7.010145,0.000000,0.000000,0.000000,0.000000,0.000000,0.000000,1013.250000,-0.000000,25.500000,992,1500,1500,1500,992,1500.000000,1500.000000,1500.000000
0.605100,6871391.454554,4608.550172,0.000000,7.361633,6.745099,7.132960,934.139163,7509.726525,-858.830212,0.200000,0.213956,0.184994,0.000000,0.000000,0.000000,0.000000,0.038428,500000.000001,90.038424,7.132960,0.000000,0.000000,0.000000,0.000000,0.000000,0.000000,1013.250000,-0.000000,25.500000,992,1500,1500,1500,992,1500.000000,1500.000000,1500.000000
0.615200,6871391.402532,4685.473573,0.000000,7.491929,6.854110,7.255919,949.944661,7506.228730,-871.970865,0.200000,0.214179,0.184735,0.000000,0.000000,0.000000,0.000000,0.039069,500000.000001,90.039066,7.255919,0.000000,0.000000,0.000000,0.000000,0.000000,0.000000,1013.250000,-0.000000,25.500000,992,1500,1500,1500,992,1500.000000,1500.000000,1500.000000
0.625300,6871391.349649,4762.396973,0.000000,7.622474,6.962991,7.379023,965.754330,7502.677558,-885.068260,0.200000,0.214403,0.184476,0.000000,0.000000,0.000000,0.000000,0.039710,500000.000001,90.039707,7.379023,0.000000,0.000000,0.000000,0.000000,0.000000,0.000000,1013.250000,-0.000000,25.500000,992,1500,1500,1500,992,1500.000000,1500.000000,1500.000000
0.635400,6871391.295905,4839.320372,0.000000,7.753269,7.071741,7.502272,981.568035,7499.073175,-898.122213,0.200000,0.214626,0.184217,0.000000,0.000000,0.000000,0.000000,0.040352,500000.000001,90.040349,7.502272,0.000000,0.000000,0.000000,0.000000,0.000000,0.000000,1013.250000,-0.000000,25.500000,992,1500,1500,1500,992,1500.000000,1500.000000,1500.000000
0.645500,6871391.241299,4916.243771,0.000000,7.884314,7.180359,7.625669,997.385635,7495.415745,-911.132539,0.200000,0.214848,0.183957,0.000000,0.000000,0.000000,0.000000,0.040993,500000.000001,90.040990,7.625669,0.000000,0.000000,0.000000,0.000000,0.000000,0.000000,1013.250000,-0.000000,25.500000,992,1500,1500,1500,992,1500.000000,1500.000000,1500.000000
0.655600,6871391.185833,4993.167169,0.000000,8.015610,7.288845,7.749213,1013.206993,7491.705434,-924.099056,0.200000,0.215071,0.183697,0.000000,0.000000,0.000000,0.000000,0.041635,500000.000001,90.041631,7.749213,0.000000,0.000000,0.000000,0.000000,0.000000,0.000000,1013.250000,-0.000000,25.500000,992,1500,1500,1500,992,1500.000000,1500.000000,1500.000000
0.665700,6871391.129505,5070.090566,0.000000,8.147156,7.397198,7.872906,1029.031971,7487.942411,-937.021582,0.200000,0.215293,0.183437,0.000000,0.000000,0.000000,0.000000,0.042276,500000.000001,90.042273,7.872906,0.000000,0.000000,0.000000,0.000000,0.000000,0.000000,1013.250000,-0.000000,25.500000,992,1500,1500,1500,992,1500.000000,1500.000000,1500.000000
0.675800,6871391.072316,5147.013963,0.000000,8.278954,7.505417,7.996748,1044.860430,7484.126842,-949.899934,0.200000,0.215514,0.183176,0.000000,0.000000,0.000000,0.000000,0.042917,500000.000001,90.042914,7.996748,0.000000,0.000000,0.000000,0.000000,0.000000,0.000000,1013.250000,-0.000000,25.500000,992,1500,1500,1500,992,1500.000000,1500.000000,1500.000000
0.685900,6871391.014266,5223.937359,0.000000,8.411003,7.613502,8.120740,1060.692233,7480.258896,-962.733933,0.200000,0.215736,0.182915,0.000000,0.000000,0.000000,0.000000,0.043559,500000.000001,90.043556,8.120740,0.000000,0.000000,0.000000,0.000000,0.000000,0.000000,1013.250000,-0.000000,25.500000,992,1500,1500,1500,992,1500.000000,1500.000000,1500.000000
0.696000,6871390.955355,5300.860754,0.000000,8.543305,7.721452,8.244883,1076.527240,7476.338742,-975.523399,0.200000,0.215957,0.182654,0.000000,0.000000,0.000000,0.000000,0.044200,500000.000001,90.044197,8.244883,0.000000,0.000000,0.000000,0.000000,0.000000,0.000000,1013.250000,-0.000000,25.500000,992,1500,1500,1500,992,1500.000000,1500.000000,1500.000000
0.706100,6871390.895583,5377.784149,0.000000,8.675858,7.829267,8.369177,1092.365314,7472.366551,-988.268152,0.200000,0.216178,0.182393,0.000000,0.000000,0.000000,0.000000,0.044842,500000.000001,90.044838,8.369177,0.000000,0.000000,0.000000,0.000000,0.000000,0.000000,1013.250000,-0.000000,25.500000,992,1500,1500,1500,992,1500.000000,1500.000000,1500.000000
0.716200,6871390.834949,5454.707543,0.000000,8.808663,7.936945,8.493624,1108.206317,7468.342492,-1000.968015,0.200000,0.216398,0.182131,0.000000,0.000000,0.000000,0.000000,0.045483,500000.000001,90.045480,8.493624,0.000000,0.000000,0.000000,0.000000,0.000000,0.000000,1013.250000,-0.000000,25.500000,992,1500,1500,1500,992,1500.000000,1500.000000,1500.000000
0.726300,6871390.773455,5531.630937,0.000000,8.941722,8.044486,8.618225,1124.050109,7464.266739,-1013.622809,0.200000,0.216618,0.181869,0.000000,0.000000,0.000000,0.000000,0.046124,500000.000001,90.046121,8.618225,0.000000,0.000000,0.000000,0.000000,0.000000,0.000000,1013.250000,-0.000000,25.500000,992,1500,1500,1500,992,1500.000000,1500.000000,1500.000000
0.736400,6871390.711099,5608.554329,0.000000,9.075034,8.151890,8.742979,1139.896553,7460.139462,-1026.232358,0.200000,0.216838,0.181607,0.000000,0.000000,0.000000,0.000000,0.046766,500000.000001,90.046763,8.742979,0.000000,0.000000,0.000000,0.000000,0.000000,0.000000,1013.250000,-0.000000,25.500000,992,1500,1500,1500,992,1500.000000,1500.000000,1500.000000
0.746500,6871390.647882,5685.477721,0.000000,9.208599,8.259155,8.867888,1155.745510,7455.960835,-1038.796486,0.200000,0.217058,0.181345,0.000000,0.000000,0.000000,0.000000,0.047407,500000.000001,90.047404,8.867888,0.000000,0.000000,0.000000,0.000000,0.000000,0.000000,1013.250000,-0.000000,25.500000,992,1500,1500,1500,992,1500.000000,1500.000000,1500.000000
0.756600,6871390.583804,5762.401113,0.000000,9.342418,8.366282,8.992953,1171.596842,7451.731032,-1051.315018,0.200000,0.217277,0.181082,0.000000,0.000000,0.000000,0.000000,0.048049,500000.000001,90.048045,8.992953,0.000000,0.000000,0.000000,0.000000,0.000000,0.000000,1013.250000,-0.000000,25.500000,992,1500,1500,1500,992,1500.000000,1500.000000,1500.000000
0.766700,6871390.518865,5839.324503,0.000000,9.476491,8.473268,9.118174,1187.450409,7447.450227,-1063.787779,0.200000,0.217496,0.180819,0.000000,0.000000,0.000000,0.000000,0.048690,500000.000001,90.048687,9.118174,0.000000,0.000000,0.000000,0.000000,0.000000,0.000000,1013.250000,-0.000000,25.500000,992,1500,1500,1500,992,1500.000000,1500.000000,1500.000000
0.776800,6871390.453065,5916.247893,0.000000,9.610818,8.580115,9.243553,1203.306075,7443.118595,-1076.214596,0.200000,0.217714,0.180556,0.000000,0.000000,0.000000,0.000000,0.049331,500000.000001,90.049328,9.243553,0.000000,0.000000,0.000000,0.000000,0.000000,0.000000,1013.250000,-0.000000,25.500000,992,1500,1500,1500,992,1500.000000,1500.000000,1500.000000
0.786900,6871390.386404,5993.171282,0.000000,9.745400,8.686820,9.369089,1219.163699,7438.736314,-1088.595296,0.200000,0.217933,0.180293,0.000000,0.000000,0.000000,0.000000,0.049973,500000.000001,90.049970,9.369089,0.000000,0.000000,0.000000,0.000000,0.000000,0.000000,1013.250000,-0.000000,25.500000,992,1500,1500,1500,992,1500.000000,1500.000000,1500.000000
0.797000,6871390.318881,6070.094671,0.000000,9.880238,8.793383,9.494785,1235.023144,7434.303559,-1100.929707,0.200000,0.218150,0.180029,0.000000,0.000000,0.000000,0.000000,0.050614,500000.000001,90.050611,9.494785,0.000000,0.000000,0.000000,0.000000,0.000000,0.000000,1013.250000,-0.000000,25.500000,992,1500,1500,1500,992,1500.000000,1500.000000,1500.000000
0.807100,6871390.250498,6147.018058,0.000000,10.015330,8.899804,9.620640,1250.884271,7429.820508,-1113.217658,0.200000,0.218368,0.179765,0.000000,0.000000,0.000000,0.000000,0.051256,500000.000001,90.051253,9.620640,0.000000,0.000000,0.000000,0.000000,0.000000,0.000000,1013.250000,-0.000000,25.500000,992,1500,1500,1500,992,1500.000000,1500.000000,1500.000000
0.817200,6871390.181253,6223.941445,0.000000,10.150679,9.006082,9.746656,1266.746942,7425.287339,-1125.458978,0.200000,0.218585,0.179501,0.000000,0.000000,0.000000,0.000000,0.051897,500000.000001,90.051894,9.746656,0.000000,0.000000,0.000000,0.000000,0.000000,0.000000,1013.250000,-0.000000,25.500000,992,1500,1500,1500,992,1500.000000,1500.000000,1500.000000
0.827300,6871390.111147,6300.864831,0.000000,10.286283,9.112216,9.872833,1282.611017,7420.704231,-1137.653498,0.200000,0.218802,0.179236,0.000000,0.000000,0.000000,0.000000,0.052539,500000.000001,90.052535,9.872833,0.000000,0.000000,0.000000,0.000000,0.000000,0.000000,1013.250000,-0.000000,25.500000,992,1500,1500,1500,992,1500.000000,1500.000000,1500.000000
0.837400,6871390.040180,6377.788216,0.000000,10.422144,9.218206,9.999171,1298.476359,7416.071365,-1149.801049,0.200000,0.219019,0.178971,0.000000,0.000000,0.000000,0.000000,0.053180,500000.000001,90.053177,9.999171,0.000000,0.000000,0.000000,0.000000,0.000000,0.000000,1013.250000,-0.000000,25.500000,992,1500,1500,1500,992,1500.000000,1500.000000,1500.000000
0.847500,6871389.968352,6454.711601,0.000000,10.558262,9.324050,10.125673,1314.342829,7411.388919,-1161.901464,0.200000,0.219235,0.178706,0.000000,0.000000,0.000000,0.000000,0.053821,500000.000001,90.053818,10.125673,0.000000,0.000000,0.000000,0.000000,0.000000,0.000000,1013.250000,-0.000000,25.500000,992,1500,1500,1500,992,1500.000000,1500.000000,1500.000000
0.857600,6871389.895662,6531.634984,0.000000,10.694637,9.429748,10.252338,1330.210287,7406.657076,-1173.954574,0.200000,0.219451,0.178441,0.000000,0.000000,0.000000,0.000000,0.054463,500000.000001,90.054460,10.252338,0.000000,0.000000,0.000000,0.000000,0.000000,0.000000,1013.250000,-0.000000,25.500000,992,1500,1500,1500,992,1500.000000,1500.000000,1500.000000
0.867700,6871389.822112,6608.558367,0.000000,10.831269,9.535300,10.379168,1346.078596,7401.876017,-1185.960214,0.200000,0.219667,0.178175,0.000000,0.000000,0.000000,0.000000,0.055104,500000.000001,90.055101,10.379168,0.000000,0.000000,0.000000,0.000000,0.000000,0.000000,1013.250000,-0.000000,25.500000,992,1500,1500,1500,992,1500.000000,1500.000000,1500.000000
0.877800,6871389.747700,6685.481749,0.000000,10.968159,9.640704,10.506163,1361.947617,7397.045925,-1197.918219,0.200000,0.219882,0.177909,0.000000,0.000000,0.000000,0.000000,0.055746,500000.000001,90.055742,10.506163,0.000000,0.000000,0.000000,0.000000,0.000000,0.000000,1013.250000,-0.000000,25.500000,992,1500,1500,1500,992,1500.000000,1500.000000,1500.000000
0.887900,6871389.672428,6762.405130,0.000000,11.105307,9.745961,10.633324,1377.817211,7392.166984,-1209.828423,0.200000,0.220097,0.177643,0.000000,0.000000,0.000000,0.000000,0.056387,500000.000001,90.056384,10.633324,0.000000,0.000000,0.000000,0.000000,0.000000,0.000000,1013.250000,-0.000000,25.500000,992,1500,1500,1500,992,1500.000000,1500.000000,1500.000000
0.898000,6871389.596294,6839.328511,0.000000,11.242714,9.851068,10.760651,1393.687239,7387.239376,-1221.690663,0.200000,0.220312,0.177377,0.000000,0.000000,0.000000,0.000000,0.057028,500000.000001,90.057025,10.760651,0.000000,0.000000,0.000000,0.000000,0.000000,0.000000,1013.250000,-0.000000,25.500000,992,1500,1500,1500,992,1500.000000,1500.000000,1500.000000
0.908100,6871389.519299,6916.251890,0.000000,11.380380,9.956026,10.888146,1409.557564,7382.263287,-1233.504775,0.200000,0.220526,0.177110,0.000000,0.000000,0.000000,0.000000,0.057670,500000.000001,90.057667,10.888146,0.000000,0.000000,0.000000,0.000000,0.000000,0.000000,1013.250000,-0.000000,25.500000,992,1500,1500,1500,992,1500.000000,1500.000000,1500.000000
0.918200,6871389.441443,6993.175269,0.000000,11.518304,10.060834,11.015810,1425.428045,7377.238902,-1245.270599,0.200000,0.220741,0.176843,0.000000,0.000000,0.000000,0.000000,0.058311,500000.000001,90.058308,11.015810,0.000000,0.000000,0.000000,0.000000,0.000000,0.000000,1013.250000,-0.000000,25.500000,992,1500,1500,1500,992,1500.000000,1500.000000,1500.000000
0.928300,6871389.362725,7070.098647,0.000000,11.656488,10.165491,11.143642,1441.298546,7372.166407,-1256.987972,0.200000,0.220954,0.176576,0.000000,0.000000,0.000000,0.000000,0.058953,500000.000001,90.058949,11.143642,0.000000,0.000000,0.000000,0.000000,0.000000,0.000000,1013.250000,-0.000000,25.500000,992,1500,1500,1500,992,1500.000000,1500.000000,1500.000000
0.938400,6871389.283147,7147.022023,0.000000,11.794932,10.269996,11.271644,1457.168926,7367.045989,-1268.656733,0.200000,0.221168,0.176309,0.000000,0.000000,0.000000,0.000000,0.059594,500000.000001,90.059591,11.271644,0.000000,0.000000,0.000000,0.000000,0.000000,0.000000,1013.250000,-0.000000,25.500000,992,1500,1500,1500,992,1500.000000,1500.000000,1500.000000
0.948500,6871389.202707,7223.945399,0.000000,11.933636,10.374349,11.399817,1473.039047,7361.877836,-1280.276724,0.200000,0.221381,0.176041,0.000000,0.000000,0.000000,0.000000,0.060235,500000.000002,90.060232,11.399817,0.000000,0.000000,0.000000,0.000000,0.000000,0.000000,1013.250000,-0.000000,25.500000,992,1500,1500,1500,992,1500.000000,1500.000000,1500.000000
0.958600,6871389.121407,7300.868774,0.000000,12.072600,10.478548,11.528161,1488.908771,7356.662135,-1291.847786,0.200000,0.221594,0.175773,0.000000,0.000000,0.000000,0.000000,0.060877,500000.000002,90.060874,11.528161,0.000000,0.000000,0.000000,0.000000,0.000000,0.000000,1013.250000,-0.000000,25.500000,992,1500,1500,1500,992,1500.000000,1500.000000,1500.000000
0.968700,6871389.039245,7377.792148,0.000000,12.211825,10.582594,11.656678,1504.777959,7351.399075,-1303.369760,0.200000,0.221806,0.175505,0.000000,0.000000,0.000000,0.000000,0.061518,500000.000002,90.061515,11.656678,0.000000,0.000000,0.000000,0.000000,0.000000,0.000000,1013.250000,-0.000000,25.500000,992,1500,1500,1500,992,1500.000000,1500.000000,1500.000000
0.978800,6871388.956222,7454.715522,0.000000,12.351312,10.686486,11.785367,1520.646472,7346.088846,-1314.842489,0.200000,0.222018,0.175237,0.000000,0.000000,0.000000,0.000000,0.062160,500000.000002,90.062157,11.785367,0.000000,0.000000,0.000000,0.000000,0.000000,0.000000,1013.250000,-0.000000,25.500000,992,1500,1500,1500,992,1500.000000,1500.000000,1500.000000
0.988900,6871388.872338,7531.638894,0.000000,12.491059,10.790222,11.914230,1536.514171,7340.731637,-1326.265818,0.200000,0.222230,0.174968,0.000000,0.000000,0.000000,0.000000,0.062801,500000.000002,90.062798,11.914230,0.000000,0.000000,0.000000,0.000000,0.000000,0.000000,1013.250000,-0.000000,25.500000,992,1500,1500,1500,992,1500.000000,1500.000000,1500.000000
0.999000,6871388.787593,7608.562265,0.000000,12.631069,10.893802,12.043267,1552.380919,7335.327641,-1337.639591,0.200000,0.222441,0.174699,0.000000,0.000000,0.000000,0.000000,0.063443,500000.000002,90.063439,12.043267,0.000000,0.000000,0.000000,0.000000,0.000000,0.000000,1013.250000,-0.000000,25.500000,992,1500,1500,1500,992,1500.000000,1500.000000,1500.000000
1.009100,6871388.701986,7685.485636,0.000000,12.771341,10.997225,12.172480,1568.246576,7329.877047,-1348.963654,0.200000,0.222653,0.174430,0.000000,0.000000,0.000000,0.000000,0.064084,500000.000002,90.064081,12.172480,0.000000,0.000000,0.000000,0.000000,0.000000,0.000000,1013.250000,-0.000000,25.500000,992,1500,1500,1500,992,1500.000000,1500.000000,1500.000000
1.019200,6871388.615519,7762.409005,0.000000,12.911875,11.100491,12.301868,1584.111004,7324.380049,-1360.237852,0.200000,0.222863,0.174161,0.000000,0.000000,0.000000,0.000000,0.064725,500000.000002,90.064722,12.301868,0.000000,0.000000,0.000000,0.000000,0.000000,0.000000,1013.250000,-0.000000,25.500000,992,1500,1500,1500,992,1500.000000,1500.000000,1500.000000
1.029300,6871388.528190,7839.332373,0.000000,13.052672,11.203598,12.431434,1599.974064,7318.836839,-1371.462033,0.200000,0.223074,0.173891,0.000000,0.000000,0.000000,0.000000,0.065367,500000.000002,90.065364,12.431434,0.000000,0.000000,0.000000,0.000000,0.000000,0.000000,1013.250000,-0.000000,25.500000,992,1500,1500,1500,992,1500.000000,1500.000000,1500.000000
1.039400,6871388.440000,7916.255741,0.000000,13.193733,11.306547,12.561176,1615.835617,7313.247611,-1382.636045,0.200000,0.223284,0.173621,0.000000,0.000000,0.000000,0.000000,0.066008,500000.000002,90.066005,12.561176,0.000000,0.000000,0.000000,0.000000,0.000000,0.000000,1013.250000,-0.000000,25.500000,992,1500,1500,1500,992,1500.000000,1500.000000,1500.000000
1.049500,6871388.350949,7993.179107,0.000000,13.335057,11.409335,12.691097,1631.695525,7307.612558,-1393.759738,0.200000,0.223494,0.173351,0.000000,0.000000,0.000000,0.000000,0.066650,500000.000002,90.066646,12.691097,0.000000,0.000000,0.000000,0.000000,0.000000,0.000000,1013.250000,-0.000000,25.500000,992,1500,1500,1500,992,1500.000000,1500.000000,1500.000000
1.059600,6871388.261037,8070.102473,0.000000,13.476644,11.511964,12.821197,1647.553650,7301.931876,-1404.832960,0.200000,0.223703,0.173080,0.000000,0.000000,0.000000,0.000000,0.067291,500000.000002,90.067288,12.821197,0.000000,0.000000,0.000000,0.000000,0.000000,0.000000,1013.250000,-0.000000,25.500000,992,1500,1500,1500,992,1500.000000,1500.000000,1500.000000
1.069700,6871388.170264,8147.025837,0.000000,13.618496,11.614431,12.951477,1663.409852,7296.205759,-1415.855564,0.200000,0.223913,0.172810,0.000000,0.000000,0.000000,0.000000,0.067932,500000.000002,90.067929,12.951477,0.000000,0.000000,0.000000,0.000000,0.000000,0.000000,1013.250000,-0.000000,25.500000,992,1500,1500,1500,992,1500.000000,1500.000000,1500.000000
1.079800,6871388.078630,8223.949201,0.000000,13.760613,11.716736,13.081937,1679.263993,7290.434404,-1426.827399,0.200000,0.224121,0.172539,0.000000,0.000000,0.000000,0.000000,0.068574,500000.000002,90.068571,13.081937,0.000000,0.000000,0.000000,0.000000,0.000000,0.000000,1013.250000,-0.000000,25.500000,992,1500,1500,1500,992,1500.000000,1500.000000,1500.000000
1.089900,6871387.986134,8300.872563,0.000000,13.902994,11.818878,13.212578,1695.115935,7284.618008,-1437.748319,0.200000,0.224330,0.172267,0.000000,0.000000,0.000000,0.000000,0.069215,500000.000002,90.069212,13.212578,0.000000,0.000000,0.000000,0.000000,0.000000,0.000000,1013.250000,-0.000000,25.500000,992,1500,1500,1500,992,1500.000000,1500.000000,1500.000000
1.100000,6871387.892778,8377.795924,0.000000,14.045641,11.920857,13.343402,1710.965540,7278.756768,-1448.618178,0.200000,0.224538,0.171996,0.000000,0.000000,0.000000,0.000000,0.069857,500000.000002,90.069853,13.343402,0.000000,0.000000,0.000000,0.000000,0.000000,0.000000,1013.250000,-0.000000,25.500000,992,1500,1500,1500,992,1500.000000,1500.000000,1500.000000
1.110100,6871387.798560,8454.719285,0.000000,14.188553,12.022671,13.474408,1726.812668,7272.850882,-1459.436829,0.200000,0.224746,0.171724,0.000000,0.000000,0.000000,0.000000,0.070498,500000.000002,90.070495,13.474408,0.000000,0.000000,0.000000,0.000000,0.000000,0.000000,1013.250000,-0.000000,25.500000,992,1500,1500,1500,992,1500.000000,1500.000000,1500.000000
1.120200,6871387.703481,8531.642644,0.000000,14.331731,12.124321,13.605597,1742.657181,7266.900547,-1470.204127,0.200000,0.224954,0.171452,0.000000,0.000000,0.000000,0.000000,0.071139,500000.000002,90.071136,13.605597,0.000000,0.000000,0.000000,0.000000,0.000000,0.000000,1013.250000,-0.000000,25.500000,992,1500,1500,1500,992,1500.000000,1500.000000,1500.000000
1.130300,6871387.607541,8608.566002,0.000000,14.475175,12.225805,13.736971,1758.498940,7260.905965,-1480.919930,0.200000,0.225161,0.171180,0.000000,0.000000,0.000000,0.000000,0.071781,500000.000002,90.071778,13.736971,0.000000,0.000000,0.000000,0.000000,0.000000,0.000000,1013.250000,-0.000000,25.500000,992,1500,1500,1500,992,1500.000000,1500.000000,1500.000000
1.140400,6871387.510740,8685.489359,0.000000,14.618885,12.327122,13.868530,1774.337808,7254.867334,-1491.584092,0.200000,0.225368,0.170907,0.000000,0.000000,0.000000,0.000000,0.072422,500000.000002,90.072419,13.868530,0.000000,0.000000,0.000000,0.000000,0.000000,0.000000,1013.250000,-0.000000,25.500000,992,1500,1500,1500,992,1500.000000,1500.000000,1500.000000
1.150500,6871387.413078,8762.412715,0.000000,14.762863,12.428272,14.000274,1790.173646,7248.784854,-1502.196473,0.200000,0.225574,0.170635,0.000000,0.000000,0.000000,0.000000,0.073064,500000.000002,90.073060,14.000274,0.000000,0.000000,0.000000,0.000000,0.000000,0.000000,1013.250000,-0.000000,25.500000,992,1500,1500,1500,992,1500.000000,1500.000000,1500.000000
1.160600,6871387.314554,8839.336070,0.000000,14.907108,12.529253,14.132204,1806.006316,7242.658728,-1512.756932,0.200000,0.225781,0.170362,0.000000,0.000000,0.000000,0.000000,0.073705,500000.000002,90.073702,14.132204,0.000000,0.000000,0.000000,0.000000,0.000000,0.000000,1013.250000,-0.000000,25.500000,992,1500,1500,1500,992,1500.000000,1500.000000,1500.000000
1.170700,6871387.215170,8916.259424,0.000000,15.051620,12.630066,14.264322,1821.835678,7236.489156,-1523.265327,0.200000,0.225986,0.170089,0.000000,0.000000,0.000000,0.000000,0.074347,500000.000002,90.074343,14.264322,0.000000,0.000000,0.000000,0.000000,0.000000,0.000000,1013.250000,-0.000000,25.500000,992,1500,1500,1500,992,1500.000000,1500.000000,1500.000000
1.180800,6871387.114924,8993.182777,0.000000,15.196400,12.730709,14.396628,1837.661596,7230.276340,-1533.721519,0.200000,0.226192,0.169815,0.000000,0.000000,0.000000,0.000000,0.074988,500000.000002,90.074985,14.396628,0.000000,0.000000,0.000000,0.000000,0.000000,0.000000,1013.250000,-0.000000,25.500000,992,1500,1500,1500,992,1500.000000,1500.000000,1500.000000
1.190900,6871387.013817,9070.106128,0.000000,15.341449,12.831182,14.529122,1853.483930,7224.020484,-1544.125370,0.200000,0.226397,0.169541,0.000000,0.000000,0.000000,0.000000,0.075629,500000.000002,90.075626,14.529122,0.000000,0.000000,0.000000,0.000000,0.000000,0.000000,1013.250000,-0.000000,25.500000,992,1500,1500,1500,992,1500.000000,1500.000000,1500.000000
1.201000,6871386.911849,9147.029479,0.000000,15.486766,12.931484,14.661805,1869.302542,7217.721791,-1554.476742,0.200000,0.226602,0.169267,0.000000,0.000000,0.000000,0.000000,0.076271,500000.000002,90.076268,14.661805,0.000000,0.000000,0.000000,0.000000,0.000000,0.000000,1013.250000,-0.000000,25.500000,992,1500,1500,1500,992,1500.000000,1500.000000,1500.000000
1.211100,6871386.809020,9223.952828,0.000000,15.632352,13.031613,14.794678,1885.117294,7211.380466,-1564.775498,0.200000,0.226807,0.168993,0.000000,0.000000,0.000000,0.000000,0.076912,500000.000002,90.076909,14.794678,0.000000,0.000000,0.000000,0.000000,0.000000,0.000000,1013.250000,-0.000000,25.500000,992,1500,1500,1500,992,1500.000000,1500.000000,1500.000000
1.221200,6871386.705330,9300.876176,0.000000,15.778207,13.131570,14.927742,1900.928048,7204.996712,-1575.021503,0.200000,0.227011,0.168719,0.000000,0.000000,0.000000,0.000000,0.077554,500000.000002,90.077550,14.927742,0.000000,0.000000,0.000000,0.000000,0.000000,0.000000,1013.250000,-0.000000,25.500000,992,1500,1500,1500,992,1500.000000,1500.000000,1500.000000
1.231300,6871386.600779,9377.799523,0.000000,15.924331,13.231354,15.060998,1916.734665,7198.570734,-1585.214622,0.200000,0.227215,0.168444,0.000000,0.000000,0.000000,0.000000,0.078195,500000.000003,90.078192,15.060998,0.000000,0.000000,0.000000,0.000000,0.000000,0.000000,1013.250000,-0.000000,25.500000,992,1500,1500,1500,992,1500.000000,1500.000000,1500.000000
1.241400,6871386.495366,9454.722869,0.000000,16.070725,13.330962,15.194445,1932.537008,7192.102740,-1595.354720,0.200000,0.227418,0.168169,0.000000,0.000000,0.000000,0.000000,0.078836,500000.000003,90.078833,15.194445,0.000000,0.000000,0.000000,0.000000,0.000000,0.000000,1013.250000,-0.000000,25.500000,992,1500,1500,1500,992,1500.000000,1500.000000,1500.000000
1.251500,6871386.389092,9531.646213,0.000000,16.217390,13.430396,15.328086,1948.334939,7185.592935,-1605.441665,0.200000,0.227622,0.167894,0.000000,0.000000,0.000000,0.000000,0.079478,500000.000003,90.079475,15.328086,0.000000,0.000000,0.000000,0.000000,0.000000,0.000000,1013.250000,-0.000000,25.500000,992,1500,1500,1500,992,1500.000000,1500.000000,1500.000000
1.261600,6871386.281958,9608.569557,0.000000,16.364325,13.529654,15.461919,1964.128318,7179.041525,-1615.475324,0.200000,0.227825,0.167618,0.000000,0.000000,0.000000,0.000000,0.080119,500000.000003,90.080116,15.461919,0.000000,0.000000,0.000000,0.000000,0.000000,0.000000,1013.250000,-0.000000,25.500000,992,1500,1500,1500,992,1500.000000,1500.000000,1500.000000
1.271700,6871386.173962,9685.492899,0.000000,16.511531,13.628735,15.595947,1979.917009,7172.448719,-1625.455566,0.200000,0.228027,0.167343,0.000000,0.000000,0.000000,0.000000,0.080761,500000.000003,90.080757,15.595947,0.000000,0.000000,0.000000,0.000000,0.000000,0.000000,1013.250000,-0.000000,25.500000,992,1500,1500,1500,992,1500.000000,1500.000000,1500.000000
1.281800,6871386.065105,9762.416240,0.000000,16.659008,13.727639,15.730170,1995.700874,7165.814725,-1635.382262,0.200000,0.228229,0.167067,0.000000,0.000000,0.000000,0.000000,0.081402,500000.000003,90.081399,15.730170,0.000000,0.000000,0.000000,0.000000,0.000000,0.000000,1013.250000,-0.000000,25.500000,992,1500,1500,1500,992,1500.000000,1500.000000,1500.000000
1.291900,6871385.955387,9839.339580,0.000000,16.806756,13.826364,15.864589,2011.479774,7159.139751,-1645.255281,0.200000,0.228431,0.166791,0.000000,0.000000,0.000000,0.000000,0.082043,500000.000003,90.082040,15.864589,0.000000,0.000000,0.000000,0.000000,0.000000,0.000000,1013.250000,-0.000000,25.500000,992,1500,1500,1500,992,1500.000000,1500.000000,1500.000000
1.302000,6871385.844807,9916.262918,0.000000,16.954777,13.924910,15.999204,2027.253571,7152.424007,-1655.074495,0.200000,0.228633,0.166514,0.000000,0.000000,0.000000,0.000000,0.082685,500000.000003,90.082682,15.999204,0.000000,0.000000,0.000000,0.000000,0.000000,0.000000,1013.250000,-0.000000,25.500000,992,1500,1500,1500,992,1500.000000,1500.000000,1500.000000
1.312100,6871385.733367,9993.186255,0.000000,17.103069,14.023276,16.134016,2043.022128,7145.667701,-1664.839776,0.200000,0.228834,0.166237,0.000000,0.000000,0.000000,0.000000,0.083326,500000.000003,90.083323,16.134016,0.000000,0.000000,0.000000,0.000000,0.000000,0.000000,1013.250000,-0.000000,25.500000,992,1500,1500,1500,992,1500.000000,1500.000000,1500.000000
1.322200,6871385.621065,10070.109591,0.000000,17.251634,14.121461,16.269025,2058.785306,7138.871046,-1674.550999,0.200000,0.229035,0.165961,0.000000,0.000000,0.000000,0.000000,0.083968,500000.000003,90.083964,16.269025,0.000000,0.000000,0.000000,0.000000,0.000000,0.000000,1013.250000,-0.000000,25.500000,992,1500,1500,1500,992,1500.000000,1500.000000,1500.000000
1.332300,6871385.507902,10147.032926,0.000000,17.400471,14.219465,16.404233,2074.542969,7132.034250,-1684.208037,0.200000,0.229236,0.165683,0.000000,0.000000,0.000000,0.000000,0.084609,500000.000003,90.084606,16.404233,0.000000,0.000000,0.000000,0.000000,0.000000,0.000000,1013.250000,-0.000000,25.500000,992,1500,1500,1500,992,1500.000000,1500.000000,1500.000000
1.342400,6871385.393879,10223.956260,0.000000,17.549582,14.317287,16.539640,2090.294978,7125.157527,-1693.810766,0.200000,0.229436,0.165406,0.000000,0.000000,0.000000,0.000000,0.085251,500000.000003,90.085247,16.539640,0.000000,0.000000,0.000000,0.000000,0.000000,0.000000,1013.250000,-0.000000,25.500000,992,1500,1500,1500,992,1500.000000,1500.000000,1500.000000
1.352500,6871385.278994,10300.879592,0.000000,17.698966,14.414925,16.675247,2106.041196,7118.241087,-1703.359062,0.200000,0.229636,0.165128,0.000000,0.000000,0.000000,0.000000,0.085892,500000.000003,90.085889,16.675247,0.000000,0.000000,0.000000,0.000000,0.000000,0.000000,1013.250000,-0.000000,25.500000,992,1500,1500,1500,992,1500.000000,1500.000000,1500.000000
1.362600,6871385.163248,10377.802923,0.000000,17.848623,14.512379,16.811054,2121.781485,7111.285144,-1712.852803,0.200000,0.229835,0.164850,0.000000,0.000000,0.000000,0.000000,0.086533,500000.000003,90.086530,16.811054,0.000000,0.000000,0.000000,0.000000,0.000000,0.000000,1013.250000,-0.000000,25.500000,992,1500,1500,1500,992,1500.000000,1500.000000,1500.000000
1.372700,6871385.046640,10454.726252,0.000000,17.998555,14.609648,16.947062,2137.515707,7104.289910,-1722.291865,0.200000,0.230035,0.164572,0.000000,0.000000,0.000000,0.000000,0.087175,500000.000003,90.087172,16.947062,0.000000,0.000000,0.000000,0.000000,0.000000,0.000000,1013.250000,-0.000000,25.500000,992,1500,1500,1500,992,1500.000000,1500.000000,1500.000000
1.382800,6871384.929172,10531.649581,0.000000,18.148760,14.706732,17.083272,2153.243725,7097.255599,-1731.676130,0.200000,0.230234,0.164294,0.000000,0.000000,0.000000,0.000000,0.087816,500000.000003,90.087813,17.083272,0.000000,0.000000,0.000000,0.000000,0.000000,0.000000,1013.250000,-0.000000,25.500000,992,1500,1500,1500,992,1500.000000,1500.000000,1500.000000
1.392900,6871384.810842,10608.572908,0.000000,18.299241,14.803629,17.219685,2168.965401,7090.182425,-1741.005476,0.200000,0.230432,0.164015,0.000000,0.000000,0.000000,0.000000,0.088458,500000.000003,90.088454,17.219685,0.000000,0.000000,0.000000,0.000000,0.000000,0.000000,1013.250000,-0.000000,25.500000,992,1500,1500,1500,992,1500.000000,1500.000000,1500.000000
1.403000,6871384.691652,10685.496233,0.000000,18.449996,14.900339,17.356300,2184.680599,7083.070602,-1750.279784,0.200000,0.230630,0.163737,0.000000,0.000000,0.000000,0.000000,0.089099,500000.000003,90.089096,17.356300,0.000000,0.000000,0.000000,0.000000,0.000000,0.000000,1013.250000,-0.000000,25.500000,992,1500,1500,1500,992,1500.000000,1500.000000,1500.000000
1.413100,6871384.571600,10762.419558,0.000000,18.601026,14.996861,17.493119,2200.389180,7075.920346,-1759.498937,0.200000,0.230828,0.163457,0.000000,0.000000,0.000000,0.000000,0.089740,500000.000003,90.089737,17.493119,0.000000,0.000000,0.000000,0.000000,0.000000,0.000000,1013.250000,-0.000000,25.500000,992,1500,1500,1500,992,1500.000000,1500.000000,1500.000000
1.423200,6871384.450687,10839.342881,0.000000,18.752332,15.093194,17.630143,2216.091008,7068.731872,-1768.662818,0.200000,0.231026,0.163178,0.000000,0.000000,0.000000,0.000000,0.090382,500000.000003,90.090379,17.630143,0.000000,0.000000,0.000000,0.000000,0.000000,0.000000,1013.250000,-0.000000,25.500000,992,1500,1500,1500,992,1500.000000,1500.000000,1500.000000
1.433300,6871384.328913,10916.266202,0.000000,18.903913,15.189337,17.767371,2231.785945,7061.505396,-1777.771310,0.200000,0.231223,0.162899,0.000000,0.000000,0.000000,0.000000,0.091023,500000.000003,90.091020,17.767371,0.000000,0.000000,0.000000,0.000000,0.000000,0.000000,1013.250000,-0.000000,25.500000,992,1500,1500,1500,992,1500.000000,1500.000000,1500.000000
1.443400,6871384.206278,10993.189522,0.000000,19.055771,15.285289,17.904805,2247.473854,7054.241135,-1786.824298,0.200000,0.231420,0.162619,0.000000,0.000000,0.000000,0.000000,0.091665,500000.000003,90.091661,17.904805,0.000000,0.000000,0.000000,0.000000,0.000000,0.000000,1013.250000,-0.000000,25.500000,992,1500,1500,1500,992,1500.000000,1500.000000,1500.000000
1.453500,6871384.082781,11070.112841,0.000000,19.207905,15.381050,18.042445,2263.154598,7046.939307,-1795.821669,0.200000,0.231616,0.162339,0.000000,0.000000,0.000000,0.000000,0.092306,500000.000004,90.092303,18.042445,0.000000,0.000000,0.000000,0.000000,0.000000,0.000000,1013.250000,-0.000000,25.500000,992,1500,1500,1500,992,1500.000000,1500.000000,1500.000000
1.463600,6871383.958424,11147.036159,0.000000,19.360316,15.476619,18.180293,2278.828040,7039.600128,-1804.763308,0.200000,0.231813,0.162058,0.000000,0.000000,0.000000,0.000000,0.092947,500000.000004,90.092944,18.180293,0.000000,0.000000,0.000000,0.000000,0.000000,0.000000,1013.250000,-0.000000,25.500000,992,1500,1500,1500,992,1500.000000,1500.000000,1500.000000
1.473700,6871383.833205,11223.959475,0.000000,19.513003,15.571994,18.318348,2294.494042,7032.223817,-1813.649104,0.200000,0.232008,0.161778,0.000000,0.000000,0.000000,0.000000,0.093589,500000.000004,90.093586,18.318348,0.000000,0.000000,0.000000,0.000000,0.000000,0.000000,1013.250000,-0.000000,25.500000,992,1500,1500,1500,992,1500.000000,1500.000000,1500.000000
1.483800,6871383.707125,11300.882790,0.000000,19.665968,15.667176,18.456611,2310.152468,7024.810593,-1822.478945,0.200000,0.232204,0.161497,0.000000,0.000000,0.000000,0.000000,0.094230,500000.000004,90.094227,18.456611,0.000000,0.000000,0.000000,0.000000,0.000000,0.000000,1013.250000,-0.000000,25.500000,992,1500,1500,1500,992,1500.000000,1500.000000,1500.000000
1.493900,6871383.580184,11377.806103,0.000000,19.819210,15.762162,18.595083,2325.803181,7017.360674,-1831.252721,0.200000,0.232399,0.161216,0.000000,0.000000,0.000000,0.000000,0.094872,500000.000004,90.094868,18.595083,0.000000,0.000000,0.000000,0.000000,0.000000,0.000000,1013.250000,-0.000000,25.500000,992,1500,1500,1500,992,1500.000000,1500.000000,1500.000000
1.504000,6871383.452382,11454.729415,0.000000,19.972730,15.856953,18.733764,2341.446045,7009.874280,-1839.970323,0.200000,0.232594,0.160935,0.000000,0.000000,0.000000,0.000000,0.095513,500000.000004,90.095510,18.733764,0.000000,0.000000,0.000000,0.000000,0.000000,0.000000,1013.250000,-0.000000,25.500000,992,1500,1500,1500,992,1500.000000,1500.000000,1500.000000
1.514100,6871383.323719,11531.652725,0.000000,20.126528,15.951547,18.872656,2357.080922,7002.351631,-1848.631642,0.200000,0.232788,0.160654,0.000000,0.000000,0.000000,0.000000,0.096154,500000.000004,90.096151,18.872656,0.000000,0.000000,0.000000,0.000000,0.000000,0.000000,1013.250000,-0.000000,25.500000,992,1500,1500,1500,992,1500.000000,1500.000000,1500.000000
1.524200,6871383.194195,11608.576034,0.000000,20.280605,16.045944,19.011758,2372.707676,6994.792949,-1857.236571,0.200000,0.232983,0.160372,0.000000,0.000000,0.000000,0.000000,0.096796,500000.000004,90.096793,19.011758,0.000000,0.000000,0.000000,0.000000,0.000000,0.000000,1013.250000,-0.000000,25.500000,992,1500,1500,1500,992,1500.000000,1500.000000,1500.000000
1.534300,6871383.063810,11685.499341,0.000000,20.434960,16.140143,19.151072,2388.326170,6987.198453,-1865.785004,0.200000,0.233176,0.160090,0.000000,0.000000,0.000000,0.000000,0.097437,500000.000004,90.097434,19.151072,0.000000,0.000000,0.000000,0.000000,0.000000,0.000000,1013.250000,-0.000000,25.500000,992,1500,1500,1500,992,1500.000000,1500.000000,1500.000000
1.544400,6871382.932563,11762.422648,0.000000,20.589593,16.234142,19.290597,2403.936267,6979.568365,-1874.276835,0.200000,0.233370,0.159808,0.000000,0.000000,0.000000,0.000000,0.098079,500000.000004,90.098075,19.290597,0.000000,0.000000,0.000000,0.000000,0.000000,0.000000,1013.250000,-0.000000,25.500000,992,1500,1500,1500,992,1500.000000,1500.000000,1500.000000
1.554500,6871382.800455,11839.345952,0.000000,20.744506,16.327942,19.430335,2419.537832,6971.902907,-1882.711959,0.200000,0.233563,0.159525,0.000000,0.000000,0.000000,0.000000,0.098720,500000.000004,90.098717,19.430335,0.000000,0.000000,0.000000,0.000000,0.000000,0.000000,1013.250000,-0.000000,25.500000,992,1500,1500,1500,992,1500.000000,1500.000000,1500.000000
1.564600,6871382.667486,11916.269255,0.000000,20.899699,16.421540,19.570286,2435.130728,6964.202302,-1891.090274,0.200000,0.233756,0.159243,0.000000,0.000000,0.000000,0.000000,0.099362,500000.000004,90.099358,19.570286,0.000000,0.000000,0.000000,0.000000,0.000000,0.000000,1013.250000,-0.000000,25.500000,992,1500,1500,1500,992,1500.000000,1500.000000,1500.000000
1.574700,6871382.533656,11993.192557,0.000000,21.055171,16.514937,19.710451,2450.714818,6956.466773,-1899.411676,0.200000,0.233948,0.158960,0.000000,0.000000,0.000000,0.000000,0.100003,500000.000004,90.100000,19.710451,0.000000,0.000000,0.000000,0.000000,0.000000,0.000000,1013.250000,-0.000000,25.500000,992,1500,1500,1500,992,1500.000000,1500.000000,1500.000000
1.584800,6871382.398965,12070.115857,0.000000,21.210923,16.608132,19.850830,2466.289966,6948.696541,-1907.676065,0.200000,0.234140,0.158677,0.000000,0.000000,0.000000,0.000000,0.100644,500000.000004,90.100641,19.850830,0.000000,0.000000,0.000000,0.000000,0.000000,0.000000,1013.250000,-0.000000,25.500000,992,1500,1500,1500,992,1500.000000,1500.000000,1500.000000
1.594900,6871382.263413,12147.039155,0.000000,21.366955,16.701123,19.991424,2481.856037,6940.891833,-1915.883340,0.200000,0.234332,0.158393,0.000000,0.000000,0.000000,0.000000,0.101286,500000.000004,90.101283,19.991424,0.000000,0.000000,0.000000,0.000000,0.000000,0.000000,1013.250000,-0.000000,25.500000,992,1500,1500,1500,992,1500.000000,1500.000000,1500.000000
1.605000,6871382.127000,12223.962452,0.000000,21.523267,16.793909,20.132233,2497.412894,6933.052870,-1924.033400,0.200000,0.234524,0.158110,0.000000,0.000000,0.000000,0.000000,0.101927,500000.000004,90.101924,20.132233,0.000000,0.000000,0.000000,0.000000,0.000000,0.000000,1013.250000,-0.000000,25.500000,992,1500,1500,1500,992,1500.000000,1500.000000,1500.000000
1.615100,6871381.989725,12300.885748,0.000000,21.679860,16.886490,20.273259,2512.960401,6925.179879,-1932.126149,0.200000,0.234715,0.157826,0.000000,0.000000,0.000000,0.000000,0.102569,500000.000004,90.102565,20.273259,0.000000,0.000000,0.000000,0.000000,0.000000,0.000000,1013.250000,-0.000000,25.500000,992,1500,1500,1500,992,1500.000000,1500.000000,1500.000000
1.625200,6871381.851589,12377.809042,0.000000,21.836734,16.978866,20.414501,2528.498422,6917.273085,-1940.161488,0.200000,0.234905,0.157542,0.000000,0.000000,0.000000,0.000000,0.103210,500000.000004,90.103207,20.414501,0.000000,0.000000,0.000000,0.000000,0.000000,0.000000,1013.250000,-0.000000,25.500000,992,1500,1500,1500,992,1500.000000,1500.000000,1500.000000
1.635300,6871381.712593,12454.732334,0.000000,21.993889,17.071034,20.555960,2544.026821,6909.332711,-1948.139320,0.200000,0.235096,0.157258,0.000000,0.000000,0.000000,0.000000,0.103851,500000.000004,90.103848,20.555960,0.000000,0.000000,0.000000,0.000000,0.000000,0.000000,1013.250000,-0.000000,25.500000,992,1500,1500,1500,992,1500.000000,1500.000000,1500.000000
1.645400,6871381.572735,12531.655625,0.000000,22.151326,17.162995,20.697638,2559.545463,6901.358986,-1956.059551,0.200000,0.235286,0.156973,0.000000,0.000000,0.000000,0.000000,0.104493,500000.000005,90.104490,20.697638,0.000000,0.000000,0.000000,0.000000,0.000000,0.000000,1013.250000,-0.000000,25.500000,992,1500,1500,1500,992,1500.000000,1500.000000,1500.000000
1.655500,6871381.432016,12608.578914,0.000000,22.309044,17.254746,20.839533,2575.054212,6893.352134,-1963.922085,0.200000,0.235475,0.156689,0.000000,0.000000,0.000000,0.000000,0.105134,500000.000005,90.105131,20.839533,0.000000,0.000000,0.000000,0.000000,0.000000,0.000000,1013.250000,-0.000000,25.500000,992,1500,1500,1500,992,1500.000000,1500.000000,1500.000000
