Time (sec) ,X(m) ,Y(m) ,Z(m) ,Roll (deg) ,Pitch (deg) ,Yaw (deg) ,U(m/s) ,V(m/s) ,W(m/s) ,P(rad/s) ,Q(rad/s) ,R(rad/s) ,Mx(Gauss) ,My(Gauss) ,Mz(Gauss) ,GPS Latitude (deg) ,GPS Longitude (deg) ,GPS Altitude (m) ,GPS Heading (deg) ,Yaw (deg) ,Analog 1 (V) ,Analog 2 (V) ,Analog 3 (V) ,Analog 4 (V) ,Analog 5 (V) ,Analog 6 (V) ,Pressure (Pa) ,Pressure Altitude (m) ,Temperature (C) ,RC In Channel #5 ,PWM Model 1 ,PWM Model 2 ,PWM Model 3 ,PWM Model 4 
 0.000022,20.010000,-0.000000,-9.999998,0.057141,-0.000045,-0.000200,9.999710,0.000008,0.004207,0.994591,-0.001570,-0.006970,0.000000,0.000000,0.000000,30.491864,-88.211945,9.999998,-0.000092,-0.000200,0.000000,0.000000,0.000000,0.000000,0.000000,0.000000,1012.049262,9.999998,25.500000,0.000000,992.000000,1489.000000,1470.000000,1501.000000
0.101001,21.018894,0.000560,-9.982448,4.418556,-0.522701,-1.554626,9.980329,0.304582,0.203757,0.538980,-0.207232,-0.429166,0.000000,0.000000,0.000000,30.491873,-88.211945,9.982448,0.097657,-1.554626,0.000000,0.000000,0.000000,0.000000,0.000000,0.000000,1012.051368,9.982448,25.500000,0.000000,992.000000,1488.000000,1482.000000,1501.000000
0.202000,22.026936,0.004030,-9.935921,6.650376,-1.352723,-4.190098,9.963106,0.819477,0.274902,0.240844,-0.116619,-0.387594,0.000000,0.000000,0.000000,30.491882,-88.211945,9.935921,0.302507,-4.190098,0.000000,0.000000,0.000000,0.000000,0.000000,0.000000,1012.056952,9.935921,25.500000,0.000000,992.000000,1488.000000,1392.000000,1501.000000
0.302001,23.025963,0.011618,-9.864420,7.499486,-1.558723,-5.671609,9.960914,1.150470,0.393530,0.056060,-0.024650,-0.092072,0.000000,0.000000,0.000000,30.491891,-88.211944,9.864420,0.578948,-5.671609,0.000000,0.000000,0.000000,0.000000,0.000000,0.000000,1012.065534,9.864420,25.500000,0.000000,992.000000,1481.000000,1362.000000,1502.000000
0.403000,24.037878,0.025063,-9.776237,7.408570,-1.763734,-5.194078,10.006150,1.146045,0.471160,-0.081339,-0.035514,0.260857,0.000000,0.000000,0.000000,30.491900,-88.211944,9.776237,0.954397,-5.194078,0.000000,0.000000,0.000000,0.000000,0.000000,0.000000,1012.076117,9.776237,25.500000,0.000000,992.000000,1462.000000,1365.000000,1504.000000
0.503001,25.044099,0.045630,-9.680247,6.590164,-2.245445,-2.901859,10.092926,0.819546,0.507941,-0.170092,-0.022545,0.531104,0.000000,0.000000,0.000000,30.491909,-88.211944,9.680247,1.391789,-2.901859,0.000000,0.000000,0.000000,0.000000,0.000000,0.000000,1012.087638,9.680247,25.500000,0.000000,992.000000,1454.000000,1346.000000,1505.000000
0.604001,26.065841,0.074868,-9.577518,5.307842,-2.686093,0.554056,10.187961,0.287677,0.535230,-0.216698,-0.003545,0.641030,0.000000,0.000000,0.000000,30.491919,-88.211944,9.577518,1.888625,0.554056,0.000000,0.000000,0.000000,0.000000,0.000000,0.000000,1012.099967,9.577518,25.500000,0.000000,1128.000000,1451.000000,1338.000000,1505.000000
0.705001,27.094262,0.113554,-9.471701,3.810357,-2.941315,4.149313,10.264284,-0.273077,0.549441,-0.236213,0.018123,0.576837,0.000000,0.000000,0.000000,30.491928,-88.211943,9.471701,2.415577,4.149313,0.000000,0.000000,0.000000,0.000000,0.000000,0.000000,1012.112668,9.471701,25.500000,0.000000,1204.000000,1452.000000,1330.000000,1505.000000
0.806000,28.130297,0.162000,-9.364822,2.280540,-2.888579,6.995006,10.325984,-0.709348,0.566473,-0.237780,0.061447,0.388667,0.000000,0.000000,0.000000,30.491937,-88.211943,9.364822,2.925672,6.995006,0.000000,0.000000,0.000000,0.000000,0.000000,0.000000,1012.125496,9.364822,25.500000,0.000000,1262.000000,1458.000000,1314.000000,1504.000000
0.906001,29.164454,0.218989,-9.260318,0.856133,-2.481452,8.568074,10.398465,-0.935201,0.591438,-0.230054,0.096718,0.154800,0.000000,0.000000,0.000000,30.491946,-88.211942,9.260318,3.361986,8.568074,0.000000,0.000000,0.000000,0.000000,0.000000,0.000000,1012.138039,9.260318,25.500000,0.000000,1347.000000,1465.000000,1306.000000,1503.000000
1.006001,30.208195,0.283397,-9.160602,-0.446436,-1.846839,8.831886,10.491664,-0.949879,0.617180,-0.216931,0.131504,-0.053951,0.000000,0.000000,0.000000,30.491956,-88.211942,9.160602,3.671180,8.831886,0.000000,0.000000,0.000000,0.000000,0.000000,0.000000,1012.150007,9.160602,25.500000,0.000000,1373.000000,1473.000000,1294.000000,1503.000000
1.107000,31.272441,0.353263,-9.068458,-1.639975,-1.078644,8.063038,10.595196,-0.805829,0.633405,-0.197833,0.127539,-0.191889,0.000000,0.000000,0.000000,30.491965,-88.211941,9.068458,3.807082,8.063038,0.000000,0.000000,0.000000,0.000000,0.000000,0.000000,1012.161067,9.068458,25.500000,0.000000,1383.000000,1481.000000,1303.000000,1502.000000
1.207001,32.336036,0.423826,-8.989033,-2.694574,-0.444263,6.749945,10.702048,-0.589513,0.621743,-0.172464,0.109815,-0.243924,0.000000,0.000000,0.000000,30.491975,-88.211940,8.989033,3.755756,6.749945,0.000000,0.000000,0.000000,0.000000,0.000000,0.000000,1012.170600,8.989033,25.500000,0.000000,1451.000000,1488.000000,1309.000000,1501.000000
1.308000,33.420917,0.493179,-8.921469,-3.603729,0.082641,5.324951,10.809760,-0.376159,0.599135,-0.138900,0.095599,-0.228478,0.000000,0.000000,0.000000,30.491985,-88.211939,8.921469,3.536885,5.324951,0.000000,0.000000,0.000000,0.000000,0.000000,0.000000,1012.178710,8.921469,25.500000,0.000000,1484.000000,1495.000000,1317.000000,1501.000000
1.408001,34.505627,0.557081,-8.866831,-4.300829,0.531109,4.112616,10.909081,-0.219342,0.573859,-0.099784,0.088928,-0.179726,0.000000,0.000000,0.000000,30.491994,-88.211939,8.866831,3.192347,4.112616,0.000000,0.000000,0.000000,0.000000,0.000000,0.000000,1012.185268,8.866831,25.500000,0.000000,1502.000000,1500.000000,1322.000000,1500.000000
1.509001,35.611528,0.614636,-8.823347,-4.773854,0.981112,3.186048,11.007679,-0.128772,0.553595,-0.057026,0.092026,-0.128531,0.000000,0.000000,0.000000,30.492004,-88.211938,8.823347,2.760511,3.186048,0.000000,0.000000,0.000000,0.000000,0.000000,0.000000,1012.190487,8.823347,25.500000,0.000000,1553.000000,1505.000000,1324.000000,1499.000000
1.610001,36.728213,0.663822,-8.791323,-4.996558,1.493024,2.497791,11.105802,-0.089550,0.543775,-0.013652,0.109222,-0.097143,0.000000,0.000000,0.000000,30.492014,-88.211938,8.791323,2.284509,2.497791,0.000000,0.000000,0.000000,0.000000,0.000000,0.000000,1012.194331,8.791323,25.500000,0.000000,1555.000000,1509.000000,1320.000000,1499.000000
1.710001,37.843677,0.703516,-8.771459,-4.980281,2.106840,1.913005,11.192520,-0.070724,0.541583,0.026834,0.113824,-0.090774,0.000000,0.000000,0.000000,30.492025,-88.211937,8.771459,1.795593,1.913005,0.000000,0.000000,0.000000,0.000000,0.000000,0.000000,1012.196715,8.771459,25.500000,0.000000,1555.000000,1513.000000,1326.000000,1499.000000
1.811001,38.978948,0.734187,-8.764790,-4.747190,2.699800,1.305764,11.269151,-0.043889,0.527292,0.061473,0.106819,-0.102373,0.000000,0.000000,0.000000,30.492035,-88.211937,8.764790,1.307624,1.305764,0.000000,0.000000,0.000000,0.000000,0.000000,0.000000,1012.197516,8.764790,25.500000,0.000000,1554.000000,1515.000000,1330.000000,1499.000000
1.912001,40.121566,0.755538,-8.771827,-4.355039,3.256399,0.621257,11.338631,0.004795,0.509515,0.083893,0.101085,-0.116866,0.000000,0.000000,0.000000,30.492045,-88.211937,8.771827,0.842951,0.621257,0.000000,0.000000,0.000000,0.000000,0.000000,0.000000,1012.196671,8.771827,25.500000,0.000000,1584.000000,1515.000000,1335.000000,1499.000000
2.013000,41.271060,0.767999,-8.792350,-3.879872,3.781395,-0.110762,11.404783,0.070173,0.490411,0.093539,0.096779,-0.119187,0.000000,0.000000,0.000000,30.492055,-88.211937,8.792350,0.409402,-0.110762,0.000000,0.000000,0.000000,0.000000,0.000000,0.000000,1012.194208,8.792350,25.500000,0.000000,1584.000000,1514.000000,1339.000000,1499.000000
2.113001,42.414926,0.772137,-8.825511,-3.386327,4.285395,-0.791985,11.459600,0.133518,0.471848,0.093246,0.088984,-0.103719,0.000000,0.000000,0.000000,30.492066,-88.211937,8.825511,0.015409,-0.791985,0.000000,0.000000,0.000000,0.000000,0.000000,0.000000,1012.190227,8.825511,25.500000,0.000000,1585.000000,1512.000000,1346.000000,1499.000000
2.214000,43.574855,0.768725,-8.871432,-2.905685,4.745497,-1.337496,11.505215,0.177090,0.449592,0.086467,0.079142,-0.073750,0.000000,0.000000,0.000000,30.492076,-88.211937,8.871432,-0.341408,-1.337496,0.000000,0.000000,0.000000,0.000000,0.000000,0.000000,1012.184715,8.871432,25.500000,0.000000,1584.000000,1510.000000,1351.000000,1499.000000
2.315002,44.738325,0.758526,-8.928784,-2.461064,5.170801,-1.685460,11.541565,0.189495,0.429307,0.075886,0.070505,-0.039574,0.000000,0.000000,0.000000,30.492087,-88.211937,8.928784,-0.651984,-1.685460,0.000000,0.000000,0.000000,0.000000,0.000000,0.000000,1012.177831,8.928784,25.500000,0.000000,1583.000000,1507.000000,1357.000000,1499.000000
2.416000,45.904351,0.742479,-8.996480,-2.075964,5.548176,-1.840315,11.569951,0.171848,0.409351,0.061093,0.060802,-0.010175,0.000000,0.000000,0.000000,30.492097,-88.211937,8.996480,-0.914115,-1.840315,0.000000,0.000000,0.000000,0.000000,0.000000,0.000000,1012.169706,8.996480,25.500000,0.000000,1584.000000,1504.000000,1362.000000,1500.000000
2.516001,47.060583,0.721781,-9.072514,-1.772675,5.875104,-1.847864,11.591423,0.133183,0.391442,0.045127,0.052027,0.009421,0.000000,0.000000,0.000000,30.492107,-88.211937,9.072514,-1.127761,-1.847864,0.000000,0.000000,0.000000,0.000000,0.000000,0.000000,1012.160580,9.072514,25.500000,0.000000,1584.000000,1502.000000,1367.000000,1500.000000
2.616001,48.217924,0.697157,-9.156355,-1.548139,6.151421,-1.772247,11.606717,0.084718,0.374761,0.030467,0.043610,0.017533,0.000000,0.000000,0.000000,30.492118,-88.211937,9.156355,-1.302349,-1.772247,0.000000,0.000000,0.000000,0.000000,0.000000,0.000000,1012.150517,9.156355,25.500000,0.000000,1585.000000,1500.000000,1371.000000,1500.000000
2.717001,49.387455,0.669025,-9.247783,-1.404753,6.383657,-1.676814,11.616898,0.037369,0.359323,0.015404,0.032906,0.015913,0.000000,0.000000,0.000000,30.492128,-88.211938,9.247783,-1.447823,-1.676814,0.000000,0.000000,0.000000,0.000000,0.000000,0.000000,1012.139543,9.247783,25.500000,0.000000,1585.000000,1498.000000,1378.000000,1500.000000
2.818001,50.557180,0.638146,-9.344889,-1.352422,6.529359,-1.604666,11.622451,-0.001667,0.339479,0.001300,0.018934,0.009793,0.000000,0.000000,0.000000,30.492139,-88.211938,9.344889,-1.572698,-1.604666,0.000000,0.000000,0.000000,0.000000,0.000000,0.000000,1012.127888,9.344889,25.500000,0.000000,1584.000000,1498.000000,1382.000000,1500.000000
2.918001,51.715214,0.605186,-9.445079,-1.366273,6.614098,-1.572872,11.624141,-0.030650,0.323057,-0.007976,0.009434,0.001408,0.000000,0.000000,0.000000,30.492149,-88.211938,9.445079,-1.685771,-1.572872,0.000000,0.000000,0.000000,0.000000,0.000000,0.000000,1012.115863,9.445079,25.500000,0.000000,1583.000000,1496.000000,1388.000000,1500.000000
3.019001,52.884519,0.569620,-9.548956,-1.452264,6.626468,-1.588321,11.623435,-0.050202,0.305361,-0.020010,-0.002911,-0.005826,0.000000,0.000000,0.000000,30.492160,-88.211939,9.548956,-1.797754,-1.588321,0.000000,0.000000,0.000000,0.000000,0.000000,0.000000,1012.103395,9.548956,25.500000,0.000000,1584.000000,1496.000000,1392.000000,1500.000000
3.120000,54.053502,0.531738,-9.653998,-1.594844,6.595663,-1.634687,11.621881,-0.064874,0.299834,-0.026238,0.031209,-0.010063,0.000000,0.000000,0.000000,30.492170,-88.211939,9.653998,-1.913698,-1.634687,0.000000,0.000000,0.000000,0.000000,0.000000,0.000000,1012.090788,9.653998,25.500000,0.000000,1583.000000,1497.000000,1334.000000,1500.000000
3.220001,55.210686,0.491809,-9.757651,-1.753856,7.294696,-1.726241,11.615918,-0.076892,0.415352,-0.016613,0.167790,-0.013517,0.000000,0.000000,0.000000,30.492181,-88.211939,9.757651,-2.043018,-1.726241,0.000000,0.000000,0.000000,0.000000,0.000000,0.000000,1012.078348,9.757651,25.500000,0.000000,1585.000000,1518.000000,1332.000000,1498.000000
3.321000,56.377982,0.448600,-9.870840,-1.619195,8.257848,-1.884711,11.603514,-0.076383,0.472341,0.057883,0.118196,-0.040525,0.000000,0.000000,0.000000,30.492191,-88.211940,9.870840,-2.196430,-1.884711,0.000000,0.000000,0.000000,0.000000,0.000000,0.000000,1012.064763,9.870840,25.500000,0.000000,1584.000000,1506.000000,1423.000000,1499.000000
3.422001,57.541806,0.402459,-9.999693,-1.352726,7.991715,-2.244372,11.586456,-0.025649,0.296344,0.051229,-0.127165,-0.078440,0.000000,0.000000,0.000000,30.492202,-88.211940,9.999693,-2.336542,-2.244372,0.000000,0.000000,0.000000,0.000000,0.000000,0.000000,1012.049298,9.999693,25.500000,0.000000,1585.000000,1505.000000,1424.000000,1500.000000
3.522001,58.691307,0.354381,-10.129689,-1.151130,7.238061,-2.699334,11.565378,0.045933,0.195603,0.040567,-0.108531,-0.078743,0.000000,0.000000,0.000000,30.492212,-88.211941,10.129689,-2.450383,-2.699334,0.000000,0.000000,0.000000,0.000000,0.000000,0.000000,1012.033697,10.129689,25.500000,0.000000,1584.000000,1503.000000,1368.000000,1500.000000
3.623001,59.851183,0.303630,-10.251847,-1.007511,7.282052,-3.087909,11.546623,0.100468,0.291861,0.027521,0.073201,-0.050605,0.000000,0.000000,0.000000,30.492223,-88.211941,10.251847,-2.560870,-3.087909,0.000000,0.000000,0.000000,0.000000,0.000000,0.000000,1012.019036,10.251847,25.500000,0.000000,1584.000000,1503.000000,1355.000000,1500.000000
3.723001,60.998324,0.251185,-10.369600,-0.892055,7.867529,-3.282791,11.528835,0.116021,0.387675,0.022722,0.109652,-0.013936,0.000000,0.000000,0.000000,30.492233,-88.211942,10.369600,-2.672800,-3.282791,0.000000,0.000000,0.000000,0.000000,0.000000,0.000000,1012.004904,10.369600,25.500000,0.000000,1584.000000,1503.000000,1355.000000,1500.000000
3.823001,62.143053,0.196696,-10.492944,-0.776307,8.491157,-3.288244,11.507336,0.096844,0.428146,0.018785,0.103236,0.012963,0.000000,0.000000,0.000000,30.492243,-88.211943,10.492944,-2.773945,-3.288244,0.000000,0.000000,0.000000,0.000000,0.000000,0.000000,1011.990102,10.492944,25.500000,0.000000,1585.000000,1502.000000,1350.000000,1500.000000
3.924001,63.295605,0.139974,-10.626869,-0.652589,9.069997,-3.179949,11.478084,0.059248,0.439722,0.018598,0.096176,0.023519,0.000000,0.000000,0.000000,30.492254,-88.211943,10.626869,-2.856772,-3.179949,0.000000,0.000000,0.000000,0.000000,0.000000,0.000000,1011.974029,10.626869,25.500000,0.000000,1585.000000,1502.000000,1348.000000,1500.000000
4.025003,64.443440,0.082033,-10.770825,-0.522828,9.630187,-3.056926,11.439349,0.023230,0.445556,0.019328,0.096275,0.018322,0.000000,0.000000,0.000000,30.492264,-88.211944,10.770825,-2.918911,-3.056926,0.000000,0.000000,0.000000,0.000000,0.000000,0.000000,1011.956754,10.770825,25.500000,0.000000,1584.000000,1502.000000,1346.000000,1500.000000
4.126001,65.585533,0.023317,-10.924715,-0.420584,10.129517,-2.990042,11.391724,0.001757,0.440101,0.012021,0.078717,0.006126,0.000000,0.000000,0.000000,30.492274,-88.211944,10.924715,-2.964539,-2.990042,0.000000,0.000000,0.000000,0.000000,0.000000,0.000000,1011.938286,10.924715,25.500000,0.000000,1584.000000,1500.000000,1351.000000,1500.000000
4.227001,66.721040,-0.035864,-11.087530,-0.386655,10.533610,-2.984587,11.335885,-0.006210,0.429215,-0.000306,0.063746,-0.001783,0.000000,0.000000,0.000000,30.492284,-88.211945,11.087530,-3.001326,-2.984587,0.000000,0.000000,0.000000,0.000000,0.000000,0.000000,1011.918747,11.087530,25.500000,0.000000,1584.000000,1498.000000,1355.000000,1500.000000
4.328001,67.849354,-0.095375,-11.257538,-0.405656,10.829461,-3.001564,11.273165,-0.009813,0.413547,-0.004365,0.042029,-0.002878,0.000000,0.000000,0.000000,30.492295,-88.211946,11.257538,-3.036764,-3.001564,0.000000,0.000000,0.000000,0.000000,0.000000,0.000000,1011.898346,11.257538,25.500000,0.000000,1584.000000,1499.000000,1362.000000,1500.000000
4.428001,68.959050,-0.154599,-11.430896,-0.440145,10.955867,-3.019517,11.206183,-0.013369,0.387383,-0.006289,0.006866,-0.002922,0.000000,0.000000,0.000000,30.492305,-88.211946,11.430896,-3.073097,-3.019517,0.000000,0.000000,0.000000,0.000000,0.000000,0.000000,1011.877543,11.430896,25.500000,0.000000,1584.000000,1499.000000,1374.000000,1500.000000
4.528005,70.061372,-0.214146,-11.606267,-0.482762,10.972166,-3.037269,11.136086,-0.017354,0.372286,-0.007298,0.001254,-0.003215,0.000000,0.000000,0.000000,30.492314,-88.211947,11.606267,-3.111100,-3.037269,0.000000,0.000000,0.000000,0.000000,0.000000,0.000000,1011.856498,11.606267,25.500000,0.000000,1584.000000,1499.000000,1375.000000,1500.000000
4.629000,71.167466,-0.274662,-11.782877,-0.530810,10.979300,-3.058849,11.063996,-0.021322,0.372218,-0.007834,0.000920,-0.004204,0.000000,0.000000,0.000000,30.492324,-88.211947,11.782877,-3.152305,-3.058849,0.000000,0.000000,0.000000,0.000000,0.000000,0.000000,1011.835306,11.782877,25.500000,0.000000,1584.000000,1499.000000,1375.000000,1500.000000
4.730001,72.266420,-0.335615,-11.957826,-0.582710,10.983066,-3.088108,10.991758,-0.024598,0.378842,-0.008157,0.000006,-0.005780,0.000000,0.000000,0.000000,30.492334,-88.211948,11.957826,-3.197291,-3.088108,0.000000,0.000000,0.000000,0.000000,0.000000,0.000000,1011.814313,11.957826,25.500000,0.000000,1584.000000,1499.000000,1374.000000,1500.000000
4.831001,73.358326,-0.397081,-12.130619,-0.645608,10.961817,-3.127276,10.919719,-0.026930,0.384391,-0.011447,-0.007688,-0.007304,0.000000,0.000000,0.000000,30.492344,-88.211949,12.130619,-3.246967,-3.127276,0.000000,0.000000,0.000000,0.000000,0.000000,0.000000,1011.793579,12.130619,25.500000,0.000000,1583.000000,1498.000000,1375.000000,1500.000000
4.931001,74.432578,-0.458537,-12.299172,-0.719771,10.845808,-3.168530,10.849669,-0.029778,0.377908,-0.010964,-0.033619,-0.007454,0.000000,0.000000,0.000000,30.492354,-88.211949,12.299172,-3.301925,-3.168530,0.000000,0.000000,0.000000,0.000000,0.000000,0.000000,1011.773354,12.299172,25.500000,0.000000,1583.000000,1499.000000,1383.000000,1500.000000
5.031001,75.500360,-0.520697,-12.463921,-0.787969,10.636256,-3.213287,10.781809,-0.032811,0.373643,-0.010028,-0.036673,-0.009067,0.000000,0.000000,0.000000,30.492363,-88.211950,12.463921,-3.361619,-3.213287,0.000000,0.000000,0.000000,0.000000,0.000000,0.000000,1011.753586,12.463921,25.500000,0.000000,1583.000000,1499.000000,1381.000000,1500.000000
5.132001,76.572786,-0.584302,-12.624971,-0.848825,10.413157,-3.270110,10.716924,-0.034718,0.376923,-0.006867,-0.041060,-0.011603,0.000000,0.000000,0.000000,30.492373,-88.211951,12.624971,-3.427102,-3.270110,0.000000,0.000000,0.000000,0.000000,0.000000,0.000000,1011.734262,12.624971,25.500000,0.000000,1584.000000,1500.000000,1382.000000,1500.000000
5.233000,77.639627,-0.648846,-12.780007,-0.894472,10.176485,-3.345944,10.655731,-0.033971,0.384656,-0.004514,-0.039170,-0.015465,0.000000,0.000000,0.000000,30.492383,-88.211951,12.780007,-3.497353,-3.345944,0.000000,0.000000,0.000000,0.000000,0.000000,0.000000,1011.715660,12.780007,25.500000,0.000000,1582.000000,1500.000000,1379.000000,1500.000000
5.333001,78.690823,-0.713775,-12.927277,-0.928338,9.947956,-3.441746,10.599667,-0.030301,0.394662,-0.000946,-0.040533,-0.018657,0.000000,0.000000,0.000000,30.492392,-88.211952,12.927277,-3.571691,-3.441746,0.000000,0.000000,0.000000,0.000000,0.000000,0.000000,1011.697990,12.927277,25.500000,0.000000,1583.000000,1501.000000,1378.000000,1500.000000
5.434000,79.747857,-0.780488,-13.069795,-0.949889,9.701903,-3.556345,10.548186,-0.024018,0.402929,-0.000789,-0.043656,-0.021395,0.000000,0.000000,0.000000,30.492402,-88.211953,13.069795,-3.650849,-3.556345,0.000000,0.000000,0.000000,0.000000,0.000000,0.000000,1011.680891,13.069795,25.500000,0.000000,1584.000000,1500.000000,1377.000000,1500.000000
5.535001,80.800683,-0.848431,-13.206018,-0.973094,9.447951,-3.677419,10.501701,-0.017346,0.411946,0.000552,-0.042052,-0.020990,0.000000,0.000000,0.000000,30.492411,-88.211953,13.206018,-3.733858,-3.677419,0.000000,0.000000,0.000000,0.000000,0.000000,0.000000,1011.664547,13.206018,25.500000,0.000000,1584.000000,1501.000000,1374.000000,1500.000000
5.635001,81.839393,-0.916998,-13.334689,-0.983258,9.215998,-3.792500,10.460208,-0.012183,0.424103,0.002259,-0.036799,-0.019988,0.000000,0.000000,0.000000,30.492420,-88.211954,13.334689,-3.819098,-3.792500,0.000000,0.000000,0.000000,0.000000,0.000000,0.000000,1011.649109,13.334689,25.500000,0.000000,1583.000000,1501.000000,1370.000000,1500.000000
5.736000,82.885161,-0.987621,-13.458689,-0.984434,9.018632,-3.902700,10.422991,-0.008445,0.439444,0.003283,-0.029030,-0.018756,0.000000,0.000000,0.000000,30.492430,-88.211955,13.458689,-3.907199,-3.902700,0.000000,0.000000,0.000000,0.000000,0.000000,0.000000,1011.634232,13.458689,25.500000,0.000000,1584.000000,1501.000000,1365.000000,1500.000000
5.836001,83.917644,-1.058946,-13.576190,-0.979557,8.860304,-4.005048,10.390229,-0.006164,0.454431,0.003926,-0.025195,-0.017491,0.000000,0.000000,0.000000,30.492439,-88.211956,13.576190,-3.995705,-4.005048,0.000000,0.000000,0.000000,0.000000,0.000000,0.000000,1011.620134,13.576190,25.500000,0.000000,1583.000000,1501.000000,1362.000000,1500.000000
5.937001,84.957753,-1.132426,-13.690287,-0.966640,8.716662,-4.101444,10.360707,-0.005072,0.466782,0.006449,-0.022751,-0.016401,0.000000,0.000000,0.000000,30.492449,-88.211956,13.690287,-4.085423,-4.101444,0.000000,0.000000,0.000000,0.000000,0.000000,0.000000,1011.606446,13.690287,25.500000,0.000000,1583.000000,1502.000000,1359.000000,1500.000000
6.037001,85.985152,-1.206609,-13.799265,-0.938641,8.589549,-4.195667,10.334707,-0.003860,0.477545,0.007163,-0.019755,-0.017011,0.000000,0.000000,0.000000,30.492458,-88.211957,13.799265,-4.173163,-4.195667,0.000000,0.000000,0.000000,0.000000,0.000000,0.000000,1011.593371,13.799265,25.500000,0.000000,1583.000000,1501.000000,1356.000000,1500.000000
6.138001,87.020638,-1.282965,-13.905770,-0.914635,8.477555,-4.293393,10.311538,-0.001927,0.487226,0.006222,-0.017877,-0.016799,0.000000,0.000000,0.000000,30.492467,-88.211958,13.905770,-4.260324,-4.293393,0.000000,0.000000,0.000000,0.000000,0.000000,0.000000,1011.580594,13.905770,25.500000,0.000000,1584.000000,1501.000000,1354.000000,1500.000000
6.239001,88.054170,-1.360745,-14.009142,-0.894056,8.371230,-4.386974,10.291179,-0.000499,0.494448,0.005688,-0.018239,-0.015683,0.000000,0.000000,0.000000,30.492476,-88.211959,14.009142,-4.346229,-4.386974,0.000000,0.000000,0.000000,0.000000,0.000000,0.000000,1011.568192,14.009142,25.500000,0.000000,1584.000000,1501.000000,1353.000000,1500.000000
6.340000,89.085954,-1.439937,-14.109685,-0.874401,8.260892,-4.473095,10.273059,-0.000104,0.499364,0.005451,-0.018910,-0.014370,0.000000,0.000000,0.000000,30.492486,-88.211960,14.109685,-4.430619,-4.473095,0.000000,0.000000,0.000000,0.000000,0.000000,0.000000,1011.556130,14.109685,25.500000,0.000000,1583.000000,1501.000000,1352.000000,1500.000000
6.440000,90.105980,-1.519714,-14.206563,-0.854570,8.152446,-4.551513,10.257162,-0.000602,0.504054,0.005401,-0.017199,-0.013364,0.000000,0.000000,0.000000,30.492495,-88.211960,14.206563,-4.512356,-4.551513,0.000000,0.000000,0.000000,0.000000,0.000000,0.000000,1011.544508,14.206563,25.500000,0.000000,1583.000000,1501.000000,1350.000000,1500.000000
6.541001,91.134854,-1.601650,-14.301814,-0.833789,8.058060,-4.626461,10.243216,-0.001525,0.510126,0.005441,-0.014132,-0.012843,0.000000,0.000000,0.000000,30.492504,-88.211961,14.301814,-4.592980,-4.626461,0.000000,0.000000,0.000000,0.000000,0.000000,0.000000,1011.533081,14.301814,25.500000,0.000000,1583.000000,1501.000000,1348.000000,1500.000000
6.642001,92.162552,-1.684930,-14.394700,-0.812383,7.981862,-4.700003,10.231209,-0.002355,0.516791,0.005501,-0.011015,-0.012760,0.000000,0.000000,0.000000,30.492513,-88.211962,14.394700,-4.671697,-4.700003,0.000000,0.000000,0.000000,0.000000,0.000000,0.000000,1011.521938,14.394700,25.500000,0.000000,1583.000000,1501.000000,1346.000000,1500.000000
6.743000,93.189230,-1.769531,-14.485556,-0.792628,7.921284,-4.774293,10.221066,-0.002732,0.522871,0.003991,-0.009557,-0.012992,0.000000,0.000000,0.000000,30.492523,-88.211963,14.485556,-4.748618,-4.774293,0.000000,0.000000,0.000000,0.000000,0.000000,0.000000,1011.511038,14.485556,25.500000,0.000000,1584.000000,1500.000000,1345.000000,1500.000000
6.843001,94.204884,-1.854578,-14.573848,-0.785999,7.867335,-4.846387,10.212688,-0.003261,0.527607,0.002872,-0.007648,-0.011939,0.000000,0.000000,0.000000,30.492532,-88.211964,14.573848,-4.823653,-4.846387,0.000000,0.000000,0.000000,0.000000,0.000000,0.000000,1011.500446,14.573848,25.500000,0.000000,1584.000000,1501.000000,1343.000000,1500.000000
6.944001,95.229941,-1.941764,-14.661571,-0.774760,7.828207,-4.913571,10.205266,-0.004607,0.532690,0.004090,-0.005546,-0.011490,0.000000,0.000000,0.000000,30.492541,-88.211965,14.661571,-4.898594,-4.913571,0.000000,0.000000,0.000000,0.000000,0.000000,0.000000,1011.489923,14.661571,25.500000,0.000000,1583.000000,1501.000000,1342.000000,1500.000000
7.044001,96.244157,-2.029347,-14.747264,-0.758213,7.797444,-4.981025,10.198672,-0.005466,0.536699,0.004817,-0.004536,-0.012083,0.000000,0.000000,0.000000,30.492550,-88.211966,14.747264,-4.971453,-4.981025,0.000000,0.000000,0.000000,0.000000,0.000000,0.000000,1011.479643,14.747264,25.500000,0.000000,1583.000000,1501.000000,1341.000000,1500.000000
7.145000,97.267874,-2.119054,-14.832859,-0.740109,7.773674,-5.053974,10.192795,-0.005189,0.540477,0.003995,-0.002139,-0.013043,0.000000,0.000000,0.000000,30.492559,-88.211967,14.832859,-5.043522,-5.053974,0.000000,0.000000,0.000000,0.000000,0.000000,0.000000,1011.469375,14.832859,25.500000,0.000000,1583.000000,1500.000000,1339.000000,1500.000000
7.245001,98.280876,-2.209090,-14.916835,-0.735219,7.768758,-5.128998,10.187508,-0.004411,0.545258,0.001472,0.000622,-0.012607,0.000000,0.000000,0.000000,30.492568,-88.211968,14.916835,-5.114070,-5.128998,0.000000,0.000000,0.000000,0.000000,0.000000,0.000000,1011.459301,14.916835,25.500000,0.000000,1583.000000,1500.000000,1338.000000,1500.000000
7.346000,99.303445,-2.301254,-15.001163,-0.740666,7.772867,-5.198284,10.182672,-0.004893,0.548599,0.000035,-0.000283,-0.011037,0.000000,0.000000,0.000000,30.492578,-88.211969,15.001163,-5.185534,-5.198284,0.000000,0.000000,0.000000,0.000000,0.000000,0.000000,1011.449185,15.001163,25.500000,0.000000,1584.000000,1500.000000,1339.000000,1500.000000
7.446001,100.315357,-2.393726,-15.084411,-0.750786,7.762087,-5.257689,10.178485,-0.007061,0.548616,-0.000674,-0.001955,-0.009665,0.000000,0.000000,0.000000,30.492587,-88.211970,15.084411,-5.256612,-5.257689,0.000000,0.000000,0.000000,0.000000,0.000000,0.000000,1011.439199,15.084411,25.500000,0.000000,1584.000000,1500.000000,1338.000000,1500.000000
7.546001,101.326772,-2.487421,-15.167352,-0.762921,7.754973,-5.311561,10.174358,-0.010295,0.550208,-0.000978,0.000821,-0.009171,0.000000,0.000000,0.000000,30.492596,-88.211971,15.167352,-5.327949,-5.311561,0.000000,0.000000,0.000000,0.000000,0.000000,0.000000,1011.429249,15.167352,25.500000,0.000000,1583.000000,1500.000000,1336.000000,1500.000000
7.647008,102.347790,-2.583298,-15.250815,-0.776390,7.770789,-5.366353,10.169939,-0.013643,0.554348,-0.001105,0.003737,-0.009667,0.000000,0.000000,0.000000,30.492605,-88.211972,15.250815,-5.400589,-5.366353,0.000000,0.000000,0.000000,0.000000,0.000000,0.000000,1011.419238,15.250815,25.500000,0.000000,1583.000000,1500.000000,1336.000000,1500.000000
7.748001,103.368265,-2.680438,-15.334223,-0.791169,7.790858,-5.426328,10.165531,-0.016235,0.557013,-0.001199,0.004622,-0.010849,0.000000,0.000000,0.000000,30.492614,-88.211973,15.334223,-5.474195,-5.426328,0.000000,0.000000,0.000000,0.000000,0.000000,0.000000,1011.409232,15.334223,25.500000,0.000000,1583.000000,1500.000000,1334.000000,1500.000000
7.849000,104.388170,-2.778858,-15.417709,-0.807679,7.827531,-5.494300,10.160838,-0.017688,0.561285,-0.001323,0.008538,-0.012242,0.000000,0.000000,0.000000,30.492623,-88.211974,15.417709,-5.549139,-5.494300,0.000000,0.000000,0.000000,0.000000,0.000000,0.000000,1011.399218,15.417709,25.500000,0.000000,1583.000000,1500.000000,1332.000000,1500.000000
7.949001,105.397362,-2.877586,-15.500660,-0.825761,7.887448,-5.569539,10.155684,-0.018092,0.566689,-0.000934,0.011978,-0.013351,0.000000,0.000000,0.000000,30.492632,-88.211975,15.500660,-5.625241,-5.569539,0.000000,0.000000,0.000000,0.000000,0.000000,0.000000,1011.389268,15.500660,25.500000,0.000000,1583.000000,1501.000000,1331.000000,1500.000000
8.050001,106.415931,-2.978622,-15.585076,-0.833942,7.959811,-5.652329,10.149776,-0.017518,0.570761,0.001344,0.012167,-0.014909,0.000000,0.000000,0.000000,30.492642,-88.211976,15.585076,-5.704015,-5.652329,0.000000,0.000000,0.000000,0.000000,0.000000,0.000000,1011.379142,15.585076,25.500000,0.000000,1583.000000,1500.000000,1332.000000,1500.000000
8.151001,107.433661,-3.081001,-15.670400,-0.843460,8.017699,-5.744986,10.143093,-0.015401,0.570864,0.000299,0.008850,-0.016090,0.000000,0.000000,0.000000,30.492651,-88.211977,15.670400,-5.784181,-5.744986,0.000000,0.000000,0.000000,0.000000,0.000000,0.000000,1011.368907,15.670400,25.500000,0.000000,1583.000000,1501.000000,1332.000000,1500.000000
8.251001,108.440394,-3.183703,-15.755720,-0.848533,8.063396,-5.839004,10.135612,-0.013100,0.570396,0.002337,0.007778,-0.016267,0.000000,0.000000,0.000000,30.492660,-88.211978,15.755720,-5.864948,-5.839004,0.000000,0.000000,0.000000,0.000000,0.000000,0.000000,1011.358673,15.755720,25.500000,0.000000,1583.000000,1501.000000,1332.000000,1500.000000
8.352000,109.456187,-3.288790,-15.842582,-0.844988,8.105434,-5.935886,10.127282,-0.010473,0.570491,0.003224,0.007252,-0.016679,0.000000,0.000000,0.000000,30.492669,-88.211979,15.842582,-5.947148,-5.935886,0.000000,0.000000,0.000000,0.000000,0.000000,0.000000,1011.348254,15.842582,25.500000,0.000000,1584.000000,1500.000000,1332.000000,1500.000000
8.452001,110.460884,-3.394182,-15.929149,-0.847644,8.143941,-6.032555,10.118696,-0.007882,0.570935,0.000820,0.006656,-0.016127,0.000000,0.000000,0.000000,30.492678,-88.211980,15.929149,-6.028937,-6.032555,0.000000,0.000000,0.000000,0.000000,0.000000,0.000000,1011.337870,15.929149,25.500000,0.000000,1584.000000,1500.000000,1332.000000,1500.000000
8.553001,111.474536,-3.501992,-16.017062,-0.859941,8.179084,-6.121659,10.109418,-0.007045,0.571547,-0.000434,0.006192,-0.014047,0.000000,0.000000,0.000000,30.492687,-88.211981,16.017062,-6.112530,-6.121659,0.000000,0.000000,0.000000,0.000000,0.000000,0.000000,1011.327325,16.017062,25.500000,0.000000,1584.000000,1501.000000,1330.000000,1500.000000
8.653002,112.477021,-3.610094,-16.104468,-0.865839,8.228100,-6.198113,10.099537,-0.008403,0.575204,0.002007,0.010020,-0.012542,0.000000,0.000000,0.000000,30.492696,-88.211982,16.104468,-6.196045,-6.198113,0.000000,0.000000,0.000000,0.000000,0.000000,0.000000,1011.316841,16.104468,25.500000,0.000000,1584.000000,1501.000000,1330.000000,1500.000000
8.754000,113.488299,-3.720645,-16.193222,-0.870048,8.274577,-6.272827,10.088657,-0.010176,0.576517,0.000387,0.006759,-0.012669,0.000000,0.000000,0.000000,30.492705,-88.211983,16.193222,-6.280492,-6.272827,0.000000,0.000000,0.000000,0.000000,0.000000,0.000000,1011.306196,16.193222,25.500000,0.000000,1583.000000,1500.000000,1331.000000,1500.000000
8.854001,114.488262,-3.831444,-16.281550,-0.872194,8.315442,-6.346574,10.077251,-0.011962,0.578152,0.002509,0.007535,-0.012910,0.000000,0.000000,0.000000,30.492714,-88.211985,16.281550,-6.364161,-6.346574,0.000000,0.000000,0.000000,0.000000,0.000000,0.000000,1011.295601,16.281550,25.500000,0.000000,1583.000000,1501.000000,1330.000000,1500.000000
8.955001,115.496852,-3.944695,-16.371161,-0.865174,8.347264,-6.426893,10.065250,-0.012563,0.578270,0.003806,0.004196,-0.014492,0.000000,0.000000,0.000000,30.492723,-88.211986,16.371161,-6.448330,-6.426893,0.000000,0.000000,0.000000,0.000000,0.000000,0.000000,1011.284853,16.371161,25.500000,0.000000,1583.000000,1501.000000,1331.000000,1500.000000
9.055001,116.494058,-4.058138,-16.460136,-0.854286,8.373228,-6.516116,10.052885,-0.011318,0.579515,0.004438,0.005129,-0.016106,0.000000,0.000000,0.000000,30.492732,-88.211987,16.460136,-6.530991,-6.516116,0.000000,0.000000,0.000000,0.000000,0.000000,0.000000,1011.274181,16.460136,25.500000,0.000000,1583.000000,1501.000000,1330.000000,1500.000000
9.156001,117.499799,-4.174025,-16.550125,-0.842013,8.407255,-6.613861,10.039959,-0.008663,0.582501,0.004687,0.006664,-0.016974,0.000000,0.000000,0.000000,30.492741,-88.211988,16.550125,-6.614033,-6.613861,0.000000,0.000000,0.000000,0.000000,0.000000,0.000000,1011.263388,16.550125,25.500000,0.000000,1583.000000,1501.000000,1329.000000,1500.000000
9.257001,118.504057,-4.291213,-16.640269,-0.829282,8.441627,-6.713761,10.026680,-0.005563,0.584848,0.004756,0.005490,-0.016845,0.000000,0.000000,0.000000,30.492750,-88.211989,16.640269,-6.696733,-6.713761,0.000000,0.000000,0.000000,0.000000,0.000000,0.000000,1011.252576,16.640269,25.500000,0.000000,1583.000000,1501.000000,1329.000000,1500.000000
9.357001,119.496868,-4.408506,-16.729679,-0.816013,8.466973,-6.809382,10.013218,-0.002947,0.586099,0.004786,0.003843,-0.015944,0.000000,0.000000,0.000000,30.492759,-88.211991,16.729679,-6.778009,-6.809382,0.000000,0.000000,0.000000,0.000000,0.000000,0.000000,1011.241852,16.729679,25.500000,0.000000,1583.000000,1501.000000,1329.000000,1500.000000
9.458000,120.498066,-4.528229,-16.820051,-0.801408,8.483566,-6.899274,9.999368,-0.001282,0.586963,0.004849,0.002357,-0.014679,0.000000,0.000000,0.000000,30.492768,-88.211992,16.820051,-6.859092,-6.899274,0.000000,0.000000,0.000000,0.000000,0.000000,0.000000,1011.231013,16.820051,25.500000,0.000000,1583.000000,1501.000000,1329.000000,1500.000000
9.558001,121.487814,-4.647985,-16.909471,-0.785358,8.485612,-6.980786,9.985583,-0.000665,0.586588,0.004959,-0.001229,-0.013488,0.000000,0.000000,0.000000,30.492777,-88.211993,16.909471,-6.937982,-6.980786,0.000000,0.000000,0.000000,0.000000,0.000000,0.000000,1011.220288,16.909471,25.500000,0.000000,1583.000000,1501.000000,1330.000000,1500.000000
9.659001,122.485925,-4.770139,-16.999519,-0.767474,8.472096,-7.056776,9.971742,-0.000804,0.586211,0.005097,-0.002861,-0.012617,0.000000,0.000000,0.000000,30.492786,-88.211994,16.999519,-7.015805,-7.056776,0.000000,0.000000,0.000000,0.000000,0.000000,0.000000,1011.209488,16.999519,25.500000,0.000000,1583.000000,1501.000000,1330.000000,1500.000000
9.760001,123.482538,-4.893466,-17.089060,-0.754467,8.445500,-7.128842,9.958229,-0.001341,0.585552,0.002664,-0.006102,-0.011990,0.000000,0.000000,0.000000,30.492795,-88.211996,17.089060,-7.091741,-7.128842,0.000000,0.000000,0.000000,0.000000,0.000000,0.000000,1011.198749,17.089060,25.500000,0.000000,1583.000000,1500.000000,1331.000000,1500.000000
9.861001,124.477717,-5.017944,-17.177855,-0.754631,8.410188,-7.194238,9.945193,-0.002991,0.586251,0.000781,-0.005426,-0.010475,0.000000,0.000000,0.000000,30.492804,-88.211997,17.177855,-7.166557,-7.194238,0.000000,0.000000,0.000000,0.000000,0.000000,0.000000,1011.188099,17.177855,25.500000,0.000000,1583.000000,1500.000000,1330.000000,1500.000000
9.961001,125.461713,-5.142317,-17.264850,-0.761501,8.382741,-7.250604,9.932858,-0.006108,0.589041,-0.000194,-0.003877,-0.009235,0.000000,0.000000,0.000000,30.492813,-88.211998,17.264850,-7.240287,-7.250604,0.000000,0.000000,0.000000,0.000000,0.000000,0.000000,1011.177666,17.264850,25.500000,0.000000,1583.000000,1500.000000,1329.000000,1500.000000
10.062000,126.454271,-5.269078,-17.351793,-0.771788,8.363081,-7.302949,9.921024,-0.010095,0.592671,-0.000668,-0.002669,-0.008933,0.000000,0.000000,0.000000,30.492822,-88.212000,17.351793,-7.314794,-7.302949,0.000000,0.000000,0.000000,0.000000,0.000000,0.000000,1011.167239,17.351793,25.500000,0.000000,1583.000000,1500.000000,1328.000000,1500.000000
10.162000,127.435800,-5.395723,-17.437056,-0.784082,8.349424,-7.356115,9.910139,-0.013893,0.596308,-0.000905,-0.001736,-0.009637,0.000000,0.000000,0.000000,30.492831,-88.212001,17.437056,-7.388941,-7.356115,0.000000,0.000000,0.000000,0.000000,0.000000,0.000000,1011.157013,17.437056,25.500000,0.000000,1584.000000,1500.000000,1327.000000,1500.000000
10.262001,128.416191,-5.523518,-17.521597,-0.798405,8.349565,-7.415672,9.899499,-0.016764,0.601649,-0.001074,0.003143,-0.011000,0.000000,0.000000,0.000000,30.492840,-88.212002,17.521597,-7.463875,-7.415672,0.000000,0.000000,0.000000,0.000000,0.000000,0.000000,1011.146874,17.521597,25.500000,0.000000,1583.000000,1500.000000,1324.000000,1500.000000
10.362001,129.395847,-5.652532,-17.605612,-0.819314,8.403352,-7.484879,9.901238,-0.018398,0.613556,-0.003385,0.019159,-0.012512,0.000000,0.000000,0.000000,30.492848,-88.212004,17.605612,-7.540266,-7.484879,0.000000,0.000000,0.000000,0.000000,0.000000,0.000000,1011.136798,17.605612,25.500000,0.000000,1634.000000,1499.000000,1316.000000,1500.000000
10.462002,130.376103,-5.782983,-17.690070,-0.853141,8.526244,-7.559758,9.910211,-0.019803,0.624549,-0.003664,0.021328,-0.012614,0.000000,0.000000,0.000000,30.492857,-88.212005,17.690070,-7.620169,-7.559758,0.000000,0.000000,0.000000,0.000000,0.000000,0.000000,1011.126669,17.690070,25.500000,0.000000,1638.000000,1500.000000,1317.000000,1500.000000
10.563001,131.366781,-5.916266,-17.776997,-0.883316,8.636988,-7.637114,9.918894,-0.021345,0.626023,-0.002849,0.016973,-0.013380,0.000000,0.000000,0.000000,30.492866,-88.212006,17.776997,-7.704354,-7.637114,0.000000,0.000000,0.000000,0.000000,0.000000,0.000000,1011.116244,17.776997,25.500000,0.000000,1638.000000,1500.000000,1318.000000,1500.000000
10.664001,132.357880,-6.051114,-17.865872,-0.911014,8.731907,-7.720613,9.925985,-0.022219,0.624548,-0.002419,0.017512,-0.014665,0.000000,0.000000,0.000000,30.492875,-88.212008,17.865872,-7.791238,-7.720613,0.000000,0.000000,0.000000,0.000000,0.000000,0.000000,1011.105586,17.865872,25.500000,0.000000,1638.000000,1500.000000,1317.000000,1500.000000
10.765001,133.349221,-6.187549,-17.956590,-0.935130,8.863672,-7.812189,9.930873,-0.022227,0.630422,-0.000324,0.033551,-0.015896,0.000000,0.000000,0.000000,30.492884,-88.212009,17.956590,-7.880750,-7.812189,0.000000,0.000000,0.000000,0.000000,0.000000,0.000000,1011.094707,17.956590,25.500000,0.000000,1638.000000,1501.000000,1309.000000,1500.000000
10.866001,134.340576,-6.325592,-18.049456,-0.945738,9.090033,-7.914961,9.933225,-0.020784,0.643367,0.001971,0.043847,-0.017979,0.000000,0.000000,0.000000,30.492893,-88.212011,18.049456,-7.973251,-7.914961,0.000000,0.000000,0.000000,0.000000,0.000000,0.000000,1011.083570,18.049456,25.500000,0.000000,1639.000000,1501.000000,1307.000000,1500.000000
10.967001,135.331571,-6.465238,-18.145562,-0.948963,9.341919,-8.030430,9.932730,-0.017394,0.650292,0.003166,0.042107,-0.019825,0.000000,0.000000,0.000000,30.492902,-88.212012,18.145562,-8.068254,-8.030430,0.000000,0.000000,0.000000,0.000000,0.000000,0.000000,1011.072044,18.145562,25.500000,0.000000,1639.000000,1501.000000,1308.000000,1500.000000
11.067001,136.312017,-6.605064,-18.244575,-0.951713,9.566114,-8.152255,9.931543,-0.012891,0.649331,0.001970,0.035847,-0.020572,0.000000,0.000000,0.000000,30.492911,-88.212014,18.244575,-8.163950,-8.152255,0.000000,0.000000,0.000000,0.000000,0.000000,0.000000,1011.060171,18.244575,25.500000,0.000000,1652.000000,1500.000000,1310.000000,1500.000000
11.167001,137.291713,-6.746465,-18.347481,-0.964457,9.754945,-8.270999,9.929425,-0.009237,0.644140,0.001550,0.030180,-0.018839,0.000000,0.000000,0.000000,30.492919,-88.212015,18.347481,-8.261204,-8.270999,0.000000,0.000000,0.000000,0.000000,0.000000,0.000000,1011.047830,18.347481,25.500000,0.000000,1652.000000,1501.000000,1312.000000,1500.000000
11.268001,138.280203,-6.890869,-18.454995,-0.972263,9.911988,-8.379039,9.925837,-0.007693,0.636949,0.001208,0.022467,-0.017174,0.000000,0.000000,0.000000,30.492928,-88.212017,18.454995,-8.360492,-8.379039,0.000000,0.000000,0.000000,0.000000,0.000000,0.000000,1011.034937,18.454995,25.500000,0.000000,1662.000000,1500.000000,1316.000000,1500.000000
11.369000,139.267711,-7.036881,-18.565616,-0.985082,10.022778,-8.476021,9.921668,-0.008146,0.628063,0.001166,0.016370,-0.015113,0.000000,0.000000,0.000000,30.492937,-88.212018,18.565616,-8.460142,-8.476021,0.000000,0.000000,0.000000,0.000000,0.000000,0.000000,1011.021672,18.565616,25.500000,0.000000,1662.000000,1501.000000,1318.000000,1500.000000
11.469001,140.244346,-7.183014,-18.677504,-0.988489,10.096623,-8.562485,9.915483,-0.010108,0.618669,0.002799,0.005219,-0.014481,0.000000,0.000000,0.000000,30.492946,-88.212020,18.677504,-8.558708,-8.562485,0.000000,0.000000,0.000000,0.000000,0.000000,0.000000,1011.008254,18.677504,25.500000,0.000000,1663.000000,1501.000000,1325.000000,1500.000000
11.570000,141.229542,-7.332159,-18.792238,-0.984353,10.082345,-8.649379,9.908156,-0.011749,0.602233,0.003801,-0.014126,-0.015330,0.000000,0.000000,0.000000,30.492955,-88.212021,18.792238,-8.657039,-8.649379,0.000000,0.000000,0.000000,0.000000,0.000000,0.000000,1010.994496,18.792238,25.500000,0.000000,1662.000000,1501.000000,1334.000000,1500.000000
11.671001,142.213535,-7.482833,-18.907503,-0.976663,9.953973,-8.741209,9.900200,-0.012068,0.581658,0.004314,-0.029715,-0.016687,0.000000,0.000000,0.000000,30.492964,-88.212023,18.907503,-8.753255,-8.741209,0.000000,0.000000,0.000000,0.000000,0.000000,0.000000,1010.980674,18.907503,25.500000,0.000000,1660.000000,1501.000000,1339.000000,1500.000000
11.772001,143.196514,-7.635023,-19.021602,-0.966387,9.760683,-8.839214,9.893055,-0.011037,0.566358,0.005806,-0.035635,-0.017685,0.000000,0.000000,0.000000,30.492973,-88.212024,19.021602,-8.847382,-8.839214,0.000000,0.000000,0.000000,0.000000,0.000000,0.000000,1010.966992,19.021602,25.500000,0.000000,1662.000000,1502.000000,1341.000000,1500.000000
11.873000,144.178879,-7.788753,-19.133176,-0.943522,9.554294,-8.943557,9.888523,-0.008602,0.559913,0.007107,-0.032631,-0.019186,0.000000,0.000000,0.000000,30.492981,-88.212026,19.133176,-8.939501,-8.943557,0.000000,0.000000,0.000000,0.000000,0.000000,0.000000,1010.953613,19.133176,25.500000,0.000000,1662.000000,1501.000000,1339.000000,1500.000000
11.974001,145.161008,-7.944049,-19.241531,-0.925480,9.382984,-9.055239,9.886072,-0.004852,0.562795,0.004779,-0.024624,-0.019546,0.000000,0.000000,0.000000,30.492990,-88.212028,19.241531,-9.030122,-9.055239,0.000000,0.000000,0.000000,0.000000,0.000000,0.000000,1010.940620,19.241531,25.500000,0.000000,1658.000000,1500.000000,1336.000000,1500.000000
12.075000,146.143075,-8.100927,-19.346734,-0.925466,9.257002,-9.162292,9.885368,-0.002157,0.569923,0.001517,-0.019226,-0.017251,0.000000,0.000000,0.000000,30.492999,-88.212029,19.346734,-9.120834,-9.162292,0.000000,0.000000,0.000000,0.000000,0.000000,0.000000,1010.928005,19.346734,25.500000,0.000000,1659.000000,1500.000000,1335.000000,1500.000000
12.175001,147.115553,-8.257852,-19.448314,-0.935583,9.150297,-9.250590,9.887500,-0.002754,0.575295,0.000813,-0.016682,-0.013715,0.000000,0.000000,0.000000,30.493008,-88.212031,19.448314,-9.211524,-9.250590,0.000000,0.000000,0.000000,0.000000,0.000000,0.000000,1010.915825,19.448314,25.500000,0.000000,1659.000000,1501.000000,1333.000000,1500.000000
12.276000,148.098075,-8.418004,-19.548744,-0.937540,9.061052,-9.322995,9.891911,-0.006173,0.580040,0.001642,-0.013880,-0.012047,0.000000,0.000000,0.000000,30.493017,-88.212032,19.548744,-9.303259,-9.322995,0.000000,0.000000,0.000000,0.000000,0.000000,0.000000,1010.903783,19.548744,25.500000,0.000000,1660.000000,1500.000000,1332.000000,1500.000000
12.376001,149.071356,-8.578239,-19.646454,-0.942581,8.985690,-9.390757,9.898379,-0.010167,0.583509,0.001098,-0.011133,-0.011739,0.000000,0.000000,0.000000,30.493025,-88.212034,19.646454,-9.393595,-9.390757,0.000000,0.000000,0.000000,0.000000,0.000000,0.000000,1010.892067,19.646454,25.500000,0.000000,1660.000000,1501.000000,1330.000000,1500.000000
12.477001,150.054992,-8.741776,-19.743737,-0.941217,8.931853,-9.460948,9.906145,-0.013788,0.587486,0.002988,-0.007369,-0.012888,0.000000,0.000000,0.000000,30.493034,-88.212036,19.743737,-9.484492,-9.460948,0.000000,0.000000,0.000000,0.000000,0.000000,0.000000,1010.880402,19.743737,25.500000,0.000000,1658.000000,1501.000000,1329.000000,1500.000000
12.578000,151.039264,-8.907019,-19.839999,-0.933242,8.895493,-9.542792,9.912584,-0.015226,0.590846,0.004029,-0.004053,-0.015337,0.000000,0.000000,0.000000,30.493043,-88.212038,19.839999,-9.574808,-9.542792,0.000000,0.000000,0.000000,0.000000,0.000000,0.000000,1010.868860,19.839999,25.500000,0.000000,1637.000000,1501.000000,1327.000000,1500.000000
12.678001,152.013896,-9.072212,-19.934534,-0.923792,8.882951,-9.638457,9.912879,-0.014068,0.595301,0.003809,-0.000310,-0.017670,0.000000,0.000000,0.000000,30.493052,-88.212039,19.934534,-9.663908,-9.638457,0.000000,0.000000,0.000000,0.000000,0.000000,0.000000,1010.857525,19.934534,25.500000,0.000000,1637.000000,1500.000000,1326.000000,1500.000000
12.778001,152.988391,-9.238945,-20.028593,-0.926438,8.885355,-9.743843,9.913612,-0.011434,0.599031,0.001150,0.001561,-0.018184,0.000000,0.000000,0.000000,30.493061,-88.212041,20.028593,-9.753514,-9.743843,0.000000,0.000000,0.000000,0.000000,0.000000,0.000000,1010.846247,20.028593,25.500000,0.000000,1637.000000,1500.000000,1325.000000,1500.000000
12.879001,153.972484,-9.408924,-20.123413,-0.940584,8.897866,-9.846667,9.914587,-0.009773,0.601880,0.000056,0.002741,-0.016583,0.000000,0.000000,0.000000,30.493070,-88.212043,20.123413,-9.845577,-9.846667,0.000000,0.000000,0.000000,0.000000,0.000000,0.000000,1010.834878,20.123413,25.500000,0.000000,1638.000000,1501.000000,1325.000000,1500.000000
12.979001,154.946685,-9.578813,-20.217358,-0.948345,8.910876,-9.938238,9.915921,-0.010031,0.602895,0.002042,0.002280,-0.015225,0.000000,0.000000,0.000000,30.493078,-88.212045,20.217358,-9.938072,-9.938238,0.000000,0.000000,0.000000,0.000000,0.000000,0.000000,1010.823614,20.217358,25.500000,0.000000,1638.000000,1501.000000,1325.000000,1500.000000
13.080001,155.930462,-9.752020,-20.312423,-0.946466,8.921358,-10.027427,9.917172,-0.010759,0.602777,0.002971,0.001201,-0.015394,0.000000,0.000000,0.000000,30.493087,-88.212046,20.312423,-10.031603,-10.027427,0.000000,0.000000,0.000000,0.000000,0.000000,0.000000,1010.812216,20.312423,25.500000,0.000000,1638.000000,1500.000000,1327.000000,1500.000000
13.181000,156.914050,-9.926847,-20.407713,-0.950298,8.911276,-10.118883,9.918418,-0.011070,0.599484,0.000783,-0.003282,-0.015637,0.000000,0.000000,0.000000,30.493096,-88.212048,20.407713,-10.124944,-10.118883,0.000000,0.000000,0.000000,0.000000,0.000000,0.000000,1010.800791,20.407713,25.500000,0.000000,1637.000000,1500.000000,1328.000000,1500.000000
13.281001,157.887698,-10.101539,-20.502087,-0.963478,8.882757,-10.207318,9.919386,-0.011907,0.595880,-0.000309,-0.005087,-0.014923,0.000000,0.000000,0.000000,30.493105,-88.212050,20.502087,-10.217775,-10.207318,0.000000,0.000000,0.000000,0.000000,0.000000,0.000000,1010.789476,20.502087,25.500000,0.000000,1638.000000,1501.000000,1327.000000,1500.000000
13.382001,158.870927,-10.279608,-20.597144,-0.971318,8.861546,-10.292666,9.920858,-0.013543,0.595677,0.001968,-0.002366,-0.014705,0.000000,0.000000,0.000000,30.493114,-88.212052,20.597144,-10.312139,-10.292666,0.000000,0.000000,0.000000,0.000000,0.000000,0.000000,1010.778080,20.597144,25.500000,0.000000,1638.000000,1501.000000,1328.000000,1500.000000
13.482004,159.844316,-10.457546,-20.690981,-0.969415,8.840943,-10.380888,9.922659,-0.014424,0.594885,0.003307,-0.003908,-0.015980,0.000000,0.000000,0.000000,30.493122,-88.212054,20.690981,-10.405651,-10.380888,0.000000,0.000000,0.000000,0.000000,0.000000,0.000000,1010.766829,20.690981,25.500000,0.000000,1638.000000,1501.000000,1328.000000,1500.000000
13.583000,160.827382,-10.638916,-20.785473,-0.963008,8.816320,-10.478771,9.925221,-0.013695,0.594072,0.004012,-0.003905,-0.017551,0.000000,0.000000,0.000000,30.493131,-88.212056,20.785473,-10.499769,-10.478771,0.000000,0.000000,0.000000,0.000000,0.000000,0.000000,1010.755500,20.785473,25.500000,0.000000,1639.000000,1501.000000,1328.000000,1500.000000
13.683001,161.800710,-10.820128,-20.878751,-0.873348,8.768132,-10.583705,9.928361,-0.010326,0.589433,0.031192,-0.010669,-0.021591,0.000000,0.000000,0.000000,30.493140,-88.212058,20.878751,-10.591030,-10.583705,0.000000,0.000000,0.000000,0.000000,0.000000,0.000000,1010.744317,20.878751,25.500000,0.000000,1639.000000,1510.000000,1331.000000,1499.000000
13.784005,162.783842,-11.004685,-20.972629,-0.386061,8.556803,-10.746668,9.933607,0.010170,0.560819,0.141479,-0.053222,-0.044924,0.000000,0.000000,0.000000,30.493149,-88.212060,20.972629,-10.665739,-10.746668,0.000000,0.000000,0.000000,0.000000,0.000000,0.000000,1010.733062,20.972629,25.500000,0.000000,1639.000000,1542.000000,1349.000000,1496.000000
13.885001,163.767475,-11.190214,-21.064431,0.564412,8.203627,-11.172011,9.941058,0.089316,0.532861,0.201744,-0.064200,-0.100255,0.000000,0.000000,0.000000,30.493158,-88.212061,21.064431,-10.686332,-11.172011,0.000000,0.000000,0.000000,0.000000,0.000000,0.000000,1010.722056,21.064431,25.500000,0.000000,1639.000000,1540.000000,1353.000000,1496.000000
13.986001,164.752378,-11.375766,-21.151874,1.731476,7.869071,-11.883981,9.950392,0.231291,0.520622,0.232331,-0.055901,-0.135028,0.000000,0.000000,0.000000,30.493167,-88.212063,21.151874,-10.641269,-11.883981,0.000000,0.000000,0.000000,0.000000,0.000000,0.000000,1010.711572,21.151874,25.500000,0.000000,1639.000000,1540.000000,1352.000000,1496.000000
14.086001,165.729537,-11.558450,-21.233161,2.972041,7.615669,-12.676323,9.960737,0.400833,0.518686,0.235920,-0.044677,-0.126812,0.000000,0.000000,0.000000,30.493175,-88.212065,21.233161,-10.526678,-12.676323,0.000000,0.000000,0.000000,0.000000,0.000000,0.000000,1010.701827,21.233161,25.500000,0.000000,1638.000000,1536.000000,1350.000000,1496.000000
14.187000,166.719184,-11.740713,-21.309875,4.221281,7.432594,-13.292438,9.973852,0.555425,0.521464,0.223258,-0.032707,-0.072726,0.000000,0.000000,0.000000,30.493184,-88.212067,21.309875,-10.331385,-13.292438,0.000000,0.000000,0.000000,0.000000,0.000000,0.000000,1010.692630,21.309875,25.500000,0.000000,1638.000000,1531.000000,1347.000000,1497.000000
14.287000,167.702385,-11.917544,-21.380908,5.425974,7.294951,-13.494002,9.992591,0.654566,0.526208,0.206951,-0.021740,0.010326,0.000000,0.000000,0.000000,30.493193,-88.212069,21.380908,-10.046561,-13.494002,0.000000,0.000000,0.000000,0.000000,0.000000,0.000000,1010.684114,21.380908,25.500000,0.000000,1638.000000,1527.000000,1344.000000,1497.000000
14.388001,168.699468,-12.090771,-21.448288,6.593022,7.167302,-13.185492,10.019814,0.684959,0.532056,0.182767,-0.011466,0.099174,0.000000,0.000000,0.000000,30.493202,-88.212071,21.448288,-9.649813,-13.185492,0.000000,0.000000,0.000000,0.000000,0.000000,0.000000,1010.676037,21.448288,25.500000,0.000000,1638.000000,1520.000000,1341.000000,1498.000000
14.489001,169.701283,-12.256591,-21.511993,7.656654,7.017719,-12.388438,10.055555,0.649955,0.536498,0.150552,-0.006287,0.175966,0.000000,0.000000,0.000000,30.493211,-88.212073,21.511993,-9.131817,-12.388438,0.000000,0.000000,0.000000,0.000000,0.000000,0.000000,1010.668399,21.511993,25.500000,0.000000,1638.000000,1512.000000,1340.000000,1499.000000
14.589001,170.698451,-12.411358,-21.572061,8.566788,6.833424,-11.218753,10.097448,0.566935,0.540052,0.118195,0.000027,0.230398,0.000000,0.000000,0.000000,30.493220,-88.212074,21.572061,-8.500175,-11.218753,0.000000,0.000000,0.000000,0.000000,0.000000,0.000000,1010.661198,21.572061,25.500000,0.000000,1638.000000,1506.000000,1338.000000,1499.000000
14.689001,171.701384,-12.554693,-21.629637,9.320480,6.627942,-9.812094,10.143215,0.458735,0.542697,0.087494,0.004908,0.258183,0.000000,0.000000,0.000000,30.493229,-88.212076,21.629637,-7.756927,-9.812094,0.000000,0.000000,0.000000,0.000000,0.000000,0.000000,1010.654296,21.629637,25.500000,0.000000,1638.000000,1501.000000,1337.000000,1500.000000
14.790000,172.720600,-12.685908,-21.685737,9.904491,6.427159,-8.300475,10.191460,0.347464,0.546131,0.053793,0.014135,0.262058,0.000000,0.000000,0.000000,30.493238,-88.212077,21.685737,-6.909359,-8.300475,0.000000,0.000000,0.000000,0.000000,0.000000,0.000000,1010.647570,21.685737,25.500000,0.000000,1639.000000,1495.000000,1334.000000,1500.000000
14.890001,173.736159,-12.800750,-21.739818,10.278246,6.266118,-6.819965,10.239971,0.250683,0.549280,0.018725,0.020332,0.252062,0.000000,0.000000,0.000000,30.493247,-88.212078,21.739818,-5.993214,-6.819965,0.000000,0.000000,0.000000,0.000000,0.000000,0.000000,1010.641087,21.739818,25.500000,0.000000,1639.000000,1490.000000,1333.000000,1501.000000
14.991000,174.768390,-12.900198,-21.793662,10.447494,6.151560,-5.392101,10.288845,0.171322,0.552516,-0.013342,0.030009,0.237317,0.000000,0.000000,0.000000,30.493257,-88.212079,21.793662,-5.016820,-5.392101,0.000000,0.000000,0.000000,0.000000,0.000000,0.000000,1010.634632,21.793662,25.500000,0.000000,1638.000000,1487.000000,1330.000000,1501.000000
15.091000,175.796676,-12.981396,-21.846948,10.431947,6.101581,-4.055275,10.336938,0.109550,0.555526,-0.042100,0.036731,0.222354,0.000000,0.000000,0.000000,30.493266,-88.212080,21.846948,-4.020658,-4.055275,0.000000,0.000000,0.000000,0.000000,0.000000,0.000000,1010.628244,21.846948,25.500000,0.000000,1638.000000,1484.000000,1329.000000,1502.000000
15.191001,176.830904,-13.044889,-21.901092,10.253408,6.101139,-2.790269,10.384428,0.059904,0.556693,-0.066943,0.042294,0.210055,0.000000,0.000000,0.000000,30.493275,-88.212081,21.901092,-3.016764,-2.790269,0.000000,0.000000,0.000000,0.000000,0.000000,0.000000,1010.621754,21.901092,25.500000,0.000000,1638.000000,1482.000000,1328.000000,1502.000000
15.292001,177.881094,-13.090892,-21.957447,9.942251,6.153916,-1.568745,10.431366,0.016596,0.558125,-0.084200,0.050251,0.200071,0.000000,0.000000,0.000000,30.493285,-88.212081,21.957447,-2.013201,-1.568745,0.000000,0.000000,0.000000,0.000000,0.000000,0.000000,1010.614998,21.957447,25.500000,0.000000,1639.000000,1482.000000,1326.000000,1502.000000
15.393001,178.936445,-13.118797,-22.016317,9.548252,6.268903,-0.399108,10.476406,-0.021985,0.560190,-0.094851,0.056965,0.188876,0.000000,0.000000,0.000000,30.493294,-88.212082,22.016317,-1.030815,-0.399108,0.000000,0.000000,0.000000,0.000000,0.000000,0.000000,1010.607941,22.016317,25.500000,0.000000,1639.000000,1482.000000,1325.000000,1502.000000
15.494000,179.996342,-13.128911,-22.078645,9.104049,6.438645,0.704477,10.518370,-0.054642,0.561573,-0.099565,0.062670,0.175202,0.000000,0.000000,0.000000,30.493304,-88.212082,22.078645,-0.078399,0.704477,0.000000,0.000000,0.000000,0.000000,0.000000,0.000000,1010.600469,22.078645,25.500000,0.000000,1638.000000,1483.000000,1324.000000,1502.000000
15.594001,181.049522,-13.121866,-22.144635,8.644969,6.648997,1.713369,10.556339,-0.078698,0.560154,-0.099939,0.062149,0.158813,0.000000,0.000000,0.000000,30.493313,-88.212082,22.144635,0.829034,1.713369,0.000000,0.000000,0.000000,0.000000,0.000000,0.000000,1010.592558,22.144635,25.500000,0.000000,1638.000000,1484.000000,1326.000000,1502.000000
15.695000,182.116329,-13.098144,-22.216294,8.178363,6.875533,2.630300,10.590793,-0.092668,0.555066,-0.098008,0.061348,0.141136,0.000000,0.000000,0.000000,30.493323,-88.212081,22.216294,1.701726,2.630300,0.000000,0.000000,0.000000,0.000000,0.000000,0.000000,1010.583968,22.216294,25.500000,0.000000,1638.000000,1485.000000,1327.000000,1501.000000
15.795001,183.174949,-13.058985,-22.292479,7.729131,7.117403,3.438722,10.620689,-0.096509,0.549342,-0.090813,0.059905,0.124892,0.000000,0.000000,0.000000,30.493332,-88.212081,22.292479,2.518975,3.438722,0.000000,0.000000,0.000000,0.000000,0.000000,0.000000,1010.574835,22.292479,25.500000,0.000000,1638.000000,1488.000000,1329.000000,1501.000000
15.896009,184.245883,-13.004432,-22.374878,7.326268,7.368984,4.158875,10.646700,-0.090579,0.542693,-0.077905,0.057685,0.108724,0.000000,0.000000,0.000000,30.493342,-88.212080,22.374878,3.297655,4.158875,0.000000,0.000000,0.000000,0.000000,0.000000,0.000000,1010.564958,22.374878,25.500000,0.000000,1639.000000,1491.000000,1331.000000,1501.000000
15.997001,185.317931,-12.935626,-22.462763,6.993957,7.623194,4.783033,10.668019,-0.074047,0.535755,-0.065408,0.055214,0.093014,0.000000,0.000000,0.000000,30.493352,-88.212080,22.462763,4.032692,4.783033,0.000000,0.000000,0.000000,0.000000,0.000000,0.000000,1010.554423,22.462763,25.500000,0.000000,1637.000000,1492.000000,1333.000000,1501.000000
16.098001,186.390430,-12.853345,-22.556017,6.717780,7.872779,5.324977,10.684417,-0.048866,0.528260,-0.054320,0.050732,0.082091,0.000000,0.000000,0.000000,30.493361,-88.212079,22.556017,4.728373,5.324977,0.000000,0.000000,0.000000,0.000000,0.000000,0.000000,1010.543244,22.556017,25.500000,0.000000,1637.000000,1494.000000,1336.000000,1501.000000
16.198001,187.452194,-12.759307,-22.653418,6.505984,8.097272,5.810613,10.696585,-0.020382,0.519333,-0.042230,0.044996,0.076615,0.000000,0.000000,0.000000,30.493371,-88.212078,22.653418,5.382399,5.810613,0.000000,0.000000,0.000000,0.000000,0.000000,0.000000,1010.531569,22.653418,25.500000,0.000000,1638.000000,1496.000000,1339.000000,1500.000000
16.299000,188.524004,-12.652264,-22.756474,6.363570,8.299330,6.277225,10.705035,0.008212,0.511030,-0.029077,0.042684,0.074791,0.000000,0.000000,0.000000,30.493381,-88.212077,22.756474,6.013745,6.277225,0.000000,0.000000,0.000000,0.000000,0.000000,0.000000,1010.519215,22.756474,25.500000,0.000000,1638.000000,1498.000000,1340.000000,1500.000000
16.399001,189.584215,-12.534826,-22.862638,6.298716,8.489849,6.732959,10.709688,0.035017,0.504456,-0.016887,0.037521,0.074616,0.000000,0.000000,0.000000,30.493390,-88.212075,22.862638,6.619637,6.732959,0.000000,0.000000,0.000000,0.000000,0.000000,0.000000,1010.506490,22.862638,25.500000,0.000000,1638.000000,1499.000000,1344.000000,1500.000000
16.499001,190.643036,-12.406317,-22.972544,6.298481,8.639302,7.187692,10.711153,0.059990,0.495385,-0.006737,0.031459,0.076055,0.000000,0.000000,0.000000,30.493400,-88.212074,22.972544,7.213117,7.187692,0.000000,0.000000,0.000000,0.000000,0.000000,0.000000,1010.493316,22.972544,25.500000,0.000000,1638.000000,1500.000000,1346.000000,1500.000000
16.600000,191.710699,-12.265517,-23.086667,6.353301,8.762709,7.656916,10.709794,0.082750,0.487820,-0.000514,0.027822,0.078784,0.000000,0.000000,0.000000,30.493409,-88.212073,23.086667,7.805879,7.656916,0.000000,0.000000,0.000000,0.000000,0.000000,0.000000,1010.479636,23.086667,25.500000,0.000000,1638.000000,1499.000000,1348.000000,1500.000000
16.700001,192.765774,-12.115328,-23.202122,6.429676,8.862486,8.143412,10.706163,0.101315,0.482038,0.001045,0.025480,0.084701,0.000000,0.000000,0.000000,30.493419,-88.212071,23.202122,8.391614,8.143412,0.000000,0.000000,0.000000,0.000000,0.000000,0.000000,1010.465797,23.202122,25.500000,0.000000,1638.000000,1499.000000,1349.000000,1500.000000
16.801000,193.829104,-11.952779,-23.320682,6.502838,8.946835,8.673677,10.700798,0.113549,0.477965,-0.017470,0.022553,0.091120,0.000000,0.000000,0.000000,30.493428,-88.212069,23.320682,8.986552,8.673677,0.000000,0.000000,0.000000,0.000000,0.000000,0.000000,1010.451586,23.320682,25.500000,0.000000,1639.000000,1484.000000,1351.000000,1502.000000
16.902001,194.889915,-11.779314,-23.440814,6.358029,8.999877,9.277986,10.694426,0.109693,0.473831,-0.063502,0.018878,0.115332,0.000000,0.000000,0.000000,30.493438,-88.212068,23.440814,9.579620,9.277986,0.000000,0.000000,0.000000,0.000000,0.000000,0.000000,1010.437187,23.440814,25.500000,0.000000,1639.000000,1481.000000,1352.000000,1502.000000
17.002001,195.937586,-11.597031,-23.560908,6.017888,9.018843,10.052790,10.687265,0.068616,0.470992,-0.094958,0.016226,0.148951,0.000000,0.000000,0.000000,30.493447,-88.212066,23.560908,10.151631,10.052790,0.000000,0.000000,0.000000,0.000000,0.000000,0.000000,1010.422792,23.560908,25.500000,0.000000,1639.000000,1480.000000,1353.000000,1502.000000
17.103000,196.992963,-11.402673,-23.683055,5.560041,9.010759,11.001301,10.679018,-0.008405,0.468564,-0.112406,0.013396,0.169894,0.000000,0.000000,0.000000,30.493457,-88.212064,23.683055,10.708547,11.001301,0.000000,0.000000,0.000000,0.000000,0.000000,0.000000,1010.408152,23.683055,25.500000,0.000000,1639.000000,1480.000000,1354.000000,1502.000000
