Time (sec) ,X(m) ,Y(m) ,Z(m) ,Roll (deg) ,Pitch (deg) ,Yaw (deg) ,U(m/s) ,V(m/s) ,W(m/s) ,P(rad/s) ,Q(rad/s) ,R(rad/s) ,Mx(Gauss) ,My(Gauss) ,Mz(Gauss) ,GPS Latitude (deg) ,GPS Longitude (deg) ,GPS Altitude (m) ,GPS Heading (deg) ,Yaw (deg) ,Analog 1 (V) ,Analog 2 (V) ,Analog 3 (V) ,Analog 4 (V) ,Analog 5 (V) ,Analog 6 (V) ,Pressure (Pa) ,Pressure Altitude (m) ,Temperature (C) ,RC In Channel #5 ,PWM Model 1 ,PWM Model 2 ,PWM Model 3 ,PWM Model 4 
 0.000020,20.010000,-0.000000,-9.999998,0.057146,-0.000087,-0.000199,9.999710,0.000007,0.003971,0.994785,-0.003040,-0.006933,0.000000,0.000000,0.000000,30.491864,-88.211945,9.999998,-0.000092,-0.000199,0.000000,0.000000,0.000000,0.000000,0.000000,0.000000,1012.049262,9.999998,25.500000,0.000000,992.000000,1494.000000,1502.000000,1501.000000
0.101001,21.018884,0.000559,-9.982682,4.475591,-0.745427,-1.569915,9.980867,0.304417,0.168067,0.556293,-0.259271,-0.432371,0.000000,0.000000,0.000000,30.491873,-88.211945,9.982682,0.096192,-1.569915,0.000000,0.000000,0.000000,0.000000,0.000000,0.000000,1012.051340,9.982682,25.500000,0.000000,992.000000,1494.000000,1502.000000,1501.000000
0.201001,22.016937,0.003938,-9.935761,6.850415,-2.294159,-4.308157,9.966903,0.822109,0.128854,0.270725,-0.351392,-0.402650,0.000000,0.000000,0.000000,30.491882,-88.211945,9.935761,0.292702,-4.308157,0.000000,0.000000,0.000000,0.000000,0.000000,0.000000,1012.056971,9.935761,25.500000,0.000000,992.000000,1495.000000,1501.000000,1501.000000
0.302001,23.025788,0.010834,-9.855357,7.945096,-4.149597,-6.135197,9.976161,1.176879,0.089211,0.087041,-0.359511,-0.112402,0.000000,0.000000,0.000000,30.491891,-88.211944,9.855357,0.487173,-6.135197,0.000000,0.000000,0.000000,0.000000,0.000000,0.000000,1012.066621,9.855357,25.500000,0.000000,992.000000,1487.000000,1502.000000,1501.000000
0.402001,24.027195,0.021080,-9.740083,8.048706,-6.159621,-6.047121,10.050617,1.201419,0.088979,-0.044579,-0.325055,0.238575,0.000000,0.000000,0.000000,30.491900,-88.211944,9.740083,0.688601,-6.047121,0.000000,0.000000,0.000000,0.000000,0.000000,0.000000,1012.080456,9.740083,25.500000,0.000000,992.000000,1468.000000,1489.000000,1503.000000
0.503001,25.043451,0.035514,-9.587606,7.265645,-8.209410,-4.031498,10.195121,0.898482,0.116034,-0.132638,-0.280884,0.519447,0.000000,0.000000,0.000000,30.491909,-88.211944,9.587606,0.947980,-4.031498,0.000000,0.000000,0.000000,0.000000,0.000000,0.000000,1012.098757,9.587606,25.500000,0.000000,992.000000,1458.000000,1473.000000,1504.000000
0.603001,26.057040,0.055152,-9.403169,5.835124,-9.972201,-0.766436,10.370252,0.383559,0.171022,-0.181480,-0.180687,0.639219,0.000000,0.000000,0.000000,30.491918,-88.211944,9.403169,1.281049,-0.766436,0.000000,0.000000,0.000000,0.000000,0.000000,0.000000,1012.120893,9.403169,25.500000,0.000000,992.000000,1454.000000,1429.000000,1505.000000
0.704001,27.091032,0.082003,-9.187225,4.042678,-10.970102,2.837878,10.543657,-0.185294,0.274598,-0.207055,-0.036549,0.584066,0.000000,0.000000,0.000000,30.491928,-88.211944,9.187225,1.700053,2.837878,0.000000,0.000000,0.000000,0.000000,0.000000,0.000000,1012.146812,9.187225,25.500000,0.000000,1050.000000,1455.000000,1375.000000,1504.000000
0.805001,28.138626,0.117432,-8.950135,2.242643,-10.993933,5.779285,10.706750,-0.642582,0.405276,-0.215568,0.097467,0.397426,0.000000,0.000000,0.000000,30.491937,-88.211943,8.950135,2.170066,5.779285,0.000000,0.000000,0.000000,0.000000,0.000000,0.000000,1012.175269,8.950135,25.500000,0.000000,1102.000000,1461.000000,1328.000000,1504.000000
0.905002,29.192720,0.161602,-8.706286,0.697348,-10.101992,7.426505,10.875353,-0.886675,0.556642,-0.213320,0.262725,0.158569,0.000000,0.000000,0.000000,30.491947,-88.211943,8.706286,2.611874,7.426505,0.000000,0.000000,0.000000,0.000000,0.000000,0.000000,1012.204538,8.706286,25.500000,0.000000,1225.000000,1468.000000,1261.000000,1503.000000
1.006001,30.278432,0.214665,-8.464781,-0.558755,-8.257118,7.692932,11.067755,-0.905713,0.721001,-0.198012,0.380184,-0.057890,0.000000,0.000000,0.000000,30.491956,-88.211942,8.464781,2.956195,7.692932,0.000000,0.000000,0.000000,0.000000,0.000000,0.000000,1012.233526,8.464781,25.500000,0.000000,1361.000000,1478.000000,1225.000000,1502.000000
1.107001,31.389217,0.273960,-8.245286,-1.536996,-6.022124,6.856350,11.266606,-0.748604,0.814438,-0.169522,0.376662,-0.198966,0.000000,0.000000,0.000000,30.491966,-88.211942,8.245286,3.117133,6.856350,0.000000,0.000000,0.000000,0.000000,0.000000,0.000000,1012.259873,8.245286,25.500000,0.000000,1383.000000,1487.000000,1233.000000,1501.000000
1.208001,32.524765,0.335624,-8.061079,-2.305399,-4.019291,5.443499,11.452392,-0.504732,0.808551,-0.134580,0.321949,-0.248624,0.000000,0.000000,0.000000,30.491977,-88.211941,8.061079,3.067288,5.443499,0.000000,0.000000,0.000000,0.000000,0.000000,0.000000,1012.281985,8.061079,25.500000,0.000000,1443.000000,1494.000000,1250.000000,1501.000000
1.309001,33.682507,0.395616,-7.916290,-2.900587,-2.347559,3.969187,11.611218,-0.266069,0.751333,-0.095867,0.267466,-0.222923,0.000000,0.000000,0.000000,30.491987,-88.211940,7.916290,2.843161,3.969187,0.000000,0.000000,0.000000,0.000000,0.000000,0.000000,1012.299366,7.916290,25.500000,0.000000,1444.000000,1500.000000,1272.000000,1500.000000
1.410000,34.857922,0.450633,-7.809569,-3.308677,-0.960785,2.774995,11.734439,-0.094490,0.678114,-0.055459,0.224346,-0.159766,0.000000,0.000000,0.000000,30.491998,-88.211940,7.809569,2.507029,2.774995,0.000000,0.000000,0.000000,0.000000,0.000000,0.000000,1012.312176,7.809569,25.500000,0.000000,1446.000000,1504.000000,1292.000000,1500.000000
1.511001,36.046598,0.498664,-7.737108,-3.510588,0.202363,1.967896,11.827743,-0.005884,0.603360,-0.014188,0.179294,-0.096951,0.000000,0.000000,0.000000,30.492008,-88.211939,7.737108,2.120340,1.967896,0.000000,0.000000,0.000000,0.000000,0.000000,0.000000,1012.320875,7.737108,25.500000,0.000000,1446.000000,1508.000000,1315.000000,1499.000000
1.612001,37.244767,0.538896,-7.694305,-3.487550,1.132058,1.469992,11.896641,0.021927,0.531461,0.023673,0.146801,-0.060044,0.000000,0.000000,0.000000,30.492019,-88.211939,7.694305,1.732785,1.469992,0.000000,0.000000,0.000000,0.000000,0.000000,0.000000,1012.326013,7.694305,25.500000,0.000000,1446.000000,1510.000000,1330.000000,1499.000000
1.712001,38.437504,0.571171,-7.676057,-3.273995,1.924034,1.113507,11.946849,0.027124,0.480184,0.054076,0.134780,-0.051500,0.000000,0.000000,0.000000,30.492030,-88.211939,7.676057,1.376392,1.113507,0.000000,0.000000,0.000000,0.000000,0.000000,0.000000,1012.328204,7.676057,25.500000,0.000000,1461.000000,1512.000000,1338.000000,1499.000000
1.813001,39.646746,0.596709,-7.678136,-2.907867,2.669178,0.752596,11.983685,0.039951,0.445951,0.075185,0.121419,-0.060527,0.000000,0.000000,0.000000,30.492041,-88.211938,7.678136,1.052838,0.752596,0.000000,0.000000,0.000000,0.000000,0.000000,0.000000,1012.327954,7.678136,25.500000,0.000000,1462.000000,1512.000000,1348.000000,1499.000000
1.914001,40.858799,0.615881,-7.698470,-2.460707,3.313651,0.340999,12.006028,0.071741,0.413671,0.085483,0.102534,-0.069657,0.000000,0.000000,0.000000,30.492052,-88.211938,7.698470,0.768975,0.340999,0.000000,0.000000,0.000000,0.000000,0.000000,0.000000,1012.325513,7.698470,25.500000,0.000000,1462.000000,1512.000000,1357.000000,1499.000000
2.015000,42.072073,0.629494,-7.734637,-1.981511,3.863249,-0.086086,12.015673,0.114774,0.386950,0.086475,0.095680,-0.068101,0.000000,0.000000,0.000000,30.492063,-88.211938,7.734637,0.525838,-0.086086,0.000000,0.000000,0.000000,0.000000,0.000000,0.000000,1012.321171,7.734637,25.500000,0.000000,1464.000000,1510.000000,1359.000000,1499.000000
2.115001,43.273335,0.638309,-7.783772,-1.531685,4.391668,-0.453268,12.016711,0.152670,0.370724,0.076982,0.082436,-0.052025,0.000000,0.000000,0.000000,30.492073,-88.211938,7.783772,0.322993,-0.453268,0.000000,0.000000,0.000000,0.000000,0.000000,0.000000,1012.315273,7.783772,25.500000,0.000000,1482.000000,1507.000000,1369.000000,1499.000000
2.216000,44.485976,0.643291,-7.845604,-1.146045,4.807731,-0.687158,12.013785,0.169517,0.345535,0.062191,0.063727,-0.024240,0.000000,0.000000,0.000000,30.492084,-88.211938,7.845604,0.155722,-0.687158,0.000000,0.000000,0.000000,0.000000,0.000000,0.000000,1012.307851,7.845604,25.500000,0.000000,1490.000000,1505.000000,1374.000000,1499.000000
2.316001,45.685453,0.645129,-7.916782,-0.833355,5.145487,-0.748677,12.005271,0.157523,0.325342,0.048408,0.051605,0.003697,0.000000,0.000000,0.000000,30.492095,-88.211938,7.916782,0.027367,-0.748677,0.000000,0.000000,0.000000,0.000000,0.000000,0.000000,1012.299307,7.916782,25.500000,0.000000,1490.000000,1503.000000,1380.000000,1500.000000
2.417001,46.895143,0.644650,-7.996780,-0.584613,5.411879,-0.669137,11.990384,0.122725,0.307243,0.033550,0.039808,0.022566,0.000000,0.000000,0.000000,30.492106,-88.211938,7.996780,-0.066155,-0.669137,0.000000,0.000000,0.000000,0.000000,0.000000,0.000000,1012.289704,7.996780,25.500000,0.000000,1490.000000,1500.000000,1384.000000,1500.000000
2.518000,48.102533,0.642539,-8.083098,-0.424902,5.619389,-0.509432,11.970276,0.077020,0.293185,0.016242,0.029056,0.031278,0.000000,0.000000,0.000000,30.492117,-88.211938,8.083098,-0.129220,-0.509432,0.000000,0.000000,0.000000,0.000000,0.000000,0.000000,1012.279342,8.083098,25.500000,0.000000,1490.000000,1498.000000,1389.000000,1500.000000
2.618001,49.295341,0.639390,-8.173265,-0.358790,5.755726,-0.325118,11.946412,0.030450,0.279958,0.001165,0.019615,0.031775,0.000000,0.000000,0.000000,30.492128,-88.211938,8.173265,-0.170091,-0.325118,0.000000,0.000000,0.000000,0.000000,0.000000,0.000000,1012.268519,8.173265,25.500000,0.000000,1491.000000,1497.000000,1391.000000,1500.000000
2.719001,50.497229,0.635504,-8.267539,-0.370145,5.858154,-0.155745,11.920516,-0.010734,0.272686,-0.010725,0.016014,0.025706,0.000000,0.000000,0.000000,30.492138,-88.211938,8.267539,-0.198866,-0.155745,0.000000,0.000000,0.000000,0.000000,0.000000,0.000000,1012.257202,8.267539,25.500000,0.000000,1503.000000,1496.000000,1392.000000,1500.000000
2.820000,51.696427,0.631077,-8.363979,-0.450599,5.945134,-0.033163,11.897109,-0.041659,0.269877,-0.021317,0.013488,0.016384,0.000000,0.000000,0.000000,30.492149,-88.211938,8.363979,-0.224012,-0.033163,0.000000,0.000000,0.000000,0.000000,0.000000,0.000000,1012.245626,8.363979,25.500000,0.000000,1517.000000,1495.000000,1393.000000,1500.000000
2.920000,52.881468,0.626151,-8.461045,-0.593625,6.015061,0.035251,11.876653,-0.062460,0.268661,-0.028840,0.012949,0.008162,0.000000,0.000000,0.000000,30.492160,-88.211938,8.461045,-0.253356,0.035251,0.000000,0.000000,0.000000,0.000000,0.000000,0.000000,1012.233975,8.461045,25.500000,0.000000,1515.000000,1497.000000,1391.000000,1500.000000
3.020001,54.064273,0.620530,-8.559230,-0.749600,6.110671,0.056623,11.854250,-0.075710,0.277275,-0.026714,0.033355,-0.000966,0.000000,0.000000,0.000000,30.492170,-88.211938,8.559230,-0.292633,0.056623,0.000000,0.000000,0.000000,0.000000,0.000000,0.000000,1012.222189,8.559230,25.500000,0.000000,1516.000000,1497.000000,1369.000000,1500.000000
3.121001,55.256509,0.613909,-8.659569,-0.906707,6.497077,0.014983,11.829427,-0.079604,0.327884,-0.026212,0.080338,-0.011113,0.000000,0.000000,0.000000,30.492181,-88.211938,8.659569,-0.346267,0.014983,0.000000,0.000000,0.000000,0.000000,0.000000,0.000000,1012.210145,8.659569,25.500000,0.000000,1516.000000,1497.000000,1371.000000,1500.000000
3.221001,56.433953,0.606083,-8.763788,-1.068701,6.923566,-0.078503,11.800859,-0.076179,0.350095,-0.026214,0.078785,-0.017974,0.000000,0.000000,0.000000,30.492192,-88.211938,8.763788,-0.417461,-0.078503,0.000000,0.000000,0.000000,0.000000,0.000000,0.000000,1012.197636,8.763788,25.500000,0.000000,1516.000000,1498.000000,1348.000000,1500.000000
3.321001,57.607683,0.596646,-8.874569,-1.224619,7.569245,-0.206893,11.765157,-0.069986,0.400636,-0.022711,0.128147,-0.021715,0.000000,0.000000,0.000000,30.492202,-88.211938,8.874569,-0.506706,-0.206893,0.000000,0.000000,0.000000,0.000000,0.000000,0.000000,1012.184339,8.874569,25.500000,0.000000,1516.000000,1499.000000,1349.000000,1500.000000
3.421001,58.776545,0.585214,-8.995287,-1.358172,8.273501,-0.356621,11.721045,-0.062948,0.423903,-0.017149,0.116219,-0.024561,0.000000,0.000000,0.000000,30.492213,-88.211938,8.995287,-0.615883,-0.356621,0.000000,0.000000,0.000000,0.000000,0.000000,0.000000,1012.169849,8.995287,25.500000,0.000000,1516.000000,1500.000000,1354.000000,1500.000000
3.521001,59.939215,0.571470,-9.127797,-1.460022,8.851127,-0.521401,11.667488,-0.054878,0.417726,-0.010562,0.092409,-0.027520,0.000000,0.000000,0.000000,30.492223,-88.211939,9.127797,-0.739291,-0.521401,0.000000,0.000000,0.000000,0.000000,0.000000,0.000000,1012.153945,9.127797,25.500000,0.000000,1516.000000,1500.000000,1354.000000,1500.000000
3.622001,61.106197,0.555047,-9.272432,-1.539278,9.319957,-0.703073,11.604006,-0.045254,0.405008,-0.007312,0.076202,-0.029887,0.000000,0.000000,0.000000,30.492234,-88.211939,9.272432,-0.873326,-0.703073,0.000000,0.000000,0.000000,0.000000,0.000000,0.000000,1012.136585,9.272432,25.500000,0.000000,1516.000000,1500.000000,1358.000000,1500.000000
3.723000,62.265078,0.535948,-9.425855,-1.607469,9.662238,-0.889296,11.532639,-0.036002,0.386322,-0.005822,0.050901,-0.029921,0.000000,0.000000,0.000000,30.492244,-88.211939,9.425855,-1.014615,-0.889296,0.000000,0.000000,0.000000,0.000000,0.000000,0.000000,1012.118170,9.425855,25.500000,0.000000,1516.000000,1500.000000,1366.000000,1500.000000
3.824006,63.415692,0.514098,-9.585546,-1.657111,9.879664,-1.067052,11.461158,-0.029287,0.368254,-0.001226,0.031580,-0.028702,0.000000,0.000000,0.000000,30.492255,-88.211939,9.585546,-1.160312,-1.067052,0.000000,0.000000,0.000000,0.000000,0.000000,0.000000,1012.099004,9.585546,25.500000,0.000000,1532.000000,1501.000000,1372.000000,1500.000000
3.925000,64.558178,0.489473,-9.748923,-1.674298,9.990834,-1.238316,11.385742,-0.024135,0.352692,0.005078,0.013055,-0.028938,0.000000,0.000000,0.000000,30.492265,-88.211939,9.748923,-1.307819,-1.238316,0.000000,0.000000,0.000000,0.000000,0.000000,0.000000,1012.079395,9.748923,25.500000,0.000000,1532.000000,1502.000000,1378.000000,1500.000000
4.026001,65.692549,0.462106,-9.913585,-1.664416,10.004489,-1.413560,11.308138,-0.018044,0.340232,0.008464,-0.003225,-0.030515,0.000000,0.000000,0.000000,30.492275,-88.211940,9.913585,-1.454568,-1.413560,0.000000,0.000000,0.000000,0.000000,0.000000,0.000000,1012.059633,9.913585,25.500000,0.000000,1532.000000,1502.000000,1383.000000,1500.000000
4.127001,66.818991,0.432062,-10.077372,-1.641330,9.933642,-1.593285,11.230124,-0.010822,0.331271,0.010066,-0.017154,-0.031068,0.000000,0.000000,0.000000,30.492285,-88.211940,10.077372,-1.599423,-1.593285,0.000000,0.000000,0.000000,0.000000,0.000000,0.000000,1012.039976,10.077372,25.500000,0.000000,1532.000000,1502.000000,1387.000000,1500.000000
4.228001,67.937842,0.399417,-10.238291,-1.601823,9.906304,-1.772712,11.152655,-0.003870,0.347307,0.014279,0.006302,-0.030383,0.000000,0.000000,0.000000,30.492295,-88.211940,10.238291,-1.741717,-1.772712,0.000000,0.000000,0.000000,0.000000,0.000000,0.000000,1012.020663,10.238291,25.500000,0.000000,1532.000000,1503.000000,1377.000000,1500.000000
4.329001,69.049294,0.364233,-10.396094,-1.551407,10.028057,-1.953526,11.076079,0.002921,0.382633,0.013494,0.032150,-0.029560,0.000000,0.000000,0.000000,30.492305,-88.211941,10.396094,-1.883485,-1.953526,0.000000,0.000000,0.000000,0.000000,0.000000,0.000000,1012.001725,10.396094,25.500000,0.000000,1533.000000,1502.000000,1366.000000,1500.000000
4.429001,70.142301,0.326934,-10.550904,-1.506574,10.264823,-2.123889,11.000075,0.007786,0.419351,0.012721,0.047911,-0.026532,0.000000,0.000000,0.000000,30.492315,-88.211941,10.550904,-2.024304,-2.123889,0.000000,0.000000,0.000000,0.000000,0.000000,0.000000,1011.983146,10.550904,25.500000,0.000000,1534.000000,1502.000000,1357.000000,1500.000000
4.530001,71.238356,0.286829,-10.707550,-1.462432,10.712912,-2.281328,10.919880,0.009460,0.478118,0.012488,0.104496,-0.023018,0.000000,0.000000,0.000000,30.492325,-88.211942,10.707550,-2.165909,-2.281328,0.000000,0.000000,0.000000,0.000000,0.000000,0.000000,1011.964347,10.707550,25.500000,0.000000,1533.000000,1502.000000,1331.000000,1500.000000
4.631000,72.325632,0.244332,-10.867594,-1.425376,11.376250,-2.425815,10.833805,0.008335,0.533048,0.009522,0.120243,-0.020138,0.000000,0.000000,0.000000,30.492335,-88.211942,10.867594,-2.309758,-2.425815,0.000000,0.000000,0.000000,0.000000,0.000000,0.000000,1011.945141,10.867594,25.500000,0.000000,1532.000000,1501.000000,1322.000000,1500.000000
4.731001,73.392246,0.199969,-11.032691,-1.403204,12.140310,-2.554095,10.740501,0.004450,0.580952,0.007565,0.146800,-0.017261,0.000000,0.000000,0.000000,30.492344,-88.211942,11.032691,-2.452646,-2.554095,0.000000,0.000000,0.000000,0.000000,0.000000,0.000000,1011.925328,11.032691,25.500000,0.000000,1533.000000,1501.000000,1305.000000,1500.000000
4.831001,74.447628,0.153420,-11.206732,-1.387933,12.920093,-2.669875,10.637869,-0.001385,0.603336,0.006654,0.121933,-0.015861,0.000000,0.000000,0.000000,30.492354,-88.211943,11.206732,-2.596991,-2.669875,0.000000,0.000000,0.000000,0.000000,0.000000,0.000000,1011.904443,11.206732,25.500000,0.000000,1533.000000,1501.000000,1311.000000,1500.000000
4.932000,75.500787,0.104313,-11.392339,-1.376017,13.528132,-2.779722,10.524849,-0.007417,0.597619,0.006202,0.089726,-0.016294,0.000000,0.000000,0.000000,30.492363,-88.211943,11.392339,-2.740704,-2.779722,0.000000,0.000000,0.000000,0.000000,0.000000,0.000000,1011.882170,11.392339,25.500000,0.000000,1534.000000,1501.000000,1317.000000,1500.000000
5.032001,76.530192,0.053769,-11.583863,-1.361963,13.946907,-2.890581,10.407280,-0.011945,0.580755,0.008483,0.056883,-0.018123,0.000000,0.000000,0.000000,30.492373,-88.211944,11.583863,-2.879481,-2.890581,0.000000,0.000000,0.000000,0.000000,0.000000,0.000000,1011.859187,11.583863,25.500000,0.000000,1545.000000,1502.000000,1326.000000,1500.000000
5.133000,77.556406,0.000918,-11.782141,-1.337267,14.198004,-3.015250,10.283889,-0.013221,0.562959,0.010302,0.030571,-0.021713,0.000000,0.000000,0.000000,30.492382,-88.211945,11.782141,-3.015042,-3.015250,0.000000,0.000000,0.000000,0.000000,0.000000,0.000000,1011.835394,11.782141,25.500000,0.000000,1549.000000,1502.000000,1333.000000,1500.000000
5.233000,78.559270,-0.053059,-11.980076,-1.315389,14.309624,-3.156389,10.158163,-0.010774,0.549883,0.008664,0.008510,-0.024757,0.000000,0.000000,0.000000,30.492391,-88.211945,11.980076,-3.145113,-3.156389,0.000000,0.000000,0.000000,0.000000,0.000000,0.000000,1011.811643,11.980076,25.500000,0.000000,1550.000000,1501.000000,1339.000000,1500.000000
5.334000,79.559144,-0.109138,-12.178752,-1.308695,14.304057,-3.305648,10.029261,-0.007046,0.542211,0.006560,-0.009809,-0.024800,0.000000,0.000000,0.000000,30.492400,-88.211946,12.178752,-3.273965,-3.305648,0.000000,0.000000,0.000000,0.000000,0.000000,0.000000,1011.787803,12.178752,25.500000,0.000000,1549.000000,1501.000000,1343.000000,1500.000000
5.434001,80.536647,-0.166146,-12.371805,-1.305407,14.208840,-3.444954,9.901865,-0.004845,0.541556,0.007389,-0.021997,-0.023008,0.000000,0.000000,0.000000,30.492409,-88.211946,12.371805,-3.400206,-3.444954,0.000000,0.000000,0.000000,0.000000,0.000000,0.000000,1011.764639,12.371805,25.500000,0.000000,1549.000000,1502.000000,1344.000000,1500.000000
5.534001,81.502271,-0.224585,-12.559349,-1.293607,14.044553,-3.574079,9.776721,-0.004198,0.545685,0.006883,-0.035433,-0.022090,0.000000,0.000000,0.000000,30.492417,-88.211947,12.559349,-3.525069,-3.574079,0.000000,0.000000,0.000000,0.000000,0.000000,0.000000,1011.742136,12.559349,25.500000,0.000000,1549.000000,1501.000000,1346.000000,1500.000000
5.634002,82.456694,-0.284421,-12.740026,-1.287445,13.807102,-3.695374,9.658795,-0.004733,0.552428,0.005583,-0.045454,-0.020809,0.000000,0.000000,0.000000,30.492426,-88.211948,12.740026,-3.648496,-3.695374,0.000000,0.000000,0.000000,0.000000,0.000000,0.000000,1011.720457,12.740026,25.500000,0.000000,1566.000000,1501.000000,1345.000000,1500.000000
5.735001,83.410381,-0.346276,-12.914480,-1.284271,13.516647,-3.808904,9.547095,-0.006689,0.562495,0.004862,-0.053705,-0.019644,0.000000,0.000000,0.000000,30.492435,-88.211948,12.914480,-3.772267,-3.808904,0.000000,0.000000,0.000000,0.000000,0.000000,0.000000,1011.699526,12.914480,25.500000,0.000000,1565.000000,1501.000000,1344.000000,1500.000000
5.836002,84.354469,-0.409552,-13.080073,-1.282121,13.180700,-3.916218,9.441679,-0.009570,0.574453,0.004487,-0.060645,-0.019169,0.000000,0.000000,0.000000,30.492443,-88.211949,13.080073,-3.895417,-3.916218,0.000000,0.000000,0.000000,0.000000,0.000000,0.000000,1011.679658,13.080073,25.500000,0.000000,1566.000000,1501.000000,1342.000000,1500.000000
5.937000,85.289721,-0.474251,-13.236226,-1.280641,12.809742,-4.022159,9.343543,-0.012609,0.588268,0.004274,-0.065410,-0.019487,0.000000,0.000000,0.000000,30.492452,-88.211950,13.236226,-4.018191,-4.022159,0.000000,0.000000,0.000000,0.000000,0.000000,0.000000,1011.660922,13.236226,25.500000,0.000000,1566.000000,1501.000000,1339.000000,1500.000000
6.037001,86.207764,-0.539727,-13.381174,-1.280191,12.418152,-4.130049,9.254079,-0.015137,0.603254,0.004109,-0.069364,-0.020381,0.000000,0.000000,0.000000,30.492460,-88.211950,13.381174,-4.139790,-4.130049,0.000000,0.000000,0.000000,0.000000,0.000000,0.000000,1011.643532,13.381174,25.500000,0.000000,1566.000000,1501.000000,1336.000000,1500.000000
6.137001,87.118655,-0.606640,-13.516357,-1.281132,12.005696,-4.243446,9.172802,-0.016852,0.618728,0.003931,-0.071933,-0.021530,0.000000,0.000000,0.000000,30.492468,-88.211951,13.516357,-4.261811,-4.243446,0.000000,0.000000,0.000000,0.000000,0.000000,0.000000,1011.627313,13.516357,25.500000,0.000000,1566.000000,1501.000000,1332.000000,1500.000000
6.238001,88.032180,-0.675718,-13.642946,-1.283662,11.577025,-4.364327,9.099382,-0.017728,0.634623,0.003728,-0.074506,-0.022643,0.000000,0.000000,0.000000,30.492476,-88.211952,13.642946,-4.385933,-4.364327,0.000000,0.000000,0.000000,0.000000,0.000000,0.000000,1011.612125,13.642946,25.500000,0.000000,1566.000000,1501.000000,1329.000000,1500.000000
6.339001,88.939987,-0.746352,-13.759654,-1.287575,11.134354,-4.490580,9.034940,-0.017941,0.649961,0.003511,-0.075063,-0.023507,0.000000,0.000000,0.000000,30.492484,-88.211952,13.759654,-4.511186,-4.490580,0.000000,0.000000,0.000000,0.000000,0.000000,0.000000,1011.598124,13.759654,25.500000,0.000000,1566.000000,1501.000000,1324.000000,1500.000000
6.439001,89.833964,-0.817877,-13.865615,-1.291071,10.700394,-4.619389,8.980016,-0.017793,0.665902,0.004471,-0.074242,-0.023957,0.000000,0.000000,0.000000,30.492492,-88.211953,13.865615,-4.636592,-4.619389,0.000000,0.000000,0.000000,0.000000,0.000000,0.000000,1011.585411,13.865615,25.500000,0.000000,1566.000000,1502.000000,1320.000000,1500.000000
6.540000,90.732774,-0.891789,-13.963283,-1.284733,10.265867,-4.753215,8.933791,-0.017100,0.681139,0.005284,-0.073597,-0.025047,0.000000,0.000000,0.000000,30.492500,-88.211954,13.963283,-4.764308,-4.753215,0.000000,0.000000,0.000000,0.000000,0.000000,0.000000,1011.573694,13.963283,25.500000,0.000000,1568.000000,1501.000000,1316.000000,1500.000000
6.641000,91.628267,-0.967443,-14.051958,-1.281635,9.837749,-4.892830,8.896603,-0.015649,0.695499,0.004270,-0.071261,-0.025564,0.000000,0.000000,0.000000,30.492509,-88.211955,14.051958,-4.892767,-4.892830,0.000000,0.000000,0.000000,0.000000,0.000000,0.000000,1011.563056,14.051958,25.500000,0.000000,1566.000000,1501.000000,1311.000000,1500.000000
6.741001,92.512334,-1.044128,-14.131311,-1.282401,9.433005,-5.031345,8.867918,-0.014406,0.709656,0.003606,-0.067990,-0.025143,0.000000,0.000000,0.000000,30.492517,-88.211955,14.131311,-5.021137,-5.031345,0.000000,0.000000,0.000000,0.000000,0.000000,0.000000,1011.553536,14.131311,25.500000,0.000000,1567.000000,1501.000000,1307.000000,1500.000000
6.842000,93.403377,-1.123450,-14.203480,-1.284662,9.043566,-5.167584,8.847340,-0.013917,0.722962,0.003212,-0.063779,-0.024307,0.000000,0.000000,0.000000,30.492525,-88.211956,14.203480,-5.152076,-5.167584,0.000000,0.000000,0.000000,0.000000,0.000000,0.000000,1011.544878,14.203480,25.500000,0.000000,1567.000000,1501.000000,1302.000000,1500.000000
6.943001,94.293231,-1.204726,-14.268210,-1.287000,8.684253,-5.299366,8.834346,-0.014293,0.735991,0.003025,-0.058613,-0.023505,0.000000,0.000000,0.000000,30.492533,-88.211957,14.268210,-5.284188,-5.299366,0.000000,0.000000,0.000000,0.000000,0.000000,0.000000,1011.537112,14.268210,25.500000,0.000000,1566.000000,1501.000000,1298.000000,1500.000000
7.043001,95.173703,-1.287190,-14.325637,-1.288042,8.356756,-5.426444,8.828317,-0.015294,0.747557,0.003776,-0.053795,-0.022929,0.000000,0.000000,0.000000,30.492540,-88.211958,14.325637,-5.415977,-5.426444,0.000000,0.000000,0.000000,0.000000,0.000000,0.000000,1011.530223,14.325637,25.500000,0.000000,1566.000000,1502.000000,1294.000000,1500.000000
7.144001,96.062969,-1.372556,-14.377593,-1.278193,8.056476,-5.554549,8.828624,-0.016220,0.758105,0.005222,-0.048154,-0.023517,0.000000,0.000000,0.000000,30.492548,-88.211959,14.377593,-5.549389,-5.554549,0.000000,0.000000,0.000000,0.000000,0.000000,0.000000,1011.523990,14.377593,25.500000,0.000000,1565.000000,1501.000000,1290.000000,1500.000000
7.245001,96.952731,-1.460059,-14.424163,-1.269162,7.791307,-5.688886,8.834589,-0.016140,0.767755,0.004350,-0.042340,-0.024361,0.000000,0.000000,0.000000,30.492556,-88.211960,14.424163,-5.682604,-5.688886,0.000000,0.000000,0.000000,0.000000,0.000000,0.000000,1011.518403,14.424163,25.500000,0.000000,1566.000000,1501.000000,1287.000000,1500.000000
7.346001,97.843471,-1.549752,-14.466081,-1.264210,7.557492,-5.826688,8.846033,-0.015578,0.775700,0.003761,-0.037055,-0.024517,0.000000,0.000000,0.000000,30.492564,-88.211961,14.466081,-5.816083,-5.826688,0.000000,0.000000,0.000000,0.000000,0.000000,0.000000,1011.513374,14.466081,25.500000,0.000000,1567.000000,1501.000000,1284.000000,1500.000000
7.447001,98.735629,-1.641691,-14.504048,-1.261501,7.356578,-5.964656,8.862151,-0.015060,0.782498,0.003394,-0.030966,-0.024230,0.000000,0.000000,0.000000,30.492573,-88.211962,14.504048,-5.949999,-5.964656,0.000000,0.000000,0.000000,0.000000,0.000000,0.000000,1011.508820,14.504048,25.500000,0.000000,1567.000000,1501.000000,1281.000000,1500.000000
7.547001,99.620702,-1.734984,-14.538409,-1.259791,7.195014,-6.099751,8.881667,-0.014851,0.788695,0.003197,-0.024211,-0.023766,0.000000,0.000000,0.000000,30.492580,-88.211963,14.538409,-6.083057,-6.099751,0.000000,0.000000,0.000000,0.000000,0.000000,0.000000,1011.504698,14.538409,25.500000,0.000000,1566.000000,1501.000000,1278.000000,1500.000000
7.648001,100.516650,-1.831542,-14.570540,-1.258279,7.073398,-6.234352,8.904062,-0.014989,0.794617,0.003117,-0.017287,-0.023324,0.000000,0.000000,0.000000,30.492589,-88.211964,14.570540,-6.217884,-6.234352,0.000000,0.000000,0.000000,0.000000,0.000000,0.000000,1011.500843,14.570540,25.500000,0.000000,1567.000000,1501.000000,1276.000000,1500.000000
7.748001,101.405949,-1.929494,-14.600522,-1.256602,6.988345,-6.366227,8.928672,-0.015364,0.799040,0.003110,-0.012003,-0.023034,0.000000,0.000000,0.000000,30.492597,-88.211965,14.600522,-6.351729,-6.366227,0.000000,0.000000,0.000000,0.000000,0.000000,0.000000,1011.497246,14.600522,25.500000,0.000000,1566.000000,1501.000000,1275.000000,1500.000000
7.849001,102.306516,-2.030829,-14.629654,-1.254576,6.923552,-6.498715,8.955064,-0.015812,0.798836,0.003138,-0.020250,-0.022927,0.000000,0.000000,0.000000,30.492605,-88.211966,14.629654,-6.487311,-6.498715,0.000000,0.000000,0.000000,0.000000,0.000000,0.000000,1011.493752,14.629654,25.500000,0.000000,1566.000000,1501.000000,1303.000000,1500.000000
7.950001,103.209534,-2.134606,-14.658486,-1.251485,6.624799,-6.625843,8.985956,-0.016173,0.759158,0.003124,-0.088414,-0.022963,0.000000,0.000000,0.000000,30.492613,-88.211967,14.658486,-6.622552,-6.625843,0.000000,0.000000,0.000000,0.000000,0.000000,0.000000,1011.490293,14.658486,25.500000,0.000000,1566.000000,1501.000000,1362.000000,1500.000000
8.050001,104.106260,-2.239766,-14.685584,-1.246139,5.722322,-6.738659,9.024716,-0.016365,0.659120,0.003003,-0.189815,-0.023035,0.000000,0.000000,0.000000,30.492621,-88.211968,14.685584,-6.750893,-6.738659,0.000000,0.000000,0.000000,0.000000,0.000000,0.000000,1011.487042,14.685584,25.500000,0.000000,1566.000000,1501.000000,1341.000000,1500.000000
8.150002,105.006493,-2.347284,-14.704793,-1.239338,4.756289,-6.850250,9.069168,-0.016377,0.617747,0.002929,-0.145578,-0.023053,0.000000,0.000000,0.000000,30.492629,-88.211969,14.704793,-6.868666,-6.850250,0.000000,0.000000,0.000000,0.000000,0.000000,0.000000,1011.484738,14.704793,25.500000,0.000000,1567.000000,1501.000000,1325.000000,1500.000000
8.251000,105.920528,-2.458341,-14.712571,-1.231534,4.109962,-6.970029,9.123466,-0.016189,0.633317,0.002960,-0.086269,-0.023023,0.000000,0.000000,0.000000,30.492637,-88.211970,14.712571,-6.985575,-6.970029,0.000000,0.000000,0.000000,0.000000,0.000000,0.000000,1011.483805,14.712571,25.500000,0.000000,1567.000000,1501.000000,1303.000000,1500.000000
8.351001,106.831328,-2.570896,-14.710050,-1.222952,3.825609,-7.095990,9.185680,-0.015781,0.677992,0.003065,-0.026838,-0.022951,0.000000,0.000000,0.000000,30.492645,-88.211971,14.710050,-7.103518,-7.095990,0.000000,0.000000,0.000000,0.000000,0.000000,0.000000,1011.484107,14.710050,25.500000,0.000000,1567.000000,1501.000000,1303.000000,1500.000000
8.451001,107.749273,-2.686288,-14.701208,-1.213643,3.784147,-7.226572,9.266415,-0.015147,0.718047,0.003199,0.004022,-0.022816,0.000000,0.000000,0.000000,30.492654,-88.211973,14.701208,-7.225552,-7.226572,0.000000,0.000000,0.000000,0.000000,0.000000,0.000000,1011.485168,14.701208,25.500000,0.000000,1603.000000,1501.000000,1292.000000,1500.000000
8.552001,108.684692,-2.805937,-14.690068,-1.203607,3.859332,-7.359884,9.351920,-0.014323,0.741017,0.003333,0.018991,-0.022579,0.000000,0.000000,0.000000,30.492662,-88.211974,14.690068,-7.351647,-7.359884,0.000000,0.000000,0.000000,0.000000,0.000000,0.000000,1011.486504,14.690068,25.500000,0.000000,1605.000000,1501.000000,1286.000000,1500.000000
8.653001,109.628550,-2.928790,-14.679774,-1.193056,4.005957,-7.492992,9.437594,-0.013413,0.751163,0.003464,0.030925,-0.022228,0.000000,0.000000,0.000000,30.492671,-88.211975,14.679774,-7.478862,-7.492992,0.000000,0.000000,0.000000,0.000000,0.000000,0.000000,1011.487739,14.679774,25.500000,0.000000,1605.000000,1501.000000,1282.000000,1500.000000
8.753001,110.571489,-3.053641,-14.672403,-1.182345,4.293041,-7.625431,9.525374,-0.012522,0.767508,0.003612,0.065775,-0.021784,0.000000,0.000000,0.000000,30.492679,-88.211976,14.672403,-7.604905,-7.625431,0.000000,0.000000,0.000000,0.000000,0.000000,0.000000,1011.488623,14.672403,25.500000,0.000000,1623.000000,1501.000000,1269.000000,1500.000000
8.854001,111.532522,-3.183062,-14.670176,-1.171579,4.772509,-7.760363,9.612940,-0.011694,0.788552,0.003785,0.096518,-0.021288,0.000000,0.000000,0.000000,30.492688,-88.211978,14.670176,-7.733396,-7.760363,0.000000,0.000000,0.000000,0.000000,0.000000,0.000000,1011.488890,14.670176,25.500000,0.000000,1635.000000,1501.000000,1260.000000,1500.000000
8.955000,112.503378,-3.316038,-14.676473,-1.168349,5.331496,-7.894119,9.729740,-0.011064,0.792371,0.001274,0.097158,-0.020561,0.000000,0.000000,0.000000,30.492696,-88.211979,14.676473,-7.863566,-7.894119,0.000000,0.000000,0.000000,0.000000,0.000000,0.000000,1011.488135,14.676473,25.500000,0.000000,1730.000000,1500.000000,1264.000000,1500.000000
9.055001,113.475822,-3.451478,-14.693782,-1.171274,5.876165,-8.018619,9.845902,-0.011597,0.779494,0.002270,0.095744,-0.018973,0.000000,0.000000,0.000000,30.492705,-88.211981,14.693782,-7.992795,-8.018619,0.000000,0.000000,0.000000,0.000000,0.000000,0.000000,1011.486059,14.693782,25.500000,0.000000,1741.000000,1501.000000,1268.000000,1500.000000
9.156001,114.468479,-3.592018,-14.723573,-1.175007,6.430235,-8.139132,9.953941,-0.012801,0.761532,0.000592,0.098042,-0.018459,0.000000,0.000000,0.000000,30.492714,-88.211982,14.723573,-8.122308,-8.139132,0.000000,0.000000,0.000000,0.000000,0.000000,0.000000,1011.482485,14.723573,25.500000,0.000000,1741.000000,1500.000000,1272.000000,1500.000000
9.257001,115.470466,-3.736186,-14.766258,-1.189341,6.983387,-8.255639,10.051550,-0.014728,0.740235,-0.000716,0.094775,-0.017579,0.000000,0.000000,0.000000,30.492723,-88.211984,14.766258,-8.251358,-8.255639,0.000000,0.000000,0.000000,0.000000,0.000000,0.000000,1011.477364,14.766258,25.500000,0.000000,1741.000000,1500.000000,1279.000000,1500.000000
9.357001,116.470516,-3.882360,-14.821333,-1.209660,7.519912,-8.366655,10.137685,-0.017468,0.718873,-0.001410,0.094236,-0.017034,0.000000,0.000000,0.000000,30.492732,-88.211985,14.821333,-8.378938,-8.366655,0.000000,0.000000,0.000000,0.000000,0.000000,0.000000,1011.470757,14.821333,25.500000,0.000000,1741.000000,1500.000000,1284.000000,1500.000000
9.458001,117.487439,-4.033328,-14.889720,-1.227626,8.055096,-8.477609,10.214156,-0.020489,0.698086,0.000877,0.091523,-0.017359,0.000000,0.000000,0.000000,30.492741,-88.211987,14.889720,-8.507991,-8.477609,0.000000,0.000000,0.000000,0.000000,0.000000,0.000000,1011.462554,14.889720,25.500000,0.000000,1741.000000,1501.000000,1290.000000,1500.000000
9.559000,118.510103,-4.187499,-14.970654,-1.233726,8.568786,-8.596415,10.280366,-0.021897,0.677047,0.002767,0.086919,-0.019634,0.000000,0.000000,0.000000,30.492750,-88.211988,14.970654,-8.636600,-8.596415,0.000000,0.000000,0.000000,0.000000,0.000000,0.000000,1011.452845,14.970654,25.500000,0.000000,1741.000000,1501.000000,1296.000000,1500.000000
9.659001,119.527215,-4.343151,-15.062654,-1.235040,9.054296,-8.728373,10.336121,-0.020571,0.657450,0.003713,0.083448,-0.022131,0.000000,0.000000,0.000000,30.492760,-88.211990,15.062654,-8.763280,-8.728373,0.000000,0.000000,0.000000,0.000000,0.000000,0.000000,1011.441809,15.062654,25.500000,0.000000,1741.000000,1501.000000,1301.000000,1500.000000
9.760000,120.558091,-4.503252,-15.166962,-1.235658,9.518593,-8.873379,10.383033,-0.017067,0.638219,0.004096,0.077118,-0.023622,0.000000,0.000000,0.000000,30.492769,-88.211992,15.166962,-8.891024,-8.873379,0.000000,0.000000,0.000000,0.000000,0.000000,0.000000,1011.429296,15.166962,25.500000,0.000000,1741.000000,1501.000000,1307.000000,1500.000000
9.861001,121.591933,-4.666174,-15.282085,-1.236746,9.946221,-9.022266,10.429994,-0.012823,0.619115,0.004205,0.071419,-0.023657,0.000000,0.000000,0.000000,30.492778,-88.211993,15.282085,-9.018640,-9.022266,0.000000,0.000000,0.000000,0.000000,0.000000,0.000000,1011.415487,15.282085,25.500000,0.000000,1766.000000,1501.000000,1312.000000,1500.000000
9.962001,122.628767,-4.831932,-15.407405,-1.237849,10.353982,-9.167431,10.472905,-0.009249,0.602991,0.004258,0.070526,-0.022529,0.000000,0.000000,0.000000,30.492788,-88.211995,15.407405,-9.146002,-9.167431,0.000000,0.000000,0.000000,0.000000,0.000000,0.000000,1011.400454,15.407405,25.500000,0.000000,1768.000000,1501.000000,1315.000000,1500.000000
10.062001,123.657605,-4.998744,-15.540942,-1.237968,10.745300,-9.302730,10.507970,-0.007198,0.588448,0.004359,0.065405,-0.020915,0.000000,0.000000,0.000000,30.492797,-88.211997,15.540942,-9.271804,-9.302730,0.000000,0.000000,0.000000,0.000000,0.000000,0.000000,1011.384436,15.540942,25.500000,0.000000,1768.000000,1501.000000,1320.000000,1500.000000
10.162001,124.687967,-5.168118,-15.683367,-1.236334,11.104822,-9.428242,10.536143,-0.006723,0.573565,0.004524,0.060111,-0.019451,0.000000,0.000000,0.000000,30.492806,-88.211999,15.683367,-9.396619,-9.428242,0.000000,0.000000,0.000000,0.000000,0.000000,0.000000,1011.367352,15.683367,25.500000,0.000000,1769.000000,1501.000000,1324.000000,1500.000000
10.262002,125.719349,-5.339954,-15.834006,-1.232911,11.435441,-9.546190,10.561891,-0.007366,0.559455,0.004719,0.054881,-0.018538,0.000000,0.000000,0.000000,30.492815,-88.212000,15.834006,-9.519985,-9.546190,0.000000,0.000000,0.000000,0.000000,0.000000,0.000000,1011.349282,15.834006,25.500000,0.000000,1782.000000,1501.000000,1328.000000,1500.000000
10.363001,126.761971,-5.515967,-15.993880,-1.232434,11.738192,-9.661495,10.584513,-0.008458,0.545482,0.002613,0.049209,-0.018226,0.000000,0.000000,0.000000,30.492825,-88.212002,15.993880,-9.642969,-9.661495,0.000000,0.000000,0.000000,0.000000,0.000000,0.000000,1011.330106,15.993880,25.500000,0.000000,1783.000000,1500.000000,1332.000000,1500.000000
10.464001,127.805060,-5.694354,-16.160800,-1.247329,12.007881,-9.771831,10.601264,-0.010477,0.532024,0.000317,0.043180,-0.016971,0.000000,0.000000,0.000000,30.492834,-88.212004,16.160800,-9.765178,-9.771831,0.000000,0.000000,0.000000,0.000000,0.000000,0.000000,1011.310084,16.160800,25.500000,0.000000,1782.000000,1500.000000,1336.000000,1500.000000
10.565001,128.848113,-5.875024,-16.333965,-1.267021,12.240681,-9.873639,10.612606,-0.014100,0.518890,0.001290,0.036400,-0.015870,0.000000,0.000000,0.000000,30.492844,-88.212006,16.333965,-9.887375,-9.873639,0.000000,0.000000,0.000000,0.000000,0.000000,0.000000,1011.289314,16.333965,25.500000,0.000000,1782.000000,1501.000000,1340.000000,1500.000000
10.666002,129.890750,-6.057910,-16.512521,-1.275217,12.436733,-9.975075,10.619663,-0.017607,0.506931,0.003191,0.031144,-0.017234,0.000000,0.000000,0.000000,30.492853,-88.212008,16.512521,-10.009036,-9.975075,0.000000,0.000000,0.000000,0.000000,0.000000,0.000000,1011.267898,16.512521,25.500000,0.000000,1783.000000,1501.000000,1343.000000,1500.000000
10.767001,130.932699,-6.242949,-16.695618,-1.278175,12.603840,-10.088628,10.622725,-0.018760,0.496786,0.004169,0.026120,-0.019831,0.000000,0.000000,0.000000,30.492862,-88.212010,16.695618,-10.130006,-10.088628,0.000000,0.000000,0.000000,0.000000,0.000000,0.000000,1011.245937,16.695618,25.500000,0.000000,1782.000000,1501.000000,1346.000000,1500.000000
10.867001,131.963378,-6.428218,-16.880614,-1.283893,12.745060,-10.215501,10.622154,-0.017306,0.489167,0.002555,0.024295,-0.022060,0.000000,0.000000,0.000000,30.492872,-88.212012,16.880614,-10.249610,-10.215501,0.000000,0.000000,0.000000,0.000000,0.000000,0.000000,1011.223749,16.880614,25.500000,0.000000,1782.000000,1500.000000,1347.000000,1500.000000
10.968001,133.003187,-6.617392,-17.070549,-1.303997,12.879199,-10.349472,10.618630,-0.015207,0.484241,0.001930,0.021668,-0.021647,0.000000,0.000000,0.000000,30.492881,-88.212014,17.070549,-10.371779,-10.349472,0.000000,0.000000,0.000000,0.000000,0.000000,0.000000,1011.200969,17.070549,25.500000,0.000000,1782.000000,1501.000000,1349.000000,1500.000000
11.069002,134.041602,-6.808617,-17.263160,-1.318018,12.991827,-10.478882,10.612579,-0.014172,0.479048,0.003133,0.017213,-0.021155,0.000000,0.000000,0.000000,30.492890,-88.212016,17.263160,-10.495538,-10.478882,0.000000,0.000000,0.000000,0.000000,0.000000,0.000000,1011.177869,17.263160,25.500000,0.000000,1782.000000,1501.000000,1351.000000,1500.000000
11.170001,135.078464,-7.001880,-17.457964,-1.326460,13.080012,-10.606494,10.604593,-0.013550,0.474191,0.003832,0.014177,-0.021148,0.000000,0.000000,0.000000,30.492900,-88.212018,17.457964,-10.619982,-10.606494,0.000000,0.000000,0.000000,0.000000,0.000000,0.000000,1011.154506,17.457964,25.500000,0.000000,1783.000000,1501.000000,1352.000000,1500.000000
11.270001,136.103453,-7.195226,-17.652493,-1.329733,13.155948,-10.732956,10.594909,-0.012981,0.471603,0.005943,0.013709,-0.021225,0.000000,0.000000,0.000000,30.492909,-88.212020,17.652493,-10.743514,-10.732956,0.000000,0.000000,0.000000,0.000000,0.000000,0.000000,1011.131176,17.652493,25.500000,0.000000,1782.000000,1502.000000,1352.000000,1500.000000
11.371000,137.136939,-7.392494,-17.850249,-1.318336,13.230764,-10.864670,10.583254,-0.011560,0.470859,0.007159,0.012186,-0.022691,0.000000,0.000000,0.000000,30.492918,-88.212022,17.850249,-10.868038,-10.864670,0.000000,0.000000,0.000000,0.000000,0.000000,0.000000,1011.107460,17.850249,25.500000,0.000000,1782.000000,1501.000000,1353.000000,1500.000000
11.471001,138.158346,-7.589743,-18.047112,-1.312402,13.288102,-11.001610,10.570634,-0.008920,0.468840,0.005965,0.007460,-0.023046,0.000000,0.000000,0.000000,30.492927,-88.212024,18.047112,-10.990963,-11.001610,0.000000,0.000000,0.000000,0.000000,0.000000,0.000000,1011.083851,18.047112,25.500000,0.000000,1783.000000,1501.000000,1355.000000,1500.000000
11.572001,139.188064,-7.790899,-18.246725,-1.311254,13.316699,-11.136614,10.556991,-0.006841,0.465587,0.005242,0.004422,-0.021969,0.000000,0.000000,0.000000,30.492937,-88.212026,18.246725,-11.114943,-11.136614,0.000000,0.000000,0.000000,0.000000,0.000000,0.000000,1011.059913,18.246725,25.500000,0.000000,1782.000000,1501.000000,1355.000000,1500.000000
11.673000,140.215840,-7.993984,-18.446641,-1.311256,13.336625,-11.263284,10.542408,-0.006294,0.464450,0.004901,0.002609,-0.020467,0.000000,0.000000,0.000000,30.492946,-88.212028,18.446641,-11.238706,-11.263284,0.000000,0.000000,0.000000,0.000000,0.000000,0.000000,1011.035939,18.446641,25.500000,0.000000,1783.000000,1501.000000,1356.000000,1500.000000
11.773001,141.231549,-8.196950,-18.644588,-1.310524,13.340938,-11.380295,10.527709,-0.007186,0.463079,0.004808,-0.000673,-0.019331,0.000000,0.000000,0.000000,30.492955,-88.212030,18.644588,-11.360825,-11.380295,0.000000,0.000000,0.000000,0.000000,0.000000,0.000000,1011.012202,18.644588,25.500000,0.000000,1782.000000,1501.000000,1357.000000,1500.000000
11.873001,142.245373,-8.401781,-18.842238,-1.307649,13.326725,-11.492024,10.512340,-0.008867,0.461711,0.006034,-0.002904,-0.018784,0.000000,0.000000,0.000000,30.492964,-88.212032,18.842238,-11.482150,-11.492024,0.000000,0.000000,0.000000,0.000000,0.000000,0.000000,1010.988500,18.842238,25.500000,0.000000,1781.000000,1502.000000,1357.000000,1500.000000
11.974002,143.267441,-8.610531,-19.041212,-1.290807,13.304816,-11.606133,10.496814,-0.010010,0.461928,0.007774,-0.003771,-0.020174,0.000000,0.000000,0.000000,30.492973,-88.212035,19.041212,-11.603325,-11.606133,0.000000,0.000000,0.000000,0.000000,0.000000,0.000000,1010.964641,19.041212,25.500000,0.000000,1783.000000,1501.000000,1357.000000,1500.000000
12.075000,144.287778,-8.821161,-19.239339,-1.278419,13.277504,-11.729963,10.486030,-0.009205,0.462829,0.006439,-0.004760,-0.021403,0.000000,0.000000,0.000000,30.492982,-88.212037,19.239339,-11.723130,-11.729963,0.000000,0.000000,0.000000,0.000000,0.000000,0.000000,1010.940883,19.239339,25.500000,0.000000,1809.000000,1501.000000,1357.000000,1500.000000
12.176001,145.307406,-9.033865,-19.436768,-1.272865,13.245803,-11.856629,10.486981,-0.007851,0.463315,0.005594,-0.004342,-0.021265,0.000000,0.000000,0.000000,30.492992,-88.212039,19.436768,-11.842470,-11.856629,0.000000,0.000000,0.000000,0.000000,0.000000,0.000000,1010.917210,19.436768,25.500000,0.000000,1817.000000,1501.000000,1356.000000,1500.000000
12.276001,146.316921,-9.246642,-19.631725,-1.270326,13.224107,-11.979067,10.491566,-0.007073,0.464672,0.005129,-0.002767,-0.020438,0.000000,0.000000,0.000000,30.493001,-88.212041,19.631725,-11.960540,-11.979067,0.000000,0.000000,0.000000,0.000000,0.000000,0.000000,1010.893833,19.631725,25.500000,0.000000,1816.000000,1501.000000,1356.000000,1500.000000
12.377002,147.336613,-9.463769,-19.828294,-1.268399,13.206739,-12.097407,10.496256,-0.007215,0.465420,0.004922,-0.001688,-0.019532,0.000000,0.000000,0.000000,30.493010,-88.212043,19.828294,-12.079675,-12.097407,0.000000,0.000000,0.000000,0.000000,0.000000,0.000000,1010.870263,19.828294,25.500000,0.000000,1816.000000,1501.000000,1355.000000,1500.000000
12.478001,148.356386,-9.683129,-20.024640,-1.266166,13.201054,-12.211489,10.501369,-0.008083,0.466772,0.004873,-0.000667,-0.018962,0.000000,0.000000,0.000000,30.493019,-88.212046,20.024640,-12.198517,-12.211489,0.000000,0.000000,0.000000,0.000000,0.000000,0.000000,1010.846721,20.024640,25.500000,0.000000,1817.000000,1501.000000,1356.000000,1500.000000
12.579001,149.376262,-9.904722,-20.220968,-1.263475,13.188562,-12.323396,10.507144,-0.009208,0.465571,0.004890,-0.002290,-0.018853,0.000000,0.000000,0.000000,30.493028,-88.212048,20.220968,-12.316934,-12.323396,0.000000,0.000000,0.000000,0.000000,0.000000,0.000000,1010.823182,20.220968,25.500000,0.000000,1816.000000,1501.000000,1356.000000,1500.000000
12.679001,150.386140,-10.126312,-20.415341,-1.261031,13.173515,-12.434667,10.512702,-0.010129,0.464432,0.004288,-0.001986,-0.019188,0.000000,0.000000,0.000000,30.493037,-88.212050,20.415341,-12.433561,-12.434667,0.000000,0.000000,0.000000,0.000000,0.000000,0.000000,1010.799877,20.415341,25.500000,0.000000,1817.000000,1500.000000,1356.000000,1500.000000
12.779001,151.396155,-10.350087,-20.609684,-1.271555,13.161812,-12.547074,10.518924,-0.010963,0.463936,0.001699,-0.000751,-0.018727,0.000000,0.000000,0.000000,30.493046,-88.212053,20.609684,-12.550170,-12.547074,0.000000,0.000000,0.000000,0.000000,0.000000,0.000000,1010.776576,20.609684,25.500000,0.000000,1817.000000,1501.000000,1355.000000,1500.000000
12.880001,152.416439,-10.578334,-20.805972,-1.282001,13.164864,-12.655817,10.525325,-0.012848,0.465236,0.003139,0.001957,-0.018153,0.000000,0.000000,0.000000,30.493056,-88.212055,20.805972,-12.668710,-12.655817,0.000000,0.000000,0.000000,0.000000,0.000000,0.000000,1010.753043,20.805972,25.500000,0.000000,1817.000000,1501.000000,1355.000000,1500.000000
12.980001,153.426760,-10.806542,-21.000497,-1.286187,13.175541,-12.764932,10.531667,-0.014466,0.465919,0.003995,0.002827,-0.018995,0.000000,0.000000,0.000000,30.493065,-88.212057,21.000497,-12.786488,-12.764932,0.000000,0.000000,0.000000,0.000000,0.000000,0.000000,1010.729721,21.000497,25.500000,0.000000,1816.000000,1501.000000,1354.000000,1500.000000
13.081000,154.447255,-11.039267,-21.197290,-1.288408,13.198487,-12.882296,10.537414,-0.014862,0.467447,0.004432,0.005327,-0.020317,0.000000,0.000000,0.000000,30.493074,-88.212060,21.197290,-12.905734,-12.882296,0.000000,0.000000,0.000000,0.000000,0.000000,0.000000,1010.706128,21.197290,25.500000,0.000000,1816.000000,1501.000000,1354.000000,1500.000000
13.181001,155.457632,-11.271892,-21.392640,-1.290727,13.227643,-13.005902,10.542839,-0.014007,0.468044,0.004587,0.005530,-0.021362,0.000000,0.000000,0.000000,30.493083,-88.212062,21.392640,-13.024423,-13.005902,0.000000,0.000000,0.000000,0.000000,0.000000,0.000000,1010.682708,21.392640,25.500000,0.000000,1816.000000,1501.000000,1355.000000,1500.000000
13.282001,156.478025,-11.509068,-21.590608,-1.293683,13.248090,-13.135021,10.548003,-0.012443,0.466172,0.004597,0.003263,-0.021793,0.000000,0.000000,0.000000,30.493092,-88.212065,21.590608,-13.144997,-13.135021,0.000000,0.000000,0.000000,0.000000,0.000000,0.000000,1010.658975,21.590608,25.500000,0.000000,1817.000000,1501.000000,1355.000000,1500.000000
13.383001,157.498315,-11.748490,-21.789202,-1.296903,13.264712,-13.264715,10.553309,-0.010876,0.464628,0.004568,0.003652,-0.021609,0.000000,0.000000,0.000000,30.493101,-88.212067,21.789202,-13.266084,-13.264715,0.000000,0.000000,0.000000,0.000000,0.000000,0.000000,1010.635167,21.789202,25.500000,0.000000,1817.000000,1501.000000,1355.000000,1500.000000
13.483004,158.508398,-11.987762,-21.986386,-1.289262,13.285106,-13.391255,10.558188,-0.009628,0.463947,0.007942,0.004421,-0.021550,0.000000,0.000000,0.000000,30.493110,-88.212070,21.986386,-13.386167,-13.391255,0.000000,0.000000,0.000000,0.000000,0.000000,0.000000,1010.611529,21.986386,25.500000,0.000000,1817.000000,1502.000000,1355.000000,1500.000000
13.584001,159.528409,-12.231649,-22.186119,-1.277362,13.300549,-13.522602,10.562272,-0.007544,0.462036,0.006558,0.002437,-0.022183,0.000000,0.000000,0.000000,30.493120,-88.212072,22.186119,-13.506790,-13.522602,0.000000,0.000000,0.000000,0.000000,0.000000,0.000000,1010.587585,22.186119,25.500000,0.000000,1816.000000,1501.000000,1356.000000,1500.000000
13.685001,160.548193,-12.477749,-22.386354,-1.272292,13.312366,-13.652611,10.566002,-0.005682,0.460614,0.005627,0.002783,-0.021266,0.000000,0.000000,0.000000,30.493129,-88.212075,22.386354,-13.626936,-13.652611,0.000000,0.000000,0.000000,0.000000,0.000000,0.000000,1010.563582,22.386354,25.500000,0.000000,1816.000000,1501.000000,1356.000000,1500.000000
13.785001,161.557639,-12.723581,-22.585025,-1.269509,13.327610,-13.773978,10.569397,-0.005157,0.460073,0.005168,0.003428,-0.019821,0.000000,0.000000,0.000000,30.493138,-88.212077,22.585025,-13.745607,-13.773978,0.000000,0.000000,0.000000,0.000000,0.000000,0.000000,1010.539767,22.585025,25.500000,0.000000,1816.000000,1501.000000,1356.000000,1500.000000
13.885001,162.566818,-12.971559,-22.784113,-1.266620,13.346196,-13.887414,10.572502,-0.005990,0.459848,0.005011,0.003879,-0.018646,0.000000,0.000000,0.000000,30.493147,-88.212080,22.784113,-13.863799,-13.887414,0.000000,0.000000,0.000000,0.000000,0.000000,0.000000,1010.515902,22.784113,25.500000,0.000000,1816.000000,1501.000000,1356.000000,1500.000000
13.986001,163.585779,-13.224175,-22.985642,-1.262966,13.367253,-13.996924,10.575318,-0.007614,0.459661,0.005010,0.004196,-0.018131,0.000000,0.000000,0.000000,30.493156,-88.212083,22.985642,-13.982456,-13.996924,0.000000,0.000000,0.000000,0.000000,0.000000,0.000000,1010.491745,22.985642,25.500000,0.000000,1816.000000,1501.000000,1356.000000,1500.000000
14.087001,164.604410,-13.478942,-23.187655,-1.258971,13.390011,-14.105495,10.578257,-0.009265,0.459445,0.005053,0.004471,-0.018286,0.000000,0.000000,0.000000,30.493165,-88.212085,23.187655,-14.100331,-14.105495,0.000000,0.000000,0.000000,0.000000,0.000000,0.000000,1010.467531,23.187655,25.500000,0.000000,1817.000000,1501.000000,1356.000000,1500.000000
14.188001,165.622661,-13.735837,-23.390277,-1.254996,13.347939,-14.214889,10.580947,-0.010383,0.446745,0.005060,-0.017373,-0.018843,0.000000,0.000000,0.000000,30.493174,-88.212088,23.390277,-14.217595,-14.214889,0.000000,0.000000,0.000000,0.000000,0.000000,0.000000,1010.443244,23.390277,25.500000,0.000000,1816.000000,1501.000000,1365.000000,1500.000000
14.289001,166.640625,-13.994857,-23.592793,-1.251268,13.205065,-14.325625,10.584167,-0.010773,0.429341,0.005013,-0.028885,-0.019461,0.000000,0.000000,0.000000,30.493184,-88.212091,23.592793,-14.332742,-14.325625,0.000000,0.000000,0.000000,0.000000,0.000000,0.000000,1010.418970,23.592793,25.500000,0.000000,1816.000000,1501.000000,1369.000000,1500.000000
14.389001,167.648600,-14.253466,-23.791881,-1.247962,12.992849,-14.436761,10.589488,-0.010562,0.411430,0.004934,-0.043684,-0.019885,0.000000,0.000000,0.000000,30.493193,-88.212093,23.791881,-14.445002,-14.436761,0.000000,0.000000,0.000000,0.000000,0.000000,0.000000,1010.395108,23.791881,25.500000,0.000000,1817.000000,1501.000000,1376.000000,1500.000000
14.490001,168.667257,-14.516936,-23.990206,-1.244790,12.736359,-14.549656,10.597665,-0.010032,0.400265,0.004852,-0.042663,-0.020024,0.000000,0.000000,0.000000,30.493202,-88.212096,23.990206,-14.556441,-14.549656,0.000000,0.000000,0.000000,0.000000,0.000000,0.000000,1010.371338,23.990206,25.500000,0.000000,1817.000000,1501.000000,1376.000000,1500.000000
14.591001,169.687033,-14.782802,-24.184802,-1.241636,12.503981,-14.663021,10.609319,-0.009475,0.398801,0.004802,-0.036815,-0.019911,0.000000,0.000000,0.000000,30.493211,-88.212099,24.184802,-14.667034,-14.663021,0.000000,0.000000,0.000000,0.000000,0.000000,0.000000,1010.348015,24.184802,25.500000,0.000000,1817.000000,1501.000000,1375.000000,1500.000000
14.692000,170.708312,-15.051165,-24.375600,-1.244472,12.314375,-14.776253,10.624654,-0.009118,0.403610,0.002063,-0.027622,-0.019484,0.000000,0.000000,0.000000,30.493220,-88.212102,24.375600,-14.777618,-14.776253,0.000000,0.000000,0.000000,0.000000,0.000000,0.000000,1010.325147,24.375600,25.500000,0.000000,1817.000000,1500.000000,1372.000000,1500.000000
14.792001,171.721212,-15.319417,-24.561282,-1.256180,12.167201,-14.881931,10.643244,-0.010239,0.408991,0.002521,-0.023480,-0.017780,0.000000,0.000000,0.000000,30.493229,-88.212105,24.561282,-14.888315,-14.881931,0.000000,0.000000,0.000000,0.000000,0.000000,0.000000,1010.302893,24.561282,25.500000,0.000000,1817.000000,1501.000000,1371.000000,1500.000000
14.893001,172.746176,-15.592998,-24.746280,-0.735847,12.042447,-14.963800,10.665369,-0.011191,0.413143,0.247491,-0.018526,-0.028574,0.000000,0.000000,0.000000,30.493239,-88.212107,24.746280,-14.995463,-14.963800,0.000000,0.000000,0.000000,0.000000,0.000000,0.000000,1010.280722,24.746280,25.500000,0.000000,1818.000000,1595.000000,1369.000000,1491.000000
14.993001,173.763264,-15.865827,-24.927640,1.655677,11.904619,-15.511199,10.689776,0.103755,0.404683,0.659526,-0.035619,-0.183492,0.000000,0.000000,0.000000,30.493248,-88.212110,24.927640,-15.011533,-15.511199,0.000000,0.000000,0.000000,0.000000,0.000000,0.000000,1010.258987,24.927640,25.500000,0.000000,1818.000000,1672.000000,1377.000000,1483.000000
15.093001,174.783533,-16.138015,-25.107183,6.263634,11.707994,-17.359577,10.706787,0.508888,0.348577,1.094475,-0.085800,-0.448927,0.000000,0.000000,0.000000,30.493257,-88.212113,25.107183,-14.825850,-17.359577,0.000000,0.000000,0.000000,0.000000,0.000000,0.000000,1010.237469,25.107183,25.500000,0.000000,1818.000000,1731.000000,1399.000000,1477.000000
15.194001,175.819182,-16.408354,-25.282602,12.886587,11.681551,-20.851653,10.676020,1.273393,0.215723,1.419618,-0.122720,-0.694606,0.000000,0.000000,0.000000,30.493266,-88.212116,25.282602,-14.404400,-20.851653,0.000000,0.000000,0.000000,0.000000,0.000000,0.000000,1010.216447,25.282602,25.500000,0.000000,1818.000000,1748.000000,1421.000000,1475.000000
15.295000,176.862664,-16.671272,-25.441165,20.702231,12.335307,-25.242872,10.545634,2.264992,0.036472,1.560455,-0.078160,-0.751238,0.000000,0.000000,0.000000,30.493276,-88.212119,25.441165,-13.884236,-25.242872,0.000000,0.000000,0.000000,0.000000,0.000000,0.000000,1010.197445,25.441165,25.500000,0.000000,1818.000000,1731.000000,1426.000000,1477.000000
15.395001,177.905375,-16.924408,-25.567069,28.891765,13.757808,-28.864508,10.337084,3.206034,-0.125115,1.554323,0.021631,-0.535257,0.000000,0.000000,0.000000,30.493285,-88.212121,25.567069,-13.427921,-28.864508,0.000000,0.000000,0.000000,0.000000,0.000000,0.000000,1010.182357,25.567069,25.500000,0.000000,1818.000000,1704.000000,1429.000000,1480.000000
15.496000,178.968767,-17.174403,-25.650397,37.317583,15.123475,-30.281132,10.164064,3.863768,-0.242230,1.451987,0.117747,-0.097354,0.000000,0.000000,0.000000,30.493295,-88.212124,25.650397,-13.039140,-30.281132,0.000000,0.000000,0.000000,0.000000,0.000000,0.000000,1010.172371,25.650397,25.500000,0.000000,1818.000000,1667.000000,1438.000000,1483.000000
15.596001,180.032534,-17.416693,-25.681337,45.577349,15.112754,-28.992062,10.162094,4.099732,-0.313665,1.288758,0.162255,0.424613,0.000000,0.000000,0.000000,30.493304,-88.212126,25.681337,-12.602849,-28.992062,0.000000,0.000000,0.000000,0.000000,0.000000,0.000000,1010.168663,25.681337,25.500000,0.000000,1818.000000,1626.000000,1456.000000,1487.000000
15.697001,181.120387,-17.654015,-25.655155,53.324060,12.746262,-25.661998,10.387359,3.913608,-0.359738,1.087179,0.148176,0.902338,0.000000,0.000000,0.000000,30.493314,-88.212129,25.655155,-11.970511,-25.661998,0.000000,0.000000,0.000000,0.000000,0.000000,0.000000,1010.171801,25.655155,25.500000,0.000000,1818.000000,1584.000000,1478.000000,1492.000000
15.797001,182.214890,-17.877763,-25.567477,59.720418,7.990610,-21.553512,10.796165,3.387954,-0.388168,0.860852,0.118791,1.228457,0.000000,0.000000,0.000000,30.493324,-88.212131,25.567477,-11.100468,-21.553512,0.000000,0.000000,0.000000,0.000000,0.000000,0.000000,1010.182308,25.567477,25.500000,0.000000,1818.000000,1541.000000,1487.000000,1496.000000
15.898000,183.342715,-18.087491,-25.410689,64.378299,1.533795,-17.419177,11.311480,2.644747,-0.390002,0.603255,0.109362,1.376416,0.000000,0.000000,0.000000,30.493334,-88.212133,25.410689,-9.931526,-17.419177,0.000000,0.000000,0.000000,0.000000,0.000000,0.000000,1010.201097,25.410689,25.500000,0.000000,1818.000000,1499.000000,1481.000000,1500.000000
15.998001,184.485877,-18.272606,-25.181908,66.954046,-5.425796,-13.527335,11.855623,1.841890,-0.347290,0.321383,0.167517,1.370711,0.000000,0.000000,0.000000,30.493344,-88.212135,25.181908,-8.433929,-13.527335,0.000000,0.000000,0.000000,0.000000,0.000000,0.000000,1010.228514,25.181908,25.500000,0.000000,1818.000000,1463.000000,1446.000000,1504.000000
16.099001,185.670878,-18.427325,-24.871713,67.353723,-12.040569,-9.371054,12.413881,1.075547,-0.228909,0.022693,0.309135,1.271235,0.000000,0.000000,0.000000,30.493355,-88.212137,24.871713,-6.387810,-9.371054,0.000000,0.000000,0.000000,0.000000,0.000000,0.000000,1010.265689,24.871713,25.500000,0.000000,1818.000000,1434.000000,1388.000000,1507.000000
16.200001,186.889884,-18.533629,-24.481018,65.377941,-17.571394,-4.405279,12.981825,0.405521,-0.033647,-0.265278,0.500855,1.137945,0.000000,0.000000,0.000000,30.493366,-88.212138,24.481018,-3.490414,-4.405279,0.000000,0.000000,0.000000,0.000000,0.000000,0.000000,1010.312513,24.481018,25.500000,0.000000,1818.000000,1416.000000,1322.000000,1508.000000
16.301001,188.146132,-18.567497,-24.015148,61.040657,-21.589087,1.742243,13.562818,-0.168990,0.214429,-0.507155,0.717109,0.999881,0.000000,0.000000,0.000000,30.493377,-88.212138,24.015148,0.497296,1.742243,0.000000,0.000000,0.000000,0.000000,0.000000,0.000000,1010.368348,24.015148,25.500000,0.000000,1818.000000,1409.000000,1254.000000,1509.000000
16.402001,189.441621,-18.498813,-23.488033,54.735121,-23.680958,9.075726,14.151795,-0.656062,0.489437,-0.668332,0.930962,0.851917,0.000000,0.000000,0.000000,30.493389,-88.212138,23.488033,5.637327,9.075726,0.000000,0.000000,0.000000,0.000000,0.000000,0.000000,1010.431527,23.488033,25.500000,0.000000,1818.000000,1414.000000,1192.000000,1509.000000
16.502001,190.762283,-18.297734,-22.930325,47.493657,-23.481792,16.957243,14.732842,-1.025836,0.757524,-0.716365,1.105853,0.673838,0.000000,0.000000,0.000000,30.493401,-88.212136,22.930325,11.671490,16.957243,0.000000,0.000000,0.000000,0.000000,0.000000,0.000000,1010.498376,22.930325,25.500000,0.000000,1818.000000,1432.000000,1147.000000,1507.000000
16.603000,192.129512,-17.931049,-22.367275,40.593852,-20.907894,24.511662,15.309959,-1.208479,0.989824,-0.631432,1.228400,0.447603,0.000000,0.000000,0.000000,30.493413,-88.212132,22.367275,18.252457,24.511662,0.000000,0.000000,0.000000,0.000000,0.000000,0.000000,1010.565869,22.367275,25.500000,0.000000,1818.000000,1460.000000,1119.000000,1504.000000
16.703001,193.505454,-17.386810,-21.854067,35.462653,-16.342633,30.708807,15.863448,-1.104780,1.161367,-0.416526,1.278654,0.199493,0.000000,0.000000,0.000000,30.493425,-88.212126,21.854067,24.741965,30.708807,0.000000,0.000000,0.000000,0.000000,0.000000,0.000000,1010.627391,21.854067,25.500000,0.000000,1818.000000,1496.000000,1113.000000,1500.000000
16.804001,194.899802,-16.647740,-21.426501,32.806647,-10.464242,35.339865,16.383959,-0.662119,1.235244,-0.090584,1.237995,-0.023855,0.000000,0.000000,0.000000,30.493438,-88.212118,21.426501,30.926225,35.339865,0.000000,0.000000,0.000000,0.000000,0.000000,0.000000,1010.678648,21.426501,25.500000,0.000000,1818.000000,1533.000000,1133.000000,1497.000000
16.904002,196.260619,-15.735831,-21.128729,32.883180,-4.329756,38.587710,16.825940,0.062742,1.165176,0.277503,1.121060,-0.157653,0.000000,0.000000,0.000000,30.493450,-88.212109,21.128729,36.571759,38.587710,0.000000,0.000000,0.000000,0.000000,0.000000,0.000000,1010.714347,21.128729,25.500000,0.000000,1818.000000,1563.000000,1175.000000,1494.000000
17.005001,197.587081,-14.651384,-20.968970,35.441153,1.349145,41.201190,17.167056,0.917203,0.943793,0.616468,0.962266,-0.162453,0.000000,0.000000,0.000000,30.493462,-88.212098,20.968970,41.842078,41.201190,0.000000,0.000000,0.000000,0.000000,0.000000,0.000000,1010.733501,20.968970,25.500000,0.000000,1818.000000,1580.000000,1232.000000,1492.000000
