Time (sec) ,X(m) ,Y(m) ,Z(m) ,Roll (deg) ,Pitch (deg) ,Yaw (deg) ,U(m/s) ,V(m/s) ,W(m/s) ,P(rad/s) ,Q(rad/s) ,R(rad/s) ,Mx(Gauss) ,My(Gauss) ,Mz(Gauss) ,GPS Latitude (deg) ,GPS Longitude (deg) ,GPS Altitude (m) ,GPS Heading (deg) ,Yaw (deg) ,Analog 1 (V) ,Analog 2 (V) ,Analog 3 (V) ,Analog 4 (V) ,Analog 5 (V) ,Analog 6 (V) ,Pressure (Pa) ,Pressure Altitude (m) ,Temperature (C) ,RC In Channel #5 ,PWM Model 1 ,PWM Model 2 ,PWM Model 3 ,PWM Model 4 
 0.000010,20.010000,-0.000000,-9.999998,0.057140,0.000025,-0.000200,9.999720,0.000008,0.004598,0.994552,0.000865,-0.006977,0.000000,0.000000,0.000000,30.491864,-88.211945,9.999998,-0.000092,-0.000200,0.000000,0.000000,0.000000,0.000000,0.000000,0.000000,1012.049262,9.999998,25.500000,0.000000,1046.000000,1488.000000,1417.000000,1501.000000
0.101000,21.019085,0.000545,-9.981429,4.408703,0.186704,-1.508388,9.981892,0.306777,0.329496,0.540439,0.014356,-0.425978,0.000000,0.000000,0.000000,30.491873,-88.211945,9.981429,0.100250,-1.508388,0.000000,0.000000,0.000000,0.000000,0.000000,0.000000,1012.051490,9.981429,25.500000,0.000000,1126.000000,1488.000000,1385.000000,1501.000000
0.201001,22.017962,0.004579,-9.941581,6.588544,0.291850,-4.009390,9.960922,0.818817,0.424429,0.247352,-0.063272,-0.386075,0.000000,0.000000,0.000000,30.491882,-88.211945,9.941581,0.377955,-4.009390,0.000000,0.000000,0.000000,0.000000,0.000000,0.000000,1012.056273,9.941581,25.500000,0.000000,1133.000000,1488.000000,1387.000000,1501.000000
0.301001,23.017852,0.014135,-9.889413,7.421657,-0.068817,-5.513511,9.948791,1.150750,0.421436,0.057961,-0.121865,-0.094286,0.000000,0.000000,0.000000,30.491891,-88.211944,9.889413,0.718669,-5.513511,0.000000,0.000000,0.000000,0.000000,0.000000,0.000000,1012.062534,9.889413,25.500000,0.000000,1134.000000,1480.000000,1395.000000,1502.000000
0.402001,24.029674,0.030058,-9.824769,7.346190,-0.924395,-5.135824,9.985162,1.148013,0.399312,-0.079800,-0.152534,0.258276,0.000000,0.000000,0.000000,30.491900,-88.211944,9.824769,1.084387,-5.135824,0.000000,0.000000,0.000000,0.000000,0.000000,0.000000,1012.070292,9.824769,25.500000,0.000000,1180.000000,1462.000000,1402.000000,1504.000000
0.502001,25.034842,0.052480,-9.747518,6.561017,-2.085382,-2.941958,10.071516,0.825469,0.384952,-0.168222,-0.152916,0.528738,0.000000,0.000000,0.000000,30.491909,-88.211944,9.747518,1.472813,-2.941958,0.000000,0.000000,0.000000,0.000000,0.000000,0.000000,1012.079564,9.747518,25.500000,0.000000,1214.000000,1453.000000,1400.000000,1505.000000
0.603003,26.055148,0.082546,-9.655018,5.284204,-3.268620,0.428747,10.175102,0.298213,0.383519,-0.212559,-0.128112,0.640656,0.000000,0.000000,0.000000,30.491918,-88.211944,9.655018,1.905172,0.428747,0.000000,0.000000,0.000000,0.000000,0.000000,0.000000,1012.090666,9.655018,25.500000,0.000000,1239.000000,1451.000000,1391.000000,1505.000000
0.704001,27.082205,0.120926,-9.548106,3.762007,-4.191980,3.976347,10.267449,-0.260021,0.394577,-0.230393,-0.087231,0.577893,0.000000,0.000000,0.000000,30.491928,-88.211943,9.548106,2.373476,3.976347,0.000000,0.000000,0.000000,0.000000,0.000000,0.000000,1012.103497,9.548106,25.500000,0.000000,1268.000000,1452.000000,1378.000000,1505.000000
0.805001,28.117574,0.168182,-9.428328,2.187042,-4.702069,6.805457,10.353054,-0.696416,0.421153,-0.234626,-0.028552,0.390480,0.000000,0.000000,0.000000,30.491937,-88.211943,9.428328,2.843555,6.805457,0.000000,0.000000,0.000000,0.000000,0.000000,0.000000,1012.117873,9.428328,25.500000,0.000000,1304.000000,1457.000000,1358.000000,1504.000000
0.905001,29.152436,0.223500,-9.300162,0.711656,-4.773079,8.383567,10.450832,-0.924966,0.458342,-0.231237,0.021526,0.158219,0.000000,0.000000,0.000000,30.491946,-88.211942,9.300162,3.257474,8.383567,0.000000,0.000000,0.000000,0.000000,0.000000,0.000000,1012.133256,9.300162,25.500000,0.000000,1330.000000,1464.000000,1344.000000,1504.000000
1.005001,30.198361,0.286029,-9.167009,-0.618180,-4.549738,8.671378,10.569294,-0.944489,0.494464,-0.219645,0.061871,-0.048485,0.000000,0.000000,0.000000,30.491956,-88.211942,9.167009,3.557473,8.671378,0.000000,0.000000,0.000000,0.000000,0.000000,0.000000,1012.149238,9.167009,25.500000,0.000000,1332.000000,1473.000000,1331.000000,1503.000000
1.106000,31.266880,0.354064,-9.032220,-1.792124,-4.142528,7.938982,10.703652,-0.805463,0.523838,-0.201921,0.082852,-0.186227,0.000000,0.000000,0.000000,30.491965,-88.211941,9.032220,3.697883,7.938982,0.000000,0.000000,0.000000,0.000000,0.000000,0.000000,1012.165416,9.032220,25.500000,0.000000,1351.000000,1480.000000,1327.000000,1502.000000
1.206001,32.337602,0.423168,-8.902778,-2.805493,-3.686549,6.661390,10.837378,-0.592676,0.539786,-0.177109,0.097129,-0.237879,0.000000,0.000000,0.000000,30.491975,-88.211940,8.902778,3.658462,6.661390,0.000000,0.000000,0.000000,0.000000,0.000000,0.000000,1012.180953,8.902778,25.500000,0.000000,1351.000000,1488.000000,1322.000000,1501.000000
1.307001,33.431951,0.491372,-8.779251,-3.659390,-3.171361,5.266772,10.961060,-0.382050,0.549298,-0.143508,0.107035,-0.223243,0.000000,0.000000,0.000000,30.491985,-88.211939,8.779251,3.451014,5.266772,0.000000,0.000000,0.000000,0.000000,0.000000,0.000000,1012.195780,8.779251,25.500000,0.000000,1353.000000,1494.000000,1321.000000,1501.000000
1.408001,34.538829,0.554963,-8.665548,-4.322129,-2.625216,4.064066,11.070769,-0.226015,0.548394,-0.102999,0.107111,-0.174442,0.000000,0.000000,0.000000,30.491995,-88.211939,8.665548,3.110364,4.064066,0.000000,0.000000,0.000000,0.000000,0.000000,0.000000,1012.209428,8.665548,25.500000,0.000000,1354.000000,1500.000000,1324.000000,1500.000000
1.509001,35.657391,0.611620,-8.563345,-4.759075,-2.069256,3.153360,11.169320,-0.137110,0.540140,-0.059654,0.112012,-0.125528,0.000000,0.000000,0.000000,30.492005,-88.211938,8.563345,2.683443,3.153360,0.000000,0.000000,0.000000,0.000000,0.000000,0.000000,1012.221695,8.563345,25.500000,0.000000,1374.000000,1504.000000,1323.000000,1500.000000
1.610001,36.786826,0.659892,-8.473345,-4.963691,-1.416696,2.464993,11.257732,-0.097565,0.544626,-0.015990,0.146459,-0.095730,0.000000,0.000000,0.000000,30.492015,-88.211938,8.473345,2.212151,2.464993,0.000000,0.000000,0.000000,0.000000,0.000000,0.000000,1012.232498,8.473345,25.500000,0.000000,1374.000000,1509.000000,1309.000000,1499.000000
1.711000,37.925914,0.698933,-8.396996,-4.925471,-0.551827,1.856835,11.332389,-0.076755,0.561512,0.025414,0.151925,-0.091338,0.000000,0.000000,0.000000,30.492025,-88.211937,8.396996,1.716354,1.856835,0.000000,0.000000,0.000000,0.000000,0.000000,0.000000,1012.241663,8.396996,25.500000,0.000000,1374.000000,1512.000000,1319.000000,1499.000000
1.811000,39.061771,0.728050,-8.337934,-4.685380,0.215510,1.236554,11.393881,-0.046855,0.546713,0.055880,0.131553,-0.103065,0.000000,0.000000,0.000000,30.492035,-88.211937,8.337934,1.228681,1.236554,0.000000,0.000000,0.000000,0.000000,0.000000,0.000000,1012.248752,8.337934,25.500000,0.000000,1382.000000,1513.000000,1325.000000,1499.000000
1.911001,40.204029,0.747840,-8.295492,-4.313173,0.887728,0.555575,11.444175,0.002304,0.523327,0.075358,0.119108,-0.114006,0.000000,0.000000,0.000000,30.492046,-88.211937,8.295492,0.766238,0.555575,0.000000,0.000000,0.000000,0.000000,0.000000,0.000000,1012.253847,8.295492,25.500000,0.000000,1396.000000,1514.000000,1331.000000,1499.000000
2.012001,41.362791,0.758846,-8.268452,-3.856057,1.503317,-0.156124,11.484050,0.064169,0.499292,0.084338,0.106003,-0.113862,0.000000,0.000000,0.000000,30.492056,-88.211937,8.268452,0.332487,-0.156124,0.000000,0.000000,0.000000,0.000000,0.000000,0.000000,1012.257093,8.268452,25.500000,0.000000,1397.000000,1512.000000,1339.000000,1499.000000
2.113000,42.525174,0.761475,-8.256073,-3.390130,2.041920,-0.808831,11.511709,0.121898,0.473460,0.082742,0.091500,-0.096715,0.000000,0.000000,0.000000,30.492067,-88.211937,8.256073,-0.062623,-0.808831,0.000000,0.000000,0.000000,0.000000,0.000000,0.000000,1012.258579,8.256073,25.500000,0.000000,1398.000000,1511.000000,1346.000000,1499.000000
2.213002,43.678264,0.756591,-8.256649,-2.947440,2.512103,-1.311479,11.528616,0.157863,0.450585,0.076434,0.082325,-0.068515,0.000000,0.000000,0.000000,30.492077,-88.211937,8.256649,-0.411893,-1.311479,0.000000,0.000000,0.000000,0.000000,0.000000,0.000000,1012.258509,8.256649,25.500000,0.000000,1399.000000,1508.000000,1350.000000,1499.000000
2.314001,44.843997,0.744963,-8.268526,-2.553592,2.958818,-1.637170,11.538016,0.165171,0.433922,0.064615,0.073932,-0.036686,0.000000,0.000000,0.000000,30.492088,-88.211937,8.268526,-0.720949,-1.637170,0.000000,0.000000,0.000000,0.000000,0.000000,0.000000,1012.257084,8.268526,25.500000,0.000000,1417.000000,1506.000000,1356.000000,1499.000000
2.414001,45.998684,0.727681,-8.290304,-2.223954,3.345171,-1.783831,11.543461,0.144879,0.416644,0.052993,0.062104,-0.010546,0.000000,0.000000,0.000000,30.492098,-88.211937,8.290304,-0.984159,-1.783831,0.000000,0.000000,0.000000,0.000000,0.000000,0.000000,1012.254470,8.290304,25.500000,0.000000,1417.000000,1504.000000,1361.000000,1500.000000
2.514002,47.153183,0.705525,-8.320764,-1.955162,3.671293,-1.807198,11.541963,0.107309,0.400236,0.041128,0.051224,0.004424,0.000000,0.000000,0.000000,30.492108,-88.211937,8.320764,-1.206118,-1.807198,0.000000,0.000000,0.000000,0.000000,0.000000,0.000000,1012.250813,8.320764,25.500000,0.000000,1418.000000,1502.000000,1366.000000,1500.000000
2.615000,48.318368,0.679001,-8.358954,-1.752103,3.937028,-1.773271,11.534493,0.064265,0.384656,0.028092,0.040534,0.008531,0.000000,0.000000,0.000000,30.492119,-88.211937,8.358954,-1.394886,-1.773271,0.000000,0.000000,0.000000,0.000000,0.000000,0.000000,1012.246229,8.358954,25.500000,0.000000,1418.000000,1500.000000,1370.000000,1500.000000
2.716001,49.482166,0.648965,-8.403185,-1.627975,4.148016,-1.735798,11.522967,0.025293,0.372158,0.013831,0.034192,0.005683,0.000000,0.000000,0.000000,30.492129,-88.211938,8.403185,-1.556710,-1.735798,0.000000,0.000000,0.000000,0.000000,0.000000,0.000000,1012.240920,8.403185,25.500000,0.000000,1440.000000,1498.000000,1371.000000,1500.000000
2.817001,50.644606,0.615864,-8.452206,-1.591563,4.343157,-1.722226,11.513257,-0.006285,0.366331,-0.000833,0.032485,0.000900,0.000000,0.000000,0.000000,30.492140,-88.211938,8.452206,-1.702153,-1.722226,0.000000,0.000000,0.000000,0.000000,0.000000,0.000000,1012.235036,8.452206,25.500000,0.000000,1447.000000,1497.000000,1373.000000,1500.000000
2.917001,51.794225,0.580302,-8.504805,-1.632711,4.515508,-1.734686,11.502426,-0.031532,0.361559,-0.012658,0.028479,-0.003506,0.000000,0.000000,0.000000,30.492150,-88.211939,8.504805,-1.839757,-1.734686,0.000000,0.000000,0.000000,0.000000,0.000000,0.000000,1012.228722,8.504805,25.500000,0.000000,1456.000000,1496.000000,1374.000000,1500.000000
3.018001,52.953973,0.541625,-8.561496,-1.740386,4.672048,-1.771289,11.492723,-0.052836,0.358739,-0.022564,0.029043,-0.007333,0.000000,0.000000,0.000000,30.492161,-88.211939,8.561496,-1.979715,-1.771289,0.000000,0.000000,0.000000,0.000000,0.000000,0.000000,1012.221917,8.561496,25.500000,0.000000,1502.000000,1496.000000,1370.000000,1500.000000
3.118001,54.101672,0.500495,-8.620791,-1.891716,4.873854,-1.831091,11.494614,-0.071249,0.365756,-0.028003,0.040218,-0.011444,0.000000,0.000000,0.000000,30.492171,-88.211939,8.620791,-2.125366,-1.831091,0.000000,0.000000,0.000000,0.000000,0.000000,0.000000,1012.214800,8.620791,25.500000,0.000000,1511.000000,1496.000000,1367.000000,1500.000000
3.219000,55.260769,0.455870,-8.684411,-2.071618,5.133544,-1.922305,11.496447,-0.086545,0.375745,-0.030825,0.048276,-0.017017,0.000000,0.000000,0.000000,30.492181,-88.211940,8.684411,-2.285204,-1.922305,0.000000,0.000000,0.000000,0.000000,0.000000,0.000000,1012.207164,8.684411,25.500000,0.000000,1520.000000,1497.000000,1365.000000,1500.000000
3.319000,56.408195,0.408348,-8.751978,-2.254380,5.421626,-2.050952,11.497912,-0.097132,0.383392,-0.028894,0.052199,-0.024316,0.000000,0.000000,0.000000,30.492192,-88.211940,8.751978,-2.459061,-2.050952,0.000000,0.000000,0.000000,0.000000,0.000000,0.000000,1012.199053,8.751978,25.500000,0.000000,1548.000000,1498.000000,1364.000000,1500.000000
3.419001,57.555636,0.357173,-8.824874,-2.423394,5.720703,-2.228482,11.505441,-0.100992,0.387419,-0.024583,0.054548,-0.033329,0.000000,0.000000,0.000000,30.492202,-88.211941,8.824874,-2.649067,-2.228482,0.000000,0.000000,0.000000,0.000000,0.000000,0.000000,1012.190304,8.824874,25.500000,0.000000,1555.000000,1499.000000,1351.000000,1500.000000
3.520001,58.714659,0.301446,-8.904308,-2.572153,6.166167,-2.468593,11.510055,-0.096998,0.413729,-0.018957,0.091054,-0.042380,0.000000,0.000000,0.000000,30.492212,-88.211941,8.904308,-2.858168,-2.468593,0.000000,0.000000,0.000000,0.000000,0.000000,0.000000,1012.180769,8.904308,25.500000,0.000000,1555.000000,1499.000000,1351.000000,1500.000000
3.621001,59.873414,0.241266,-8.991671,-2.694029,6.638679,-2.759111,11.514563,-0.086105,0.420614,-0.012686,0.078195,-0.049508,0.000000,0.000000,0.000000,30.492223,-88.211942,8.991671,-3.088343,-2.759111,0.000000,0.000000,0.000000,0.000000,0.000000,0.000000,1012.170283,8.991671,25.500000,0.000000,1570.000000,1500.000000,1355.000000,1500.000000
3.721001,61.019827,0.176980,-9.087075,-2.783786,7.027877,-3.077032,11.512121,-0.071036,0.412223,-0.006065,0.066175,-0.053721,0.000000,0.000000,0.000000,30.492233,-88.211943,9.087075,-3.330073,-3.077032,0.000000,0.000000,0.000000,0.000000,0.000000,0.000000,1012.158832,9.087075,25.500000,0.000000,1570.000000,1501.000000,1358.000000,1500.000000
3.822001,62.176039,0.107122,-9.191806,-2.849776,7.303334,-3.409295,11.503121,-0.054535,0.390220,-0.002808,0.040826,-0.054715,0.000000,0.000000,0.000000,30.492243,-88.211943,9.191806,-3.583359,-3.409295,0.000000,0.000000,0.000000,0.000000,0.000000,0.000000,1012.146262,9.191806,25.500000,0.000000,1570.000000,1501.000000,1367.000000,1500.000000
3.923001,63.330047,0.032234,-9.303104,-2.902481,7.483961,-3.731607,11.488914,-0.040814,0.370861,-0.001229,0.030844,-0.051971,0.000000,0.000000,0.000000,30.492254,-88.211944,9.303104,-3.840432,-3.731607,0.000000,0.000000,0.000000,0.000000,0.000000,0.000000,1012.132903,9.303104,25.500000,0.000000,1571.000000,1501.000000,1371.000000,1500.000000
4.023001,64.470587,-0.046921,-9.417902,-2.924666,7.615951,-4.026793,11.480423,-0.032553,0.357062,0.007045,0.022579,-0.048410,0.000000,0.000000,0.000000,30.492264,-88.211945,9.417902,-4.097174,-4.026793,0.000000,0.000000,0.000000,0.000000,0.000000,0.000000,1012.119125,9.417902,25.500000,0.000000,1596.000000,1503.000000,1375.000000,1500.000000
4.124001,65.620847,-0.131951,-9.537227,-2.905497,7.709312,-4.313125,11.469823,-0.026247,0.346471,0.012251,0.016038,-0.048197,0.000000,0.000000,0.000000,30.492275,-88.211946,9.537227,-4.355284,-4.313125,0.000000,0.000000,0.000000,0.000000,0.000000,0.000000,1012.104803,9.537227,25.500000,0.000000,1596.000000,1503.000000,1378.000000,1500.000000
4.224001,66.757929,-0.221102,-9.657665,-2.864823,7.771877,-4.596527,11.457966,-0.019438,0.339142,0.014976,0.011579,-0.048513,0.000000,0.000000,0.000000,30.492285,-88.211947,9.657665,-4.607655,-4.596527,0.000000,0.000000,0.000000,0.000000,0.000000,0.000000,1012.090348,9.657665,25.500000,0.000000,1598.000000,1503.000000,1380.000000,1500.000000
4.325001,67.904978,-0.316108,-9.780893,-2.812159,7.809500,-4.880642,11.455596,-0.012225,0.332951,0.016385,0.006831,-0.047778,0.000000,0.000000,0.000000,30.492295,-88.211948,9.780893,-4.858671,-4.880642,0.000000,0.000000,0.000000,0.000000,0.000000,0.000000,1012.075558,9.780893,25.500000,0.000000,1627.000000,1503.000000,1382.000000,1500.000000
4.426000,69.051445,-0.416076,-9.905251,-2.752374,7.836730,-5.155994,11.456170,-0.005934,0.329689,0.017167,0.007511,-0.045750,0.000000,0.000000,0.000000,30.492305,-88.211949,9.905251,-5.104983,-5.155994,0.000000,0.000000,0.000000,0.000000,0.000000,0.000000,1012.060633,9.905251,25.500000,0.000000,1632.000000,1503.000000,1382.000000,1500.000000
4.526001,70.186115,-0.519860,-10.029142,-2.687987,7.901813,-5.416337,11.456601,-0.001599,0.335366,0.017725,0.019268,-0.043047,0.000000,0.000000,0.000000,30.492316,-88.211950,10.029142,-5.344094,-5.416337,0.000000,0.000000,0.000000,0.000000,0.000000,0.000000,1012.045764,10.029142,25.500000,0.000000,1633.000000,1503.000000,1378.000000,1500.000000
4.627001,71.331612,-0.629444,-10.155409,-2.626366,8.015535,-5.665518,11.456737,0.000639,0.342821,0.014971,0.022914,-0.040082,0.000000,0.000000,0.000000,30.492326,-88.211951,10.155409,-5.582135,-5.665518,0.000000,0.000000,0.000000,0.000000,0.000000,0.000000,1012.030610,10.155409,25.500000,0.000000,1635.000000,1502.000000,1377.000000,1500.000000
4.727008,72.465061,-0.742569,-10.282251,-2.578551,8.133922,-5.891621,11.454879,-0.000358,0.345750,0.013063,0.021710,-0.036141,0.000000,0.000000,0.000000,30.492336,-88.211952,10.282251,-5.814016,-5.891621,0.000000,0.000000,0.000000,0.000000,0.000000,0.000000,1012.015387,10.282251,25.500000,0.000000,1633.000000,1502.000000,1377.000000,1500.000000
4.828001,73.608960,-0.861385,-10.412377,-2.535621,8.327336,-6.102751,11.453214,-0.004461,0.362928,0.012347,0.051826,-0.033354,0.000000,0.000000,0.000000,30.492346,-88.211954,10.412377,-6.043241,-6.102751,0.000000,0.000000,0.000000,0.000000,0.000000,0.000000,1011.999771,10.412377,25.500000,0.000000,1641.000000,1502.000000,1365.000000,1500.000000
4.928001,74.740556,-0.983472,-10.544310,-2.502088,8.641152,-6.307271,11.449809,-0.009556,0.382524,0.009214,0.057587,-0.032466,0.000000,0.000000,0.000000,30.492357,-88.211955,10.544310,-6.270117,-6.307271,0.000000,0.000000,0.000000,0.000000,0.000000,0.000000,1011.983937,10.544310,25.500000,0.000000,1642.000000,1501.000000,1364.000000,1500.000000
5.029001,75.882165,-1.111234,-10.682633,-2.487618,8.948634,-6.508186,11.450607,-0.015144,0.387285,0.006687,0.051045,-0.031541,0.000000,0.000000,0.000000,30.492367,-88.211956,10.682633,-6.498599,-6.508186,0.000000,0.000000,0.000000,0.000000,0.000000,0.000000,1011.967337,10.682633,25.500000,0.000000,1667.000000,1501.000000,1365.000000,1500.000000
5.129001,77.011559,-1.242149,-10.825343,-2.489859,9.212878,-6.702542,11.454500,-0.020910,0.382642,0.002565,0.043848,-0.031368,0.000000,0.000000,0.000000,30.492377,-88.211958,10.825343,-6.722931,-6.702542,0.000000,0.000000,0.000000,0.000000,0.000000,0.000000,1011.950211,10.825343,25.500000,0.000000,1679.000000,1500.000000,1367.000000,1500.000000
5.230001,78.151316,-1.378800,-10.975129,-2.510920,9.428384,-6.893744,11.456222,-0.027345,0.371592,0.002095,0.031361,-0.030750,0.000000,0.000000,0.000000,30.492387,-88.211959,10.975129,-6.948299,-6.893744,0.000000,0.000000,0.000000,0.000000,0.000000,0.000000,1011.932236,10.975129,25.500000,0.000000,1680.000000,1501.000000,1372.000000,1500.000000
5.330002,79.279030,-1.518468,-11.128356,-2.527281,9.567847,-7.083319,11.469772,-0.033026,0.355647,0.003019,0.018712,-0.032685,0.000000,0.000000,0.000000,30.492397,-88.211960,11.128356,-7.169459,-7.083319,0.000000,0.000000,0.000000,0.000000,0.000000,0.000000,1011.913848,11.128356,25.500000,0.000000,1729.000000,1501.000000,1377.000000,1500.000000
5.431001,80.418866,-1.664107,-11.287280,-2.547574,9.635663,-7.287789,11.490527,-0.035655,0.336253,0.000719,0.005498,-0.035756,0.000000,0.000000,0.000000,30.492408,-88.211962,11.287280,-7.390742,-7.287789,0.000000,0.000000,0.000000,0.000000,0.000000,0.000000,1011.894777,11.287280,25.500000,0.000000,1730.000000,1500.000000,1383.000000,1500.000000
5.532000,81.559686,-1.814338,-11.449105,-2.587902,9.646183,-7.501716,11.509566,-0.036439,0.319867,-0.002022,0.001977,-0.036538,0.000000,0.000000,0.000000,30.492418,-88.211964,11.449105,-7.610981,-7.501716,0.000000,0.000000,0.000000,0.000000,0.000000,0.000000,1011.875358,11.449105,25.500000,0.000000,1730.000000,1500.000000,1385.000000,1500.000000
5.632000,82.690204,-1.967625,-11.610961,-2.639716,9.652548,-7.713365,11.527332,-0.037942,0.311391,-0.003523,0.003257,-0.036044,0.000000,0.000000,0.000000,30.492428,-88.211965,11.610961,-7.830502,-7.713365,0.000000,0.000000,0.000000,0.000000,0.000000,0.000000,1011.855935,11.610961,25.500000,0.000000,1730.000000,1500.000000,1386.000000,1500.000000
5.732001,83.821702,-2.125491,-11.773884,-2.693480,9.672867,-7.922465,11.544471,-0.040829,0.308720,-0.001859,0.008122,-0.035711,0.000000,0.000000,0.000000,30.492438,-88.211967,11.773884,-8.053029,-7.922465,0.000000,0.000000,0.000000,0.000000,0.000000,0.000000,1011.836385,11.773884,25.500000,0.000000,1730.000000,1501.000000,1385.000000,1500.000000
5.833000,84.965443,-2.289657,-11.939467,-2.732930,9.716100,-8.140009,11.561235,-0.043244,0.308275,0.000615,0.008813,-0.037968,0.000000,0.000000,0.000000,30.492449,-88.211968,11.939467,-8.281492,-8.140009,0.000000,0.000000,0.000000,0.000000,0.000000,0.000000,1011.816516,11.939467,25.500000,0.000000,1730.000000,1501.000000,1386.000000,1500.000000
5.933000,86.098656,-2.456936,-12.104656,-2.761692,9.758637,-8.371916,11.577190,-0.042835,0.306944,0.003962,0.011166,-0.041017,0.000000,0.000000,0.000000,30.492459,-88.211970,12.104656,-8.510709,-8.371916,0.000000,0.000000,0.000000,0.000000,0.000000,0.000000,1011.796694,12.104656,25.500000,0.000000,1730.000000,1502.000000,1385.000000,1500.000000
6.033001,87.232557,-2.628983,-12.271167,-2.774200,9.818321,-8.624874,11.592594,-0.038769,0.307241,0.005176,0.013408,-0.044819,0.000000,0.000000,0.000000,30.492469,-88.211972,12.271167,-8.742803,-8.624874,0.000000,0.000000,0.000000,0.000000,0.000000,0.000000,1011.776714,12.271167,25.500000,0.000000,1731.000000,1501.000000,1385.000000,1500.000000
6.134001,88.378527,-2.807669,-12.440962,-2.792483,9.888871,-8.895383,11.614426,-0.032306,0.307321,0.005731,0.016431,-0.045367,0.000000,0.000000,0.000000,30.492479,-88.211974,12.440962,-8.980407,-8.895383,0.000000,0.000000,0.000000,0.000000,0.000000,0.000000,1011.756341,12.440962,25.500000,0.000000,1760.000000,1502.000000,1384.000000,1500.000000
6.234001,89.514877,-2.989695,-12.611181,-2.798728,9.976465,-9.162335,11.645016,-0.026584,0.306473,0.007942,0.017179,-0.044780,0.000000,0.000000,0.000000,30.492490,-88.211976,12.611181,-9.218760,-9.162335,0.000000,0.000000,0.000000,0.000000,0.000000,0.000000,1011.735917,12.611181,25.500000,0.000000,1765.000000,1502.000000,1385.000000,1500.000000
6.335001,90.664621,-3.178818,-12.785717,-2.794994,10.066258,-9.427507,11.678954,-0.021769,0.303446,0.009180,0.019868,-0.043759,0.000000,0.000000,0.000000,30.492500,-88.211978,12.785717,-9.460759,-9.427507,0.000000,0.000000,0.000000,0.000000,0.000000,0.000000,1011.714975,12.785717,25.500000,0.000000,1777.000000,1502.000000,1384.000000,1500.000000
6.435001,91.805374,-3.371393,-12.961427,-2.785169,10.176253,-9.683922,11.717919,-0.018305,0.300840,0.009925,0.020232,-0.042338,0.000000,0.000000,0.000000,30.492510,-88.211980,12.961427,-9.700845,-9.683922,0.000000,0.000000,0.000000,0.000000,0.000000,0.000000,1011.693893,12.961427,25.500000,0.000000,1790.000000,1502.000000,1386.000000,1500.000000
6.536000,92.960480,-3.571394,-13.142352,-2.770518,10.279325,-9.933787,11.767310,-0.016246,0.294277,0.010448,0.020666,-0.040842,0.000000,0.000000,0.000000,30.492521,-88.211982,13.142352,-9.942462,-9.933787,0.000000,0.000000,0.000000,0.000000,0.000000,0.000000,1011.672185,13.142352,25.500000,0.000000,1823.000000,1502.000000,1386.000000,1500.000000
6.636001,94.108389,-3.775095,-13.325335,-2.752508,10.396689,-10.173978,11.827670,-0.015327,0.288213,0.010871,0.023405,-0.039636,0.000000,0.000000,0.000000,30.492531,-88.211984,13.325335,-10.179996,-10.173978,0.000000,0.000000,0.000000,0.000000,0.000000,0.000000,1011.650231,13.325335,25.500000,0.000000,1824.000000,1502.000000,1387.000000,1500.000000
6.737000,95.272264,-3.986616,-13.514465,-2.731618,10.526358,-10.411269,11.887238,-0.015004,0.280750,0.011227,0.023663,-0.038847,0.000000,0.000000,0.000000,30.492541,-88.211986,13.514465,-10.417939,-10.411269,0.000000,0.000000,0.000000,0.000000,0.000000,0.000000,1011.627540,13.514465,25.500000,0.000000,1824.000000,1502.000000,1389.000000,1500.000000
6.837001,96.428810,-4.201718,-13.706249,-2.708985,10.652914,-10.642715,11.944208,-0.014773,0.271962,0.011508,0.025522,-0.038427,0.000000,0.000000,0.000000,30.492552,-88.211988,13.706249,-10.650808,-10.642715,0.000000,0.000000,0.000000,0.000000,0.000000,0.000000,1011.604531,13.706249,25.500000,0.000000,1824.000000,1502.000000,1389.000000,1500.000000
6.937001,97.589286,-4.422406,-13.902583,-2.685321,10.800975,-10.873390,11.998843,-0.014308,0.265779,0.011728,0.027791,-0.038180,0.000000,0.000000,0.000000,30.492562,-88.211991,13.902583,-10.881151,-10.873390,0.000000,0.000000,0.000000,0.000000,0.000000,0.000000,1011.580976,13.902583,25.500000,0.000000,1823.000000,1502.000000,1391.000000,1500.000000
7.038001,98.765015,-4.650895,-14.105754,-2.660638,10.950099,-11.104975,12.051202,-0.013522,0.257428,0.011896,0.027672,-0.037917,0.000000,0.000000,0.000000,30.492573,-88.211993,14.105754,-11.111352,-11.104975,0.000000,0.000000,0.000000,0.000000,0.000000,0.000000,1011.556602,14.105754,25.500000,0.000000,1823.000000,1502.000000,1392.000000,1500.000000
7.138001,99.932420,-4.882585,-14.311789,-2.636263,11.102556,-11.332755,12.100689,-0.012525,0.249657,0.010957,0.028056,-0.037650,0.000000,0.000000,0.000000,30.492583,-88.211996,14.311789,-11.336580,-11.332755,0.000000,0.000000,0.000000,0.000000,0.000000,0.000000,1011.531884,14.311789,25.500000,0.000000,1824.000000,1501.000000,1394.000000,1500.000000
7.239001,101.114599,-5.122039,-14.524861,-2.628254,11.251347,-11.557622,12.148636,-0.012146,0.240593,0.007285,0.027460,-0.035725,0.000000,0.000000,0.000000,30.492594,-88.211998,14.524861,-11.561783,-11.557622,0.000000,0.000000,0.000000,0.000000,0.000000,0.000000,1011.506323,14.524861,25.500000,0.000000,1824.000000,1501.000000,1395.000000,1500.000000
7.340001,102.299645,-5.366907,-14.742844,-2.632963,11.404542,-11.767289,12.194002,-0.014727,0.232842,0.005564,0.027851,-0.032924,0.000000,0.000000,0.000000,30.492605,-88.212001,14.742844,-11.785358,-11.767289,0.000000,0.000000,0.000000,0.000000,0.000000,0.000000,1011.480173,14.742844,25.500000,0.000000,1824.000000,1501.000000,1397.000000,1500.000000
7.440001,103.475501,-5.614626,-14.963478,-2.641989,11.550204,-11.961874,12.236391,-0.019687,0.224155,0.004917,0.026861,-0.031556,0.000000,0.000000,0.000000,30.492615,-88.212003,14.963478,-12.005218,-11.961874,0.000000,0.000000,0.000000,0.000000,0.000000,0.000000,1011.453706,14.963478,25.500000,0.000000,1824.000000,1501.000000,1398.000000,1500.000000
7.541001,104.665429,-5.870088,-15.191030,-2.653422,11.698806,-12.156345,12.276667,-0.024920,0.216738,0.004710,0.027001,-0.032127,0.000000,0.000000,0.000000,30.492626,-88.212006,15.191030,-12.225816,-12.156345,0.000000,0.000000,0.000000,0.000000,0.000000,0.000000,1011.426409,15.191030,25.500000,0.000000,1824.000000,1501.000000,1400.000000,1500.000000
7.641001,105.845603,-6.128182,-15.420914,-2.667526,11.836704,-12.356039,12.314091,-0.028421,0.208290,0.004580,0.025404,-0.033917,0.000000,0.000000,0.000000,30.492636,-88.212009,15.420914,-12.443514,-12.356039,0.000000,0.000000,0.000000,0.000000,0.000000,0.000000,1011.398833,15.420914,25.500000,0.000000,1824.000000,1501.000000,1401.000000,1500.000000
7.742000,107.039386,-6.394029,-15.657526,-2.685527,11.974236,-12.569303,12.349472,-0.029601,0.201201,0.004393,0.025497,-0.035841,0.000000,0.000000,0.000000,30.492647,-88.212011,15.657526,-12.663404,-12.569303,0.000000,0.000000,0.000000,0.000000,0.000000,0.000000,1011.370451,15.657526,25.500000,0.000000,1824.000000,1501.000000,1403.000000,1500.000000
7.842001,108.222894,-6.662347,-15.896048,-2.706946,12.099390,-12.789556,12.382201,-0.029000,0.193011,0.004164,0.023195,-0.037064,0.000000,0.000000,0.000000,30.492658,-88.212014,15.896048,-12.882096,-12.789556,0.000000,0.000000,0.000000,0.000000,0.000000,0.000000,1011.341841,15.896048,25.500000,0.000000,1824.000000,1501.000000,1404.000000,1500.000000
7.943001,109.419581,-6.938495,-16.141004,-2.731280,12.221384,-13.016551,12.413029,-0.027752,0.186170,0.003963,0.023157,-0.037403,0.000000,0.000000,0.000000,30.492669,-88.212017,16.141004,-13.104176,-13.016551,0.000000,0.000000,0.000000,0.000000,0.000000,0.000000,1011.312459,16.141004,25.500000,0.000000,1824.000000,1501.000000,1406.000000,1500.000000
8.044001,110.617399,-7.219817,-16.389841,-2.756915,12.331063,-13.243083,12.441749,-0.026860,0.178164,0.003842,0.020298,-0.037133,0.000000,0.000000,0.000000,30.492679,-88.212020,16.389841,-13.327777,-13.243083,0.000000,0.000000,0.000000,0.000000,0.000000,0.000000,1011.282612,16.389841,25.500000,0.000000,1824.000000,1501.000000,1407.000000,1500.000000
8.145001,111.816164,-7.506314,-16.642268,-2.782871,12.434269,-13.467204,12.468497,-0.026774,0.171608,0.003811,0.020204,-0.036726,0.000000,0.000000,0.000000,30.492690,-88.212023,16.642268,-13.552461,-13.467204,0.000000,0.000000,0.000000,0.000000,0.000000,0.000000,1011.252336,16.642268,25.500000,0.000000,1824.000000,1501.000000,1407.000000,1500.000000
8.245001,113.003821,-7.795074,-16.895502,-2.808574,12.535353,-13.687365,12.493171,-0.027374,0.166185,0.003836,0.019785,-0.036552,0.000000,0.000000,0.000000,30.492701,-88.212026,16.895502,-13.776171,-13.687365,0.000000,0.000000,0.000000,0.000000,0.000000,0.000000,1011.221964,16.895502,25.500000,0.000000,1824.000000,1501.000000,1408.000000,1500.000000
8.346000,114.203940,-8.091868,-17.154465,-2.821078,12.634159,-13.910594,12.516336,-0.027975,0.160997,0.008329,0.019000,-0.037596,0.000000,0.000000,0.000000,30.492712,-88.212029,17.154465,-14.003105,-13.910594,0.000000,0.000000,0.000000,0.000000,0.000000,0.000000,1011.190905,17.154465,25.500000,0.000000,1824.000000,1502.000000,1409.000000,1500.000000
8.446002,115.392583,-8.390802,-17.413898,-2.817397,12.726488,-14.144646,12.537602,-0.025762,0.155927,0.010593,0.017997,-0.040425,0.000000,0.000000,0.000000,30.492722,-88.212032,17.413898,-14.227927,-14.144646,0.000000,0.000000,0.000000,0.000000,0.000000,0.000000,1011.159790,17.413898,25.500000,0.000000,1824.000000,1502.000000,1410.000000,1500.000000
8.547001,116.593360,-8.697829,-17.678843,-2.808188,12.801918,-14.394611,12.557493,-0.020496,0.148699,0.011526,0.013722,-0.042109,0.000000,0.000000,0.000000,30.492733,-88.212035,17.678843,-14.455021,-14.394611,0.000000,0.000000,0.000000,0.000000,0.000000,0.000000,1011.128016,17.678843,25.500000,0.000000,1824.000000,1502.000000,1412.000000,1500.000000
8.647011,117.782390,-9.006848,-17.943721,-2.796668,12.863113,-14.645071,12.575793,-0.014564,0.142488,0.011864,0.012656,-0.041652,0.000000,0.000000,0.000000,30.492744,-88.212039,17.943721,-14.679352,-14.645071,0.000000,0.000000,0.000000,0.000000,0.000000,0.000000,1011.096250,17.943721,25.500000,0.000000,1824.000000,1502.000000,1413.000000,1500.000000
8.748001,118.983375,-9.324016,-18.213489,-2.782190,12.930877,-14.890601,12.593059,-0.010173,0.139571,0.012080,0.014809,-0.039675,0.000000,0.000000,0.000000,30.492755,-88.212042,18.213489,-14.905251,-14.890601,0.000000,0.000000,0.000000,0.000000,0.000000,0.000000,1011.063898,18.213489,25.500000,0.000000,1824.000000,1502.000000,1413.000000,1500.000000
8.849000,120.184279,-9.646224,-18.485445,-2.763708,13.000599,-15.123090,12.608572,-0.008347,0.136307,0.012348,0.013334,-0.037422,0.000000,0.000000,0.000000,30.492766,-88.212045,18.485445,-15.130193,-15.123090,0.000000,0.000000,0.000000,0.000000,0.000000,0.000000,1011.031286,18.485445,25.500000,0.000000,1823.000000,1502.000000,1414.000000,1500.000000
8.949000,121.373077,-9.970145,-18.756811,-2.741395,13.069799,-15.341814,12.623232,-0.008577,0.133913,0.012662,0.014536,-0.035872,0.000000,0.000000,0.000000,30.492776,-88.212049,18.756811,-15.350768,-15.341814,0.000000,0.000000,0.000000,0.000000,0.000000,0.000000,1010.998744,18.756811,25.500000,0.000000,1824.000000,1502.000000,1414.000000,1500.000000
9.050000,122.573462,-10.302191,-19.033003,-2.715789,13.128963,-15.555893,12.636985,-0.009631,0.128738,0.012947,0.009681,-0.035287,0.000000,0.000000,0.000000,30.492787,-88.212052,19.033003,-15.571163,-15.555893,0.000000,0.000000,0.000000,0.000000,0.000000,0.000000,1010.965625,19.033003,25.500000,0.000000,1824.000000,1502.000000,1416.000000,1500.000000
9.151001,123.773473,-10.639070,-19.311102,-2.688588,13.177180,-15.768269,12.649682,-0.010385,0.124824,0.013139,0.010778,-0.035396,0.000000,0.000000,0.000000,30.492798,-88.212056,19.311102,-15.788172,-15.768269,0.000000,0.000000,0.000000,0.000000,0.000000,0.000000,1010.932278,19.311102,25.500000,0.000000,1824.000000,1502.000000,1416.000000,1500.000000
9.251001,124.961189,-10.977301,-19.588087,-2.661455,13.234227,-15.980421,12.661345,-0.010312,0.123526,0.013235,0.012364,-0.035684,0.000000,0.000000,0.000000,30.492809,-88.212059,19.588087,-16.000539,-15.980421,0.000000,0.000000,0.000000,0.000000,0.000000,0.000000,1010.899065,19.588087,25.500000,0.000000,1824.000000,1502.000000,1416.000000,1500.000000
9.351001,126.148391,-11.320126,-19.866743,-2.634455,13.290282,-16.193741,12.672081,-0.009513,0.121039,0.013266,0.010313,-0.035755,0.000000,0.000000,0.000000,30.492819,-88.212063,19.866743,-16.210958,-16.193741,0.000000,0.000000,0.000000,0.000000,0.000000,0.000000,1010.865653,19.866743,25.500000,0.000000,1824.000000,1502.000000,1417.000000,1500.000000
9.452001,127.346846,-11.670973,-20.149851,-2.615443,13.333611,-16.407875,12.681991,-0.008457,0.116943,0.009572,0.007960,-0.035058,0.000000,0.000000,0.000000,30.492830,-88.212066,20.149851,-16.421254,-16.407875,0.000000,0.000000,0.000000,0.000000,0.000000,0.000000,1010.831708,20.149851,25.500000,0.000000,1824.000000,1501.000000,1418.000000,1500.000000
9.553000,128.544635,-12.026381,-20.434402,-2.607539,13.372706,-16.609807,12.691083,-0.009745,0.114280,0.010479,0.008892,-0.032410,0.000000,0.000000,0.000000,30.492841,-88.212070,20.434402,-16.629781,-16.609807,0.000000,0.000000,0.000000,0.000000,0.000000,0.000000,1010.797591,20.434402,25.500000,0.000000,1824.000000,1502.000000,1418.000000,1500.000000
9.653001,129.729861,-12.382716,-20.717414,-2.594207,13.411586,-16.802095,12.699376,-0.012269,0.111787,0.008643,0.007091,-0.032279,0.000000,0.000000,0.000000,30.492851,-88.212074,20.717414,-16.834387,-16.802095,0.000000,0.000000,0.000000,0.000000,0.000000,0.000000,1010.763660,20.717414,25.500000,0.000000,1824.000000,1501.000000,1419.000000,1500.000000
9.754001,130.926156,-12.747046,-21.004463,-2.595185,13.437759,-16.993242,12.706642,-0.015098,0.107930,0.006605,0.004639,-0.031456,0.000000,0.000000,0.000000,30.492862,-88.212078,21.004463,-17.039399,-16.993242,0.000000,0.000000,0.000000,0.000000,0.000000,0.000000,1010.729245,21.004463,25.500000,0.000000,1823.000000,1501.000000,1420.000000,1500.000000
9.855000,132.121618,-13.115786,-21.292474,-2.603425,13.457403,-17.179770,12.713604,-0.018740,0.105332,0.005665,0.005292,-0.031019,0.000000,0.000000,0.000000,30.492873,-88.212082,21.292474,-17.243213,-17.179770,0.000000,0.000000,0.000000,0.000000,0.000000,0.000000,1010.694716,21.292474,25.500000,0.000000,1824.000000,1501.000000,1420.000000,1500.000000
9.955001,133.304451,-13.485216,-21.578411,-2.615457,13.482596,-17.364984,12.720333,-0.022256,0.104546,0.005245,0.006276,-0.031542,0.000000,0.000000,0.000000,30.492884,-88.212085,21.578411,-17.444699,-17.364984,0.000000,0.000000,0.000000,0.000000,0.000000,0.000000,1010.660437,21.578411,25.500000,0.000000,1824.000000,1501.000000,1420.000000,1500.000000
10.055001,134.486442,-13.858955,-21.865140,-2.630594,13.506080,-17.555448,12.726669,-0.024700,0.102738,0.004999,0.004074,-0.032725,0.000000,0.000000,0.000000,30.492894,-88.212089,21.865140,-17.646667,-17.555448,0.000000,0.000000,0.000000,0.000000,0.000000,0.000000,1010.626063,21.865140,25.500000,0.000000,1824.000000,1501.000000,1421.000000,1500.000000
10.155001,135.667539,-14.237002,-22.152619,-2.648700,13.519400,-17.752899,12.732637,-0.025739,0.100418,0.004787,0.004065,-0.033968,0.000000,0.000000,0.000000,30.492905,-88.212093,22.152619,-17.849218,-17.752899,0.000000,0.000000,0.000000,0.000000,0.000000,0.000000,1010.591601,22.152619,25.500000,0.000000,1824.000000,1501.000000,1421.000000,1500.000000
10.255001,136.847719,-14.619373,-22.440681,-2.669609,13.540779,-17.957086,12.737957,-0.025723,0.100848,0.004592,0.007502,-0.034823,0.000000,0.000000,0.000000,30.492915,-88.212097,22.440681,-18.053023,-17.957086,0.000000,0.000000,0.000000,0.000000,0.000000,0.000000,1010.557070,22.440681,25.500000,0.000000,1823.000000,1501.000000,1420.000000,1500.000000
10.356001,138.038648,-15.009962,-22.732278,-2.688063,13.574586,-18.167322,12.742681,-0.025335,0.101314,0.007333,0.005969,-0.035276,0.000000,0.000000,0.000000,30.492926,-88.212101,22.732278,-18.261186,-18.167322,0.000000,0.000000,0.000000,0.000000,0.000000,0.000000,1010.522116,22.732278,25.500000,0.000000,1823.000000,1502.000000,1421.000000,1500.000000
10.457001,139.228415,-15.404979,-23.024694,-2.686626,13.595666,-18.384995,12.747282,-0.023400,0.099426,0.010446,0.005243,-0.037600,0.000000,0.000000,0.000000,30.492937,-88.212105,23.024694,-18.470331,-18.384995,0.000000,0.000000,0.000000,0.000000,0.000000,0.000000,1010.487064,23.024694,25.500000,0.000000,1824.000000,1502.000000,1421.000000,1500.000000
10.558001,140.417027,-15.804439,-23.317826,-2.676148,13.617137,-18.616592,12.751814,-0.018563,0.098565,0.011800,0.005829,-0.039497,0.000000,0.000000,0.000000,30.492948,-88.212110,23.317826,-18.679883,-18.616592,0.000000,0.000000,0.000000,0.000000,0.000000,0.000000,1010.451928,23.317826,25.500000,0.000000,1824.000000,1502.000000,1421.000000,1500.000000
10.658001,141.592691,-16.204321,-23.608730,-2.662231,13.641306,-18.851703,12.755916,-0.012639,0.098232,0.012317,0.006276,-0.039443,0.000000,0.000000,0.000000,30.492958,-88.212114,23.608730,-18.887860,-18.851703,0.000000,0.000000,0.000000,0.000000,0.000000,0.000000,1010.417060,23.608730,25.500000,0.000000,1824.000000,1502.000000,1421.000000,1500.000000
10.759001,142.778854,-16.612611,-23.903255,-2.644859,13.664672,-19.083423,12.759641,-0.007868,0.096982,0.012578,0.004222,-0.037730,0.000000,0.000000,0.000000,30.492969,-88.212118,23.903255,-19.097995,-19.083423,0.000000,0.000000,0.000000,0.000000,0.000000,0.000000,1010.381759,23.903255,25.500000,0.000000,1824.000000,1502.000000,1422.000000,1500.000000
10.860000,143.963708,-17.025304,-24.198464,-2.623058,13.675767,-19.302207,12.762968,-0.005554,0.094545,0.012836,0.003565,-0.035504,0.000000,0.000000,0.000000,30.492980,-88.212122,24.198464,-19.306809,-19.302207,0.000000,0.000000,0.000000,0.000000,0.000000,0.000000,1010.346377,24.198464,25.500000,0.000000,1824.000000,1502.000000,1422.000000,1500.000000
10.960001,145.135545,-17.438211,-24.491235,-2.597112,13.689073,-19.507031,12.765981,-0.005428,0.093751,0.013135,0.004226,-0.033822,0.000000,0.000000,0.000000,30.492990,-88.212127,24.491235,-19.511430,-19.507031,0.000000,0.000000,0.000000,0.000000,0.000000,0.000000,1010.311288,24.491235,25.500000,0.000000,1824.000000,1502.000000,1422.000000,1500.000000
11.061001,146.317795,-17.859537,-24.787377,-2.523131,13.706245,-19.702714,12.769032,-0.007206,0.093571,0.050782,0.004602,-0.031749,0.000000,0.000000,0.000000,30.493001,-88.212131,24.787377,-19.715914,-19.702714,0.000000,0.000000,0.000000,0.000000,0.000000,0.000000,1010.275796,24.787377,25.500000,0.000000,1825.000000,1519.000000,1422.000000,1498.000000
11.162001,147.498771,-18.285050,-25.084006,-2.046687,13.722668,-19.976093,12.771974,0.011417,0.093448,0.156216,0.004718,-0.064894,0.000000,0.000000,0.000000,30.493011,-88.212136,25.084006,-19.907233,-19.976093,0.000000,0.000000,0.000000,0.000000,0.000000,0.000000,1010.240247,25.084006,25.500000,0.000000,1824.000000,1540.000000,1422.000000,1496.000000
11.262001,148.666885,-18.709943,-25.378265,-0.964193,13.712504,-20.582793,12.773886,0.111751,0.085386,0.257561,-0.015163,-0.143913,0.000000,0.000000,0.000000,30.493022,-88.212140,25.378265,-20.060484,-20.582793,0.000000,0.000000,0.000000,0.000000,0.000000,0.000000,1010.204983,25.378265,25.500000,0.000000,1825.000000,1539.000000,1432.000000,1496.000000
11.363001,149.845909,-19.141818,-25.675614,0.412777,13.564559,-21.617775,12.772930,0.315465,0.059204,0.291257,-0.027163,-0.192577,0.000000,0.000000,0.000000,30.493032,-88.212144,25.675614,-20.165684,-21.617775,0.000000,0.000000,0.000000,0.000000,0.000000,0.000000,1010.169349,25.675614,25.500000,0.000000,1824.000000,1535.000000,1432.000000,1496.000000
11.464000,151.025069,-19.575620,-25.970677,1.841673,13.446655,-22.703451,12.768328,0.540926,0.048413,0.283664,-0.020289,-0.158113,0.000000,0.000000,0.000000,30.493043,-88.212149,25.970677,-20.220678,-22.703451,0.000000,0.000000,0.000000,0.000000,0.000000,0.000000,1010.133991,25.970677,25.500000,0.000000,1824.000000,1530.000000,1432.000000,1497.000000
11.564001,152.193482,-20.006002,-26.259440,3.247593,13.375002,-23.366633,12.765788,0.690196,0.046572,0.253392,-0.013695,-0.059926,0.000000,0.000000,0.000000,30.493054,-88.212154,26.259440,-20.208321,-23.366633,0.000000,0.000000,0.000000,0.000000,0.000000,0.000000,1010.099388,26.259440,25.500000,0.000000,1824.000000,1521.000000,1431.000000,1498.000000
11.664001,153.363650,-20.435684,-26.544696,4.573215,13.309607,-23.368246,12.771564,0.717409,0.050057,0.206813,-0.008707,0.059568,0.000000,0.000000,0.000000,30.493064,-88.212158,26.544696,-20.100765,-23.368246,0.000000,0.000000,0.000000,0.000000,0.000000,0.000000,1010.065207,26.544696,25.500000,0.000000,1825.000000,1513.000000,1430.000000,1499.000000
11.765001,154.548358,-20.866780,-26.829604,5.777261,13.207506,-22.707332,12.787311,0.627132,0.055370,0.152930,-0.005946,0.157170,0.000000,0.000000,0.000000,30.493075,-88.212163,26.829604,-19.871269,-22.707332,0.000000,0.000000,0.000000,0.000000,0.000000,0.000000,1010.031068,26.829604,25.500000,0.000000,1825.000000,1503.000000,1429.000000,1500.000000
11.865002,155.725285,-21.288247,-27.109006,6.728964,13.058235,-21.608567,12.808176,0.467144,0.060234,0.092548,-0.005762,0.211842,0.000000,0.000000,0.000000,30.493085,-88.212167,27.109006,-19.517909,-21.608567,0.000000,0.000000,0.000000,0.000000,0.000000,0.000000,1009.997590,27.109006,25.500000,0.000000,1824.000000,1496.000000,1429.000000,1500.000000
11.966001,156.918993,-21.706036,-27.388914,7.389059,12.861925,-20.307113,12.830238,0.285878,0.061601,0.035605,-0.007374,0.224477,0.000000,0.000000,0.000000,30.493096,-88.212171,27.388914,-19.049729,-20.307113,0.000000,0.000000,0.000000,0.000000,0.000000,0.000000,1009.964052,27.388914,25.500000,0.000000,1825.000000,1490.000000,1429.000000,1501.000000
12.067000,158.118638,-22.113898,-27.666674,7.718355,12.650324,-19.032643,12.852704,0.126650,0.060307,-0.016074,-0.010120,0.207599,0.000000,0.000000,0.000000,30.493107,-88.212176,27.666674,-18.499856,-19.032643,0.000000,0.000000,0.000000,0.000000,0.000000,0.000000,1009.930772,27.666674,25.500000,0.000000,1825.000000,1487.000000,1431.000000,1501.000000
12.167000,159.312856,-22.506651,-27.939576,7.749748,12.427237,-17.918106,12.875421,0.009333,0.054159,-0.052762,-0.012938,0.178395,0.000000,0.000000,0.000000,30.493118,-88.212180,27.939576,-17.912237,-17.918106,0.000000,0.000000,0.000000,0.000000,0.000000,0.000000,1009.898075,27.939576,25.500000,0.000000,1825.000000,1488.000000,1430.000000,1501.000000
12.267001,160.513870,-22.887850,-28.210037,7.597004,12.244610,-16.987217,12.899883,-0.064419,0.053538,-0.062689,-0.007088,0.144997,0.000000,0.000000,0.000000,30.493128,-88.212184,28.210037,-17.312344,-16.987217,0.000000,0.000000,0.000000,0.000000,0.000000,0.000000,1009.865672,28.210037,25.500000,0.000000,1825.000000,1497.000000,1428.000000,1500.000000
12.368000,161.733912,-23.261025,-28.480890,7.482167,12.135001,-16.260316,12.926997,-0.091614,0.058320,-0.033401,0.000770,0.100149,0.000000,0.000000,0.000000,30.493139,-88.212188,28.480890,-16.709163,-16.260316,0.000000,0.000000,0.000000,0.000000,0.000000,0.000000,1009.833222,28.480890,25.500000,0.000000,1824.000000,1498.000000,1426.000000,1500.000000
12.468001,162.948700,-23.618806,-28.747537,7.435407,12.104756,-15.810267,12.955618,-0.060238,0.064219,-0.018082,0.007536,0.056450,0.000000,0.000000,0.000000,30.493150,-88.212191,28.747537,-16.120639,-15.810267,0.000000,0.000000,0.000000,0.000000,0.000000,0.000000,1009.801278,28.747537,25.500000,0.000000,1825.000000,1499.000000,1424.000000,1500.000000
12.569001,164.182311,-23.968511,-29.016295,7.416753,12.137095,-15.538622,12.986432,0.008932,0.069684,-0.009694,0.013616,0.038073,0.000000,0.000000,0.000000,30.493161,-88.212195,29.016295,-15.542066,-15.538622,0.000000,0.000000,0.000000,0.000000,0.000000,0.000000,1009.769081,29.016295,25.500000,0.000000,1825.000000,1499.000000,1423.000000,1500.000000
12.669001,165.410039,-24.303444,-29.282824,7.422494,12.196480,-15.288690,13.017168,0.078231,0.072254,-0.006706,0.017048,0.047856,0.000000,0.000000,0.000000,30.493173,-88.212198,29.282824,-14.984560,-15.288690,0.000000,0.000000,0.000000,0.000000,0.000000,0.000000,1009.737152,29.282824,25.500000,0.000000,1825.000000,1501.000000,1422.000000,1500.000000
12.770013,166.656138,-24.630441,-29.553196,7.497213,12.264264,-14.924472,13.048126,0.121733,0.073539,0.005870,0.020642,0.071179,0.000000,0.000000,0.000000,30.493184,-88.212202,29.553196,-14.428757,-14.924472,0.000000,0.000000,0.000000,0.000000,0.000000,0.000000,1009.704763,29.553196,25.500000,0.000000,1825.000000,1516.000000,1427.000000,1498.000000
12.871001,167.908117,-24.945970,-29.825334,7.887780,12.262144,-14.459867,13.078871,0.142867,0.059147,0.086231,0.005742,0.073638,0.000000,0.000000,0.000000,30.493195,-88.212205,29.825334,-13.865462,-14.459867,0.000000,0.000000,0.000000,0.000000,0.000000,0.000000,1009.672164,29.825334,25.500000,0.000000,1825.000000,1516.000000,1427.000000,1498.000000
12.972001,169.166087,-25.249642,-30.098473,8.634814,12.216413,-14.115726,13.109277,0.196489,0.042082,0.140127,-0.000431,0.041528,0.000000,0.000000,0.000000,30.493206,-88.212208,30.098473,-13.279277,-14.115726,0.000000,0.000000,0.000000,0.000000,0.000000,0.000000,1009.639446,30.098473,25.500000,0.000000,1825.000000,1519.000000,1430.000000,1498.000000
13.073000,170.430375,-25.540837,-30.371277,9.588858,12.165401,-13.953642,13.138782,0.298971,0.026091,0.173550,-0.004942,0.019253,0.000000,0.000000,0.000000,30.493218,-88.212211,30.371277,-12.662910,-13.953642,0.000000,0.000000,0.000000,0.000000,0.000000,0.000000,1009.606768,30.371277,25.500000,0.000000,1824.000000,1521.000000,1433.000000,1498.000000
13.174001,171.701373,-25.818814,-30.642510,10.708958,12.082099,-13.844535,13.168606,0.422067,0.007199,0.202780,-0.012553,0.026290,0.000000,0.000000,0.000000,30.493229,-88.212214,30.642510,-12.011705,-13.844535,0.000000,0.000000,0.000000,0.000000,0.000000,0.000000,1009.574280,30.642510,25.500000,0.000000,1824.000000,1524.000000,1437.000000,1498.000000
13.275001,172.979657,-26.082694,-30.910763,12.083291,11.814707,-13.664382,13.201076,0.534222,-0.038477,0.256293,-0.052785,0.050384,0.000000,0.000000,0.000000,30.493241,-88.212217,30.910763,-11.319876,-13.664382,0.000000,0.000000,0.000000,0.000000,0.000000,0.000000,1009.542150,30.910763,25.500000,0.000000,1825.000000,1532.000000,1451.000000,1497.000000
13.375001,174.253593,-26.329403,-31.169799,13.660336,11.417813,-13.384980,13.238264,0.633122,-0.073725,0.271743,-0.055779,0.076729,0.000000,0.000000,0.000000,30.493252,-88.212220,31.169799,-10.600908,-13.384980,0.000000,0.000000,0.000000,0.000000,0.000000,0.000000,1009.511124,31.169799,25.500000,0.000000,1825.000000,1529.000000,1455.000000,1497.000000
13.476001,175.550012,-26.562881,-31.421274,15.274571,11.007270,-12.898119,13.284864,0.707625,-0.084937,0.252967,-0.041138,0.123653,0.000000,0.000000,0.000000,30.493264,-88.212222,31.421274,-9.812395,-12.898119,0.000000,0.000000,0.000000,0.000000,0.000000,0.000000,1009.481004,31.421274,25.500000,0.000000,1825.000000,1523.000000,1454.000000,1498.000000
13.576001,176.844343,-26.776700,-31.659013,16.749104,10.588054,-12.081303,13.342599,0.729517,-0.081746,0.209237,-0.024470,0.189581,0.000000,0.000000,0.000000,30.493275,-88.212224,31.659013,-8.940262,-12.081303,0.000000,0.000000,0.000000,0.000000,0.000000,0.000000,1009.452531,31.659013,25.500000,0.000000,1824.000000,1515.000000,1451.000000,1498.000000
13.676004,178.150261,-26.970785,-31.885852,18.005410,10.120423,-10.861381,13.413828,0.683422,-0.072460,0.154093,-0.008095,0.258938,0.000000,0.000000,0.000000,30.493287,-88.212226,31.885852,-7.957355,-10.861381,0.000000,0.000000,0.000000,0.000000,0.000000,0.000000,1009.425363,31.885852,25.500000,0.000000,1824.000000,1507.000000,1447.000000,1499.000000
13.777001,179.481788,-27.143836,-32.104859,18.989194,9.593062,-9.260897,13.498272,0.575223,-0.061549,0.092468,0.006686,0.312960,0.000000,0.000000,0.000000,30.493299,-88.212228,32.104859,-6.844351,-9.260897,0.000000,0.000000,0.000000,0.000000,0.000000,0.000000,1009.399134,32.104859,25.500000,0.000000,1824.000000,1499.000000,1443.000000,1500.000000
13.878001,180.826540,-27.290714,-32.314965,19.630482,9.041717,-7.413237,13.592873,0.430575,-0.051089,0.026324,0.020992,0.341517,0.000000,0.000000,0.000000,30.493311,-88.212230,32.314965,-5.617991,-7.413237,0.000000,0.000000,0.000000,0.000000,0.000000,0.000000,1009.373972,32.314965,25.500000,0.000000,1825.000000,1491.000000,1439.000000,1501.000000
13.979001,182.184875,-27.408547,-32.517571,19.900215,8.530091,-5.447614,13.694471,0.276685,-0.039050,-0.035788,0.039112,0.347165,0.000000,0.000000,0.000000,30.493323,-88.212231,32.517571,-4.298347,-5.447614,0.000000,0.000000,0.000000,0.000000,0.000000,0.000000,1009.349708,32.517571,25.500000,0.000000,1825.000000,1485.000000,1434.000000,1501.000000
14.079002,183.543078,-27.494161,-32.712537,19.816280,8.125832,-3.488841,13.799383,0.136401,-0.025825,-0.091973,0.057733,0.335368,0.000000,0.000000,0.000000,30.493336,-88.212232,32.712537,-2.921093,-3.488841,0.000000,0.000000,0.000000,0.000000,0.000000,0.000000,1009.326360,32.712537,25.500000,0.000000,1824.000000,1480.000000,1429.000000,1502.000000
14.180001,184.927860,-27.547319,-32.906026,19.414243,7.867540,-1.562210,13.909263,0.017639,-0.010119,-0.138346,0.080028,0.314900,0.000000,0.000000,0.000000,30.493348,-88.212232,32.906026,-1.486234,-1.562210,0.000000,0.000000,0.000000,0.000000,0.000000,0.000000,1009.303189,32.906026,25.500000,0.000000,1825.000000,1477.000000,1423.000000,1502.000000
14.281001,186.324943,-27.565625,-33.098939,18.766480,7.783529,0.280665,14.021413,-0.075866,0.005518,-0.170228,0.099267,0.290229,0.000000,0.000000,0.000000,30.493361,-88.212232,33.098939,-0.030204,0.280665,0.000000,0.000000,0.000000,0.000000,0.000000,0.000000,1009.280087,33.098939,25.500000,0.000000,1825.000000,1476.000000,1418.000000,1502.000000
14.381001,187.719177,-27.548639,-33.292594,17.974807,7.872389,1.996720,14.132740,-0.142977,0.020003,-0.184870,0.118358,0.262386,0.000000,0.000000,0.000000,30.493373,-88.212232,33.292594,1.407573,1.996720,0.000000,0.000000,0.000000,0.000000,0.000000,0.000000,1009.256897,33.292594,25.500000,0.000000,1825.000000,1477.000000,1413.000000,1502.000000
14.481001,189.122939,-27.496512,-33.492227,17.135241,8.118286,3.574044,14.242453,-0.182331,0.028991,-0.180957,0.127814,0.230624,0.000000,0.000000,0.000000,30.493386,-88.212232,33.492227,2.824155,3.574044,0.000000,0.000000,0.000000,0.000000,0.000000,0.000000,1009.232992,33.492227,25.500000,0.000000,1825.000000,1480.000000,1411.000000,1502.000000
14.582000,190.548778,-27.408550,-33.703041,16.327865,8.479415,4.985096,14.349341,-0.189300,0.028926,-0.165845,0.130437,0.195673,0.000000,0.000000,0.000000,30.493399,-88.212231,33.703041,4.211985,4.985096,0.000000,0.000000,0.000000,0.000000,0.000000,0.000000,1009.207748,33.703041,25.500000,0.000000,1824.000000,1483.000000,1411.000000,1502.000000
14.682001,191.966802,-27.287421,-33.923073,15.628016,8.908572,6.195173,14.450061,-0.165110,0.020881,-0.137459,0.127270,0.165233,0.000000,0.000000,0.000000,30.493412,-88.212230,33.923073,5.527864,6.195173,0.000000,0.000000,0.000000,0.000000,0.000000,0.000000,1009.181401,33.923073,25.500000,0.000000,1824.000000,1488.000000,1413.000000,1501.000000
14.783001,193.403842,-27.132014,-34.158065,15.092590,9.374816,7.244841,14.546233,-0.114012,0.006535,-0.102711,0.121368,0.138775,0.000000,0.000000,0.000000,30.493424,-88.212228,34.158065,6.792385,7.244841,0.000000,0.000000,0.000000,0.000000,0.000000,0.000000,1009.153263,34.158065,25.500000,0.000000,1825.000000,1492.000000,1416.000000,1501.000000
14.884001,194.844406,-26.944793,-34.406399,14.747909,9.844349,8.157491,14.635936,-0.044005,-0.012238,-0.066409,0.112933,0.122028,0.000000,0.000000,0.000000,30.493437,-88.212226,34.406399,7.994943,8.157491,0.000000,0.000000,0.000000,0.000000,0.000000,0.000000,1009.123529,34.406399,25.500000,0.000000,1825.000000,1496.000000,1420.000000,1500.000000
14.985001,196.287270,-26.727112,-34.667909,14.611231,10.288351,8.991130,14.718618,0.032735,-0.033546,-0.028306,0.104848,0.115110,0.000000,0.000000,0.000000,30.493450,-88.212224,34.667909,9.144401,8.991130,0.000000,0.000000,0.000000,0.000000,0.000000,0.000000,1009.092217,34.667909,25.500000,0.000000,1825.000000,1500.000000,1424.000000,1500.000000
15.086001,197.731360,-26.480050,-34.941888,14.693932,10.688254,9.790851,14.794544,0.108416,-0.057342,0.007901,0.093830,0.114013,0.000000,0.000000,0.000000,30.493463,-88.212221,34.941888,10.256218,9.790851,0.000000,0.000000,0.000000,0.000000,0.000000,0.000000,1009.059413,34.941888,25.500000,0.000000,1825.000000,1503.000000,1429.000000,1500.000000
15.187001,199.175754,-26.204345,-35.227163,14.961850,11.022649,10.583817,14.864388,0.179214,-0.083292,0.030080,0.082916,0.118394,0.000000,0.000000,0.000000,30.493476,-88.212218,35.227163,11.343147,10.583817,0.000000,0.000000,0.000000,0.000000,0.000000,0.000000,1009.025258,35.227163,25.500000,0.000000,1825.000000,1503.000000,1434.000000,1500.000000
15.288000,200.619712,-25.900433,-35.522082,15.337372,11.282857,11.422746,14.929359,0.234986,-0.107931,0.044113,0.075361,0.134128,0.000000,0.000000,0.000000,30.493489,-88.212215,35.522082,12.416473,11.422746,0.000000,0.000000,0.000000,0.000000,0.000000,0.000000,1008.989949,35.522082,25.500000,0.000000,1825.000000,1504.000000,1438.000000,1500.000000
15.388000,202.048316,-25.571848,-35.821868,15.797200,11.468236,12.342619,14.990269,0.267600,-0.130013,0.050360,0.067913,0.151720,0.000000,0.000000,0.000000,30.493502,-88.212212,35.821868,13.480219,12.342619,0.000000,0.000000,0.000000,0.000000,0.000000,0.000000,1008.954059,35.821868,25.500000,0.000000,1825.000000,1503.000000,1442.000000,1500.000000
15.488001,203.475280,-25.215499,-36.127812,16.282569,11.580682,13.352488,15.048910,0.279564,-0.149959,0.045224,0.062936,0.169176,0.000000,0.000000,0.000000,30.493515,-88.212208,36.127812,14.554308,13.352488,0.000000,0.000000,0.000000,0.000000,0.000000,0.000000,1008.917432,36.127812,25.500000,0.000000,1825.000000,1501.000000,1445.000000,1500.000000
15.589001,204.914282,-24.826973,-36.441563,16.737710,11.626559,14.464521,15.106849,0.271956,-0.168800,0.032366,0.054851,0.186696,0.000000,0.000000,0.000000,30.493528,-88.212204,36.441563,15.656883,14.464521,0.000000,0.000000,0.000000,0.000000,0.000000,0.000000,1008.879872,36.441563,25.500000,0.000000,1825.000000,1499.000000,1449.000000,1500.000000
15.690001,206.350494,-24.409170,-36.758683,17.118438,11.598621,15.656121,15.163994,0.247291,-0.185605,0.012550,0.054270,0.201018,0.000000,0.000000,0.000000,30.493541,-88.212199,36.758683,16.774306,15.656121,0.000000,0.000000,0.000000,0.000000,0.000000,0.000000,1008.841909,36.758683,25.500000,0.000000,1824.000000,1496.000000,1450.000000,1500.000000
15.791000,207.783381,-23.961581,-37.077847,17.383008,11.546080,16.923116,15.221396,0.209592,-0.195953,-0.010083,0.052800,0.212900,0.000000,0.000000,0.000000,30.493554,-88.212195,37.077847,17.912361,16.923116,0.000000,0.000000,0.000000,0.000000,0.000000,0.000000,1008.803703,37.077847,25.500000,0.000000,1825.000000,1494.000000,1452.000000,1501.000000
15.892001,209.212348,-23.483598,-37.398504,17.525348,11.459736,18.235918,15.279800,0.163857,-0.206474,-0.034465,0.051820,0.218728,0.000000,0.000000,0.000000,30.493567,-88.212190,37.398504,19.067460,18.235918,0.000000,0.000000,0.000000,0.000000,0.000000,0.000000,1008.765320,37.398504,25.500000,0.000000,1825.000000,1491.000000,1453.000000,1501.000000
15.992001,210.622740,-22.980003,-37.716963,17.495634,11.368059,19.557944,15.338422,0.116345,-0.213407,-0.080758,0.054467,0.221781,0.000000,0.000000,0.000000,30.493579,-88.212185,37.716963,20.220850,19.557944,0.000000,0.000000,0.000000,0.000000,0.000000,0.000000,1008.727201,37.716963,25.500000,0.000000,1825.000000,1482.000000,1453.000000,1502.000000
16.093001,212.042140,-22.440497,-38.039556,17.100580,11.258522,20.957871,15.398427,0.051792,-0.223535,-0.163485,0.040550,0.244357,0.000000,0.000000,0.000000,30.493592,-88.212179,38.039556,21.390409,20.957871,0.000000,0.000000,0.000000,0.000000,0.000000,0.000000,1008.688588,38.039556,25.500000,0.000000,1825.000000,1471.000000,1459.000000,1503.000000
16.194001,213.455928,-21.870168,-38.363052,16.190885,11.007398,22.522019,15.458359,-0.068047,-0.246215,-0.260739,0.030391,0.287718,0.000000,0.000000,0.000000,30.493605,-88.212173,38.363052,22.529018,22.522019,0.000000,0.000000,0.000000,0.000000,0.000000,0.000000,1008.649868,38.363052,25.500000,0.000000,1824.000000,1462.000000,1461.000000,1504.000000
16.295000,214.864211,-21.269929,-38.686031,14.722664,10.706078,24.311698,15.517483,-0.255927,-0.258939,-0.393387,0.033071,0.318887,0.000000,0.000000,0.000000,30.493618,-88.212167,38.686031,23.620967,24.311698,0.000000,0.000000,0.000000,0.000000,0.000000,0.000000,1008.611211,38.686031,25.500000,0.000000,1824.000000,1439.000000,1461.000000,1506.000000
16.395002,216.253267,-20.647324,-39.004902,12.316081,10.438150,26.298815,15.573072,-0.508848,-0.268422,-0.594708,0.032631,0.364345,0.000000,0.000000,0.000000,30.493630,-88.212160,39.004902,24.641506,26.298815,0.000000,0.000000,0.000000,0.000000,0.000000,0.000000,1008.573048,39.004902,25.500000,0.000000,1824.000000,1415.000000,1463.000000,1508.000000
16.496000,217.651248,-19.991909,-39.326341,8.699894,10.205511,28.638658,15.619202,-0.874481,-0.287775,-0.764704,0.038286,0.428645,0.000000,0.000000,0.000000,30.493643,-88.212153,39.326341,25.562947,28.638658,0.000000,0.000000,0.000000,0.000000,0.000000,0.000000,1008.534578,39.326341,25.500000,0.000000,1825.000000,1420.000000,1462.000000,1508.000000
16.596001,219.031539,-19.319746,-39.643523,4.602346,10.187681,31.079471,15.650181,-1.300531,-0.300926,-0.803105,0.056255,0.380587,0.000000,0.000000,0.000000,30.493655,-88.212146,39.643523,26.332683,31.079471,0.000000,0.000000,0.000000,0.000000,0.000000,0.000000,1008.496618,39.643523,25.500000,0.000000,1825.000000,1424.000000,1460.000000,1508.000000
16.697000,220.423067,-18.621373,-39.962987,0.263899,10.491635,32.861402,15.681410,-1.597737,-0.303942,-0.808850,0.080576,0.208833,0.000000,0.000000,0.000000,30.493668,-88.212139,39.962987,26.926730,32.861402,0.000000,0.000000,0.000000,0.000000,0.000000,0.000000,1008.458387,39.962987,25.500000,0.000000,1824.000000,1424.000000,1456.000000,1508.000000
16.797001,221.800233,-17.916046,-40.279732,-4.290788,11.033700,33.533972,15.730020,-1.676064,-0.296346,-0.819113,0.100522,0.039120,0.000000,0.000000,0.000000,30.493680,-88.212132,40.279732,27.260168,33.533972,0.000000,0.000000,0.000000,0.000000,0.000000,0.000000,1008.420482,40.279732,25.500000,0.000000,1824.000000,1429.000000,1454.000000,1507.000000
16.898001,223.193669,-17.196974,-40.602403,-9.037929,11.622495,33.352582,15.793329,-1.621159,-0.292370,-0.804826,0.104482,-0.063387,0.000000,0.000000,0.000000,30.493693,-88.212124,40.602403,27.273602,33.352582,0.000000,0.000000,0.000000,0.000000,0.000000,0.000000,1008.381870,40.602403,25.500000,0.000000,1824.000000,1435.000000,1456.000000,1506.000000
16.999000,224.593590,-16.479446,-40.929190,-13.717883,12.090197,32.714019,15.859076,-1.539086,-0.304780,-0.747951,0.093377,-0.107820,0.000000,0.000000,0.000000,30.493705,-88.212117,40.929190,26.949975,32.714019,0.000000,0.000000,0.000000,0.000000,0.000000,0.000000,1008.342766,40.929190,25.500000,0.000000,1824.000000,1454.000000,1461.000000,1505.000000
