Time (sec) ,X(m) ,Y(m) ,Z(m) ,Roll (deg) ,Pitch (deg) ,Yaw (deg) ,U(m/s) ,V(m/s) ,W(m/s) ,P(rad/s) ,Q(rad/s) ,R(rad/s) ,Mx(Gauss) ,My(Gauss) ,Mz(Gauss) ,GPS Latitude (deg) ,GPS Longitude (deg) ,GPS Altitude (m) ,GPS Heading (deg) ,Yaw (deg) ,Analog 1 (V) ,Analog 2 (V) ,Analog 3 (V) ,Analog 4 (V) ,Analog 5 (V) ,Analog 6 (V) ,Pressure (Pa) ,Pressure Altitude (m) ,Temperature (C) ,RC In Channel #5 ,PWM Model 1 ,PWM Model 2 ,PWM Model 3 ,PWM Model 4 
 0.000019,20.010000,-0.000000,-9.999998,0.057131,-0.000090,-0.000201,9.999710,0.000003,0.003956,0.994238,-0.003132,-0.007029,0.000000,0.000000,0.000000,30.491864,-88.211945,9.999998,-0.000105,-0.000201,0.000000,0.000000,0.000000,0.000000,0.000000,0.000000,1012.049262,9.999998,25.500000,0.000000,992.000000,1480.000000,1504.000000,1497.000000
0.101001,21.018884,0.000522,-9.982707,4.336753,-0.765505,-1.564880,9.980968,0.301892,0.165465,0.512546,-0.264011,-0.425896,0.000000,0.000000,0.000000,30.491873,-88.211945,9.982707,0.090611,-1.564880,0.000000,0.000000,0.000000,0.000000,0.000000,0.000000,1012.051337,9.982707,25.500000,0.000000,992.000000,1480.000000,1504.000000,1497.000000
0.201001,22.016938,0.003685,-9.935710,6.383948,-2.366658,-4.202235,9.969064,0.797962,0.126800,0.202950,-0.356784,-0.375138,0.000000,0.000000,0.000000,30.491882,-88.211945,9.935710,0.272267,-4.202235,0.000000,0.000000,0.000000,0.000000,0.000000,0.000000,1012.056977,9.935710,25.500000,0.000000,992.000000,1481.000000,1503.000000,1502.000000
0.302001,23.025826,0.010010,-9.855140,7.074610,-4.297991,-5.798465,9.985052,1.106548,0.090464,0.025361,-0.364380,-0.069252,0.000000,0.000000,0.000000,30.491891,-88.211944,9.855140,0.441449,-5.798465,0.000000,0.000000,0.000000,0.000000,0.000000,0.000000,1012.066647,9.855140,25.500000,0.000000,992.000000,1481.000000,1503.000000,1503.000000
0.402001,24.027338,0.019139,-9.739431,6.919793,-6.176034,-5.420881,10.066467,1.077339,0.128575,-0.052381,-0.247722,0.270818,0.000000,0.000000,0.000000,30.491900,-88.211944,9.739431,0.606653,-5.420881,0.000000,0.000000,0.000000,0.000000,0.000000,0.000000,1012.080534,9.739431,25.500000,0.000000,992.000000,1481.000000,1450.000000,1503.000000
0.503001,25.044078,0.031941,-9.587545,6.272904,-7.353130,-3.222193,10.209513,0.752352,0.270400,-0.073391,-0.045239,0.498467,0.000000,0.000000,0.000000,30.491909,-88.211944,9.587545,0.851981,-3.222193,0.000000,0.000000,0.000000,0.000000,0.000000,0.000000,1012.098764,9.587545,25.500000,0.000000,1119.000000,1481.000000,1369.000000,1505.000000
0.604001,26.070033,0.050548,-9.410254,5.430643,-7.446101,-0.072611,10.368510,0.281232,0.467663,-0.075103,0.134598,0.549235,0.000000,0.000000,0.000000,30.491919,-88.211944,9.410254,1.246578,-0.072611,0.000000,0.000000,0.000000,0.000000,0.000000,0.000000,1012.120043,9.410254,25.500000,0.000000,1157.000000,1480.000000,1302.000000,1505.000000
0.705001,27.109235,0.078019,-9.224065,4.619530,-6.835256,2.955921,10.510887,-0.161917,0.599021,-0.074905,0.141681,0.446112,0.000000,0.000000,0.000000,30.491928,-88.211944,9.224065,1.794499,2.955921,0.000000,0.000000,0.000000,0.000000,0.000000,0.000000,1012.142390,9.224065,25.500000,0.000000,1157.000000,1480.000000,1308.000000,1506.000000
0.806001,28.163573,0.116673,-9.043066,3.936816,-6.237151,5.080890,10.638650,-0.449986,0.627098,-0.077821,0.127581,0.259002,0.000000,0.000000,0.000000,30.491937,-88.211943,9.043066,2.398100,5.080890,0.000000,0.000000,0.000000,0.000000,0.000000,0.000000,1012.164114,9.043066,25.500000,0.000000,1173.000000,1481.000000,1301.000000,1507.000000
0.907001,29.232573,0.166953,-8.871930,3.347517,-5.432008,6.072612,10.759212,-0.539484,0.655161,-0.093052,0.193332,0.069805,0.000000,0.000000,0.000000,30.491947,-88.211943,8.871930,2.970306,6.072612,0.000000,0.000000,0.000000,0.000000,0.000000,0.000000,1012.184656,8.871930,25.500000,0.000000,1181.000000,1480.000000,1271.000000,1506.000000
1.008000,30.315398,0.228079,-8.714321,2.740765,-4.156933,6.139360,10.875553,-0.469504,0.708842,-0.113654,0.246881,-0.056766,0.000000,0.000000,0.000000,30.491957,-88.211942,8.714321,3.470604,6.139360,0.000000,0.000000,0.000000,0.000000,0.000000,0.000000,1012.203573,8.714321,25.500000,0.000000,1242.000000,1481.000000,1259.000000,1508.000000
1.108001,31.400665,0.297829,-8.578165,2.058576,-2.706909,5.711675,10.978934,-0.327109,0.736574,-0.132890,0.241842,-0.100047,0.000000,0.000000,0.000000,30.491967,-88.211941,8.578165,3.858800,5.711675,0.000000,0.000000,0.000000,0.000000,0.000000,0.000000,1012.219917,8.578165,25.500000,0.000000,1254.000000,1481.000000,1266.000000,1506.000000
1.209001,32.508311,0.375330,-8.465754,1.261036,-1.339788,5.216592,11.062956,-0.194826,0.727980,-0.147687,0.224539,-0.076170,0.000000,0.000000,0.000000,30.491977,-88.211941,8.465754,4.122017,5.216592,0.000000,0.000000,0.000000,0.000000,0.000000,0.000000,1012.233409,8.465754,25.500000,0.000000,1273.000000,1481.000000,1271.000000,1510.000000
1.310000,33.625121,0.457398,-8.379797,0.381522,-0.055741,4.949789,11.125784,-0.128617,0.710349,-0.157406,0.217116,-0.020283,0.000000,0.000000,0.000000,30.491987,-88.211940,8.379797,4.262664,4.949789,0.000000,0.000000,0.000000,0.000000,0.000000,0.000000,1012.243727,8.379797,25.500000,0.000000,1297.000000,1480.000000,1275.000000,1508.000000
1.411001,34.748637,0.541646,-8.320113,-0.542921,1.182922,4.991691,11.166887,-0.142013,0.691158,-0.161247,0.205223,0.032181,0.000000,0.000000,0.000000,30.491997,-88.211939,8.320113,4.297511,4.991691,0.000000,0.000000,0.000000,0.000000,0.000000,0.000000,1012.250892,8.320113,25.500000,0.000000,1298.000000,1480.000000,1283.000000,1506.000000
1.511001,35.864965,0.625144,-8.286237,-1.453794,2.346084,5.240512,11.184817,-0.211862,0.671322,-0.157884,0.200477,0.055812,0.000000,0.000000,0.000000,30.492007,-88.211938,8.286237,4.245008,5.240512,0.000000,0.000000,0.000000,0.000000,0.000000,0.000000,1012.254958,8.286237,25.500000,0.000000,1298.000000,1481.000000,1285.000000,1507.000000
1.612001,36.993809,0.707745,-8.276093,-2.337077,3.522396,5.505399,11.180568,-0.299592,0.660855,-0.152395,0.202530,0.043590,0.000000,0.000000,0.000000,30.492017,-88.211937,8.276093,4.113136,5.505399,0.000000,0.000000,0.000000,0.000000,0.000000,0.000000,1012.256175,8.276093,25.500000,0.000000,1299.000000,1481.000000,1286.000000,1506.000000
1.713001,38.121563,0.786851,-8.289135,-3.152458,4.696405,5.606964,11.155844,-0.369809,0.654658,-0.110447,0.197123,0.008223,0.000000,0.000000,0.000000,30.492027,-88.211936,8.289135,3.899895,5.606964,0.000000,0.000000,0.000000,0.000000,0.000000,0.000000,1012.254610,8.289135,25.500000,0.000000,1300.000000,1502.000000,1290.000000,1506.000000
1.814001,39.245882,0.860778,-8.324468,-3.627103,5.809306,5.385539,11.113154,-0.385732,0.649675,-0.057329,0.193791,-0.065905,0.000000,0.000000,0.000000,30.492037,-88.211936,8.324468,3.616584,5.385539,0.000000,0.000000,0.000000,0.000000,0.000000,0.000000,1012.250369,8.324468,25.500000,0.000000,1299.000000,1498.000000,1289.000000,1505.000000
1.915001,40.364519,0.928184,-8.380825,-3.977340,6.864966,4.721685,11.054402,-0.325570,0.645299,-0.041009,0.175043,-0.132008,0.000000,0.000000,0.000000,30.492047,-88.211935,8.380825,3.272501,4.721685,0.000000,0.000000,0.000000,0.000000,0.000000,0.000000,1012.243604,8.380825,25.500000,0.000000,1299.000000,1498.000000,1299.000000,1505.000000
2.016000,41.475369,0.987835,-8.457109,-4.235217,7.662690,3.801595,10.981186,-0.224242,0.604790,0.032999,0.085091,-0.154638,0.000000,0.000000,0.000000,30.492057,-88.211934,8.457109,2.868680,3.801595,0.000000,0.000000,0.000000,0.000000,0.000000,0.000000,1012.234447,8.457109,25.500000,0.000000,1300.000000,1540.000000,1343.000000,1506.000000
2.116001,42.565953,1.038572,-8.548783,-3.721521,7.829301,2.790708,10.898984,-0.095062,0.515928,0.230277,0.005837,-0.192710,0.000000,0.000000,0.000000,30.492067,-88.211934,8.548783,2.469015,2.790708,0.000000,0.000000,0.000000,0.000000,0.000000,0.000000,1012.223443,8.548783,25.500000,0.000000,1319.000000,1591.000000,1358.000000,1503.000000
2.217001,43.657910,1.082430,-8.648965,-1.901618,7.733796,1.390675,10.808575,0.128349,0.459522,0.447105,-0.003348,-0.294619,0.000000,0.000000,0.000000,30.492077,-88.211933,8.648965,2.155290,1.390675,0.000000,0.000000,0.000000,0.000000,0.000000,0.000000,1012.211418,8.648965,25.500000,0.000000,1320.000000,1597.000000,1356.000000,1503.000000
2.317001,44.729826,1.120965,-8.749066,0.759986,7.753247,-0.593929,10.705625,0.487592,0.449264,0.546693,0.028154,-0.381818,0.000000,0.000000,0.000000,30.492086,-88.211933,8.749066,1.990952,-0.593929,0.000000,0.000000,0.000000,0.000000,0.000000,0.000000,1012.199403,8.749066,25.500000,0.000000,1319.000000,1581.000000,1342.000000,1503.000000
2.418000,45.803165,1.158080,-8.848288,3.661741,8.105012,-2.799299,10.581136,0.917869,0.466746,0.560082,0.060596,-0.354743,0.000000,0.000000,0.000000,30.492096,-88.211932,8.848288,2.001932,-2.799299,0.000000,0.000000,0.000000,0.000000,0.000000,0.000000,1012.187493,8.848288,25.500000,0.000000,1320.000000,1583.000000,1337.000000,1506.000000
2.518001,46.856386,1.196595,-8.944688,6.680474,8.615987,-4.458996,10.445848,1.284598,0.468839,0.596105,0.047446,-0.217538,0.000000,0.000000,0.000000,30.492106,-88.211932,8.944688,2.224385,-4.458996,0.000000,0.000000,0.000000,0.000000,0.000000,0.000000,1012.175923,8.944688,25.500000,0.000000,1320.000000,1607.000000,1356.000000,1506.000000
2.618001,47.899860,1.241041,-9.038580,10.223011,8.889158,-5.222177,10.316190,1.532141,0.426153,0.674209,0.021763,-0.060482,0.000000,0.000000,0.000000,30.492115,-88.211932,9.038580,2.691567,-5.222177,0.000000,0.000000,0.000000,0.000000,0.000000,0.000000,1012.164653,9.038580,25.500000,0.000000,1320.000000,1606.000000,1355.000000,1507.000000
2.719000,48.944223,1.296568,-9.125911,14.288262,9.027495,-5.136226,10.199114,1.688203,0.395445,0.722771,0.036078,0.074943,0.000000,0.000000,0.000000,30.492124,-88.211931,9.125911,3.437590,-5.136226,0.000000,0.000000,0.000000,0.000000,0.000000,0.000000,1012.154171,9.125911,25.500000,0.000000,1326.000000,1606.000000,1353.000000,1505.000000
2.819000,49.969504,1.367140,-9.200275,18.655486,9.065921,-4.325555,10.101525,1.785087,0.381787,0.754497,0.061303,0.184988,0.000000,0.000000,0.000000,30.492134,-88.211930,9.200275,4.480371,-4.325555,0.000000,0.000000,0.000000,0.000000,0.000000,0.000000,1012.145245,9.200275,25.500000,0.000000,1334.000000,1605.000000,1345.000000,1505.000000
2.919001,50.986801,1.458717,-9.259009,23.257305,9.007021,-2.911967,10.022726,1.854988,0.382366,0.768240,0.099772,0.273749,0.000000,0.000000,0.000000,30.492143,-88.211929,9.259009,5.850040,-2.911967,0.000000,0.000000,0.000000,0.000000,0.000000,0.000000,1012.138196,9.259009,25.500000,0.000000,1334.000000,1596.000000,1329.000000,1503.000000
3.020001,52.006549,1.578442,-9.299506,27.961919,8.872131,-0.930006,9.961232,1.915879,0.399181,0.735163,0.148322,0.354481,0.000000,0.000000,0.000000,30.492152,-88.211928,9.299506,7.590138,-0.930006,0.000000,0.000000,0.000000,0.000000,0.000000,0.000000,1012.133335,9.299506,25.500000,0.000000,1336.000000,1562.000000,1318.000000,1505.000000
3.121001,53.018403,1.731986,-9.319128,32.273230,8.528665,1.602330,9.923565,1.956854,0.420750,0.631206,0.176656,0.461806,0.000000,0.000000,0.000000,30.492161,-88.211926,9.319128,9.711096,1.602330,0.000000,0.000000,0.000000,0.000000,0.000000,0.000000,1012.130980,9.319128,25.500000,0.000000,1348.000000,1560.000000,1318.000000,1506.000000
3.222000,54.021819,1.925764,-9.316340,36.177309,7.665665,4.735479,9.923572,1.935205,0.423313,0.573385,0.183976,0.591654,0.000000,0.000000,0.000000,30.492170,-88.211924,9.316340,12.174132,4.735479,0.000000,0.000000,0.000000,0.000000,0.000000,0.000000,1012.131315,9.316340,25.500000,0.000000,1347.000000,1564.000000,1311.000000,1506.000000
3.322001,55.006040,2.162410,-9.288643,39.851141,6.268428,8.369239,9.961428,1.851179,0.420688,0.547280,0.208590,0.690828,0.000000,0.000000,0.000000,30.492179,-88.211922,9.288643,14.881228,8.369239,0.000000,0.000000,0.000000,0.000000,0.000000,0.000000,1012.134639,9.288643,25.500000,0.000000,1350.000000,1532.000000,1303.000000,1508.000000
3.423001,55.989325,2.451274,-9.232043,43.078826,4.464807,12.392711,10.034685,1.734672,0.428538,0.442528,0.240023,0.759497,0.000000,0.000000,0.000000,30.492188,-88.211919,9.232043,17.876257,12.392711,0.000000,0.000000,0.000000,0.000000,0.000000,0.000000,1012.141432,9.232043,25.500000,0.000000,1374.000000,1513.000000,1294.000000,1509.000000
3.524000,56.959986,2.794982,-9.144120,45.539552,2.322274,16.723230,10.148486,1.582852,0.447716,0.324735,0.274061,0.826405,0.000000,0.000000,0.000000,30.492197,-88.211915,9.144120,21.131058,16.723230,0.000000,0.000000,0.000000,0.000000,0.000000,0.000000,1012.151985,9.144120,25.500000,0.000000,1373.000000,1491.000000,1275.000000,1505.000000
3.624000,57.905989,3.193884,-9.024837,47.083474,-0.027138,21.377468,10.295254,1.385370,0.489021,0.191582,0.324676,0.888067,0.000000,0.000000,0.000000,30.492205,-88.211911,9.024837,24.612967,21.377468,0.000000,0.000000,0.000000,0.000000,0.000000,0.000000,1012.166302,9.024837,25.500000,0.000000,1374.000000,1473.000000,1263.000000,1505.000000
3.724001,58.833170,3.656081,-8.874000,47.654979,-2.537959,26.378779,10.473231,1.133382,0.534281,0.059310,0.357580,0.936276,0.000000,0.000000,0.000000,30.492213,-88.211906,8.874000,28.386831,26.378779,0.000000,0.000000,0.000000,0.000000,0.000000,0.000000,1012.184407,8.874000,25.500000,0.000000,1374.000000,1473.000000,1263.000000,1505.000000
3.825001,59.745713,4.191821,-8.691529,46.945551,-5.078499,31.748157,10.676464,0.823969,0.588831,-0.161089,0.398039,0.969360,0.000000,0.000000,0.000000,30.492222,-88.211901,8.691529,32.445933,31.748157,0.000000,0.000000,0.000000,0.000000,0.000000,0.000000,1012.206309,8.691529,25.500000,0.000000,1374.000000,1431.000000,1247.000000,1505.000000
3.926000,60.628732,4.800684,-8.482546,44.976402,-7.463543,37.516190,10.894048,0.443339,0.649630,-0.288804,0.442167,0.990921,0.000000,0.000000,0.000000,30.492230,-88.211894,8.482546,36.715296,37.516190,0.000000,0.000000,0.000000,0.000000,0.000000,0.000000,1012.231394,8.482546,25.500000,0.000000,1375.000000,1431.000000,1230.000000,1509.000000
4.026001,61.468086,5.478586,-8.255542,42.236839,-9.537755,43.310248,11.115571,0.035520,0.664357,-0.361047,0.419729,0.942410,0.000000,0.000000,0.000000,30.492237,-88.211887,8.255542,41.075722,43.310248,0.000000,0.000000,0.000000,0.000000,0.000000,0.000000,1012.258642,8.255542,25.500000,0.000000,1388.000000,1431.000000,1239.000000,1509.000000
4.127000,62.275670,6.238837,-8.011642,39.070234,-11.084313,48.826624,11.334983,-0.326359,0.649444,-0.388047,0.405534,0.815874,0.000000,0.000000,0.000000,30.492244,-88.211879,8.011642,45.378716,48.826624,0.000000,0.000000,0.000000,0.000000,0.000000,0.000000,1012.287919,8.011642,25.500000,0.000000,1387.000000,1436.000000,1246.000000,1507.000000
4.228001,63.039620,7.071763,-7.757860,35.792175,-11.778103,53.714877,11.552859,-0.563388,0.639780,-0.408515,0.415010,0.641498,0.000000,0.000000,0.000000,30.492251,-88.211871,7.757860,49.477567,53.714877,0.000000,0.000000,0.000000,0.000000,0.000000,0.000000,1012.318384,7.757860,25.500000,0.000000,1388.000000,1437.000000,1248.000000,1506.000000
4.329000,63.757959,7.973554,-7.500056,32.507284,-11.560430,57.837758,11.777933,-0.654455,0.644810,-0.437631,0.431813,0.477810,0.000000,0.000000,0.000000,30.492258,-88.211861,7.500056,53.352189,57.837758,0.000000,0.000000,0.000000,0.000000,0.000000,0.000000,1012.349331,7.500056,25.500000,0.000000,1408.000000,1436.000000,1248.000000,1507.000000
4.429001,64.423333,8.930294,-7.248131,29.173585,-10.393228,61.392555,11.995412,-0.644178,0.712451,-0.488328,0.529719,0.372483,0.000000,0.000000,0.000000,30.492264,-88.211851,7.248131,56.944912,61.392555,0.000000,0.000000,0.000000,0.000000,0.000000,0.000000,1012.379574,7.248131,25.500000,0.000000,1409.000000,1431.000000,1219.000000,1506.000000
4.530000,65.047551,9.957728,-7.009173,25.670964,-8.396156,64.747335,12.195553,-0.615186,0.807077,-0.529562,0.597385,0.334720,0.000000,0.000000,0.000000,30.492269,-88.211841,7.009173,60.421068,64.747335,0.000000,0.000000,0.000000,0.000000,0.000000,0.000000,1012.408261,7.009173,25.500000,0.000000,1409.000000,1431.000000,1199.000000,1510.000000
4.630001,65.616591,11.031639,-6.803635,22.176705,-6.161189,67.852544,12.369963,-0.630896,0.832158,-0.549884,0.551042,0.333296,0.000000,0.000000,0.000000,30.492274,-88.211829,6.803635,63.640303,67.852544,0.000000,0.000000,0.000000,0.000000,0.000000,0.000000,1012.432936,6.803635,25.500000,0.000000,1424.000000,1433.000000,1213.000000,1508.000000
4.731001,66.142765,12.165850,-6.638716,18.731333,-3.942006,70.741228,12.511144,-0.702472,0.810704,-0.550541,0.521507,0.326176,0.000000,0.000000,0.000000,30.492279,-88.211818,6.638716,66.474480,70.741228,0.000000,0.000000,0.000000,0.000000,0.000000,0.000000,1012.452735,6.638716,25.500000,0.000000,1425.000000,1436.000000,1221.000000,1506.000000
4.832001,66.623469,13.339560,-6.522190,15.705092,-1.770946,73.292119,12.613557,-0.793104,0.759071,-0.436599,0.458697,0.276464,0.000000,0.000000,0.000000,30.492284,-88.211805,6.522190,68.880857,73.292119,0.000000,0.000000,0.000000,0.000000,0.000000,0.000000,1012.466725,6.522190,25.500000,0.000000,1424.000000,1465.000000,1244.000000,1506.000000
4.932001,67.058792,14.530321,-6.455936,13.619328,0.307790,75.115973,12.682827,-0.796348,0.698825,-0.280409,0.409150,0.144486,0.000000,0.000000,0.000000,30.492287,-88.211793,6.455936,70.875589,75.115973,0.000000,0.000000,0.000000,0.000000,0.000000,0.000000,1012.474679,6.455936,25.500000,0.000000,1424.000000,1486.000000,1262.000000,1505.000000
5.032001,67.457819,15.740530,-6.436615,12.294271,2.476918,76.001273,12.725408,-0.635243,0.666031,-0.202210,0.400892,-0.003451,0.000000,0.000000,0.000000,30.492291,-88.211780,6.436615,72.567220,76.001273,0.000000,0.000000,0.000000,0.000000,0.000000,0.000000,1012.476999,6.436615,25.500000,0.000000,1425.000000,1484.000000,1267.000000,1505.000000
5.132001,67.823879,16.962566,-6.462955,11.248934,4.640302,76.211822,12.736200,-0.368362,0.627718,-0.171097,0.348786,-0.060710,0.000000,0.000000,0.000000,30.492294,-88.211767,6.462955,74.030359,76.211822,0.000000,0.000000,0.000000,0.000000,0.000000,0.000000,1012.473836,6.462955,25.500000,0.000000,1424.000000,1485.000000,1286.000000,1507.000000
5.233001,68.163271,18.201897,-6.533853,10.608136,6.531912,76.297738,12.709569,-0.116226,0.573389,-0.023742,0.297995,-0.033355,0.000000,0.000000,0.000000,30.492297,-88.211754,6.533853,75.299466,76.297738,0.000000,0.000000,0.000000,0.000000,0.000000,0.000000,1012.465325,6.533853,25.500000,0.000000,1424.000000,1522.000000,1302.000000,1508.000000
5.333001,68.471802,19.428338,-6.642758,10.823535,8.247181,76.433521,12.648093,0.107141,0.545773,0.077152,0.304214,-0.030694,0.000000,0.000000,0.000000,30.492300,-88.211742,6.642758,76.440394,76.433521,0.000000,0.000000,0.000000,0.000000,0.000000,0.000000,1012.452250,6.642758,25.500000,0.000000,1423.000000,1519.000000,1300.000000,1506.000000
5.433001,68.753596,20.649850,-6.785710,11.465933,10.043481,76.675302,12.554691,0.313670,0.554653,0.129980,0.328841,-0.003146,0.000000,0.000000,0.000000,30.492303,-88.211729,6.785710,77.575422,76.675302,0.000000,0.000000,0.000000,0.000000,0.000000,0.000000,1012.435088,6.785710,25.500000,0.000000,1424.000000,1521.000000,1293.000000,1507.000000
5.534001,69.009819,21.874687,-6.963258,12.755736,11.783476,77.194129,12.432287,0.478275,0.541395,0.332120,0.283303,0.039969,0.000000,0.000000,0.000000,30.492305,-88.211716,6.963258,78.803467,77.194129,0.000000,0.000000,0.000000,0.000000,0.000000,0.000000,1012.413773,6.963258,25.500000,0.000000,1424.000000,1574.000000,1309.000000,1509.000000
5.634001,69.232954,23.075354,-7.168763,15.540725,13.176712,77.663444,12.284000,0.681541,0.474802,0.628328,0.220093,-0.017895,0.000000,0.000000,0.000000,30.492307,-88.211704,7.168763,80.160176,77.663444,0.000000,0.000000,0.000000,0.000000,0.000000,0.000000,1012.389102,7.168763,25.500000,0.000000,1424.000000,1616.000000,1329.000000,1508.000000
5.735000,69.424395,24.274340,-7.396993,19.792282,14.429286,77.564850,12.098391,1.056725,0.379734,0.822520,0.176720,-0.138408,0.000000,0.000000,0.000000,30.492309,-88.211691,7.396993,81.719355,77.564850,0.000000,0.000000,0.000000,0.000000,0.000000,0.000000,1012.361704,7.396993,25.500000,0.000000,1424.000000,1615.000000,1347.000000,1508.000000
5.835001,69.577574,25.448012,-7.630669,24.518632,15.793238,77.111416,11.871826,1.564812,0.313625,0.827463,0.223660,-0.154718,0.000000,0.000000,0.000000,30.492310,-88.211679,7.630669,83.423164,77.111416,0.000000,0.000000,0.000000,0.000000,0.000000,0.000000,1012.333652,7.630669,25.500000,0.000000,1425.000000,1588.000000,1335.000000,1507.000000
5.935001,69.691838,26.608854,-7.860939,29.111618,17.242001,77.339320,11.624003,2.016556,0.293168,0.738471,0.256429,0.021057,0.000000,0.000000,0.000000,30.492311,-88.211667,7.860939,85.365223,77.339320,0.000000,0.000000,0.000000,0.000000,0.000000,0.000000,1012.306010,7.860939,25.500000,0.000000,1425.000000,1571.000000,1337.000000,1510.000000
6.036000,69.763395,27.768388,-8.083495,33.680922,18.043246,79.018990,11.404466,2.237326,0.278206,0.675269,0.271715,0.312276,0.000000,0.000000,0.000000,30.492312,-88.211655,8.083495,87.600158,79.018990,0.000000,0.000000,0.000000,0.000000,0.000000,0.000000,1012.279294,8.083495,25.500000,0.000000,1436.000000,1573.000000,1336.000000,1509.000000
6.136000,69.786533,28.904181,-8.287558,38.449366,17.809695,82.161490,11.246773,2.204063,0.264649,0.651739,0.277252,0.564640,0.000000,0.000000,0.000000,30.492312,-88.211643,8.287558,90.092399,82.161490,0.000000,0.000000,0.000000,0.000000,0.000000,0.000000,1012.254799,8.287558,25.500000,0.000000,1437.000000,1570.000000,1338.000000,1506.000000
6.237001,69.757323,30.039515,-8.470320,43.308570,16.586377,86.240581,11.136355,2.023725,0.257158,0.579469,0.291788,0.711802,0.000000,0.000000,0.000000,30.492312,-88.211631,8.470320,92.873306,86.240581,0.000000,0.000000,0.000000,0.000000,0.000000,0.000000,1012.232861,8.470320,25.500000,0.000000,1436.000000,1539.000000,1333.000000,1505.000000
6.337001,69.672238,31.152190,-8.621411,47.498747,14.701982,90.695396,11.060248,1.797692,0.277880,0.447706,0.327029,0.798951,0.000000,0.000000,0.000000,30.492311,-88.211619,8.621411,95.885290,90.695396,0.000000,0.000000,0.000000,0.000000,0.000000,0.000000,1012.214726,8.621411,25.500000,0.000000,1436.000000,1515.000000,1317.000000,1505.000000
6.437001,69.526601,32.252871,-8.737998,50.725593,12.353701,95.405057,11.014598,1.555539,0.317489,0.266200,0.344420,0.861084,0.000000,0.000000,0.000000,30.492310,-88.211608,8.737998,99.209939,95.405057,0.000000,0.000000,0.000000,0.000000,0.000000,0.000000,1012.200731,8.737998,25.500000,0.000000,1436.000000,1477.000000,1312.000000,1506.000000
6.538000,69.312699,33.350467,-8.818121,52.618187,9.490312,100.257171,11.002648,1.284426,0.347335,0.067379,0.334957,0.934545,0.000000,0.000000,0.000000,30.492308,-88.211596,8.818121,102.847965,100.257171,0.000000,0.000000,0.000000,0.000000,0.000000,0.000000,1012.191114,8.818121,25.500000,0.000000,1437.000000,1458.000000,1311.000000,1506.000000
6.638001,69.031125,34.420625,-8.858330,53.148314,6.194082,105.145343,11.026467,0.967161,0.365517,-0.144156,0.326294,0.994873,0.000000,0.000000,0.000000,30.492305,-88.211585,8.858330,106.614389,105.145343,0.000000,0.000000,0.000000,0.000000,0.000000,0.000000,1012.186288,8.858330,25.500000,0.000000,1437.000000,1415.000000,1307.000000,1506.000000
6.738001,68.678308,35.471376,-8.858592,52.047855,2.637759,110.199964,11.083165,0.592494,0.389046,-0.382313,0.325692,1.055110,0.000000,0.000000,0.000000,30.492302,-88.211574,8.858592,110.477750,110.199964,0.000000,0.000000,0.000000,0.000000,0.000000,0.000000,1012.186257,8.858592,25.500000,0.000000,1452.000000,1388.000000,1301.000000,1507.000000
6.839001,68.248651,36.509993,-8.819364,49.288354,-0.985396,115.650970,11.167185,0.138297,0.430538,-0.595078,0.372568,1.098280,0.000000,0.000000,0.000000,30.492298,-88.211563,8.819364,114.419115,115.650970,0.000000,0.000000,0.000000,0.000000,0.000000,0.000000,1012.190965,8.819364,25.500000,0.000000,1459.000000,1371.000000,1267.000000,1506.000000
6.940001,67.744743,37.522494,-8.744370,45.073133,-4.109405,121.648089,11.260510,-0.375715,0.493902,-0.753246,0.377484,1.088151,0.000000,0.000000,0.000000,30.492294,-88.211553,8.744370,118.491683,121.648089,0.000000,0.000000,0.000000,0.000000,0.000000,0.000000,1012.199967,8.744370,25.500000,0.000000,1459.000000,1370.000000,1288.000000,1506.000000
7.041001,67.165316,38.504460,-8.642035,39.876209,-6.713284,127.517164,11.353897,-0.885865,0.479937,-0.839609,0.337843,0.992776,0.000000,0.000000,0.000000,30.492288,-88.211542,8.642035,122.503200,127.517164,0.000000,0.000000,0.000000,0.000000,0.000000,0.000000,1012.212250,8.642035,25.500000,0.000000,1459.000000,1372.000000,1288.000000,1505.000000
7.142001,66.514982,39.454218,-8.518033,34.149009,-8.310378,132.948004,11.449263,-1.303316,0.472173,-0.887155,0.362983,0.815172,0.000000,0.000000,0.000000,30.492283,-88.211533,8.518033,126.195766,132.948004,0.000000,0.000000,0.000000,0.000000,0.000000,0.000000,1012.227134,8.518033,25.500000,0.000000,1459.000000,1374.000000,1274.000000,1506.000000
7.242001,65.807117,40.362977,-8.380238,28.270627,-8.526259,137.617471,11.557630,-1.569745,0.509807,-0.922408,0.420781,0.602816,0.000000,0.000000,0.000000,30.492276,-88.211523,8.380238,129.545366,137.617471,0.000000,0.000000,0.000000,0.000000,0.000000,0.000000,1012.243674,8.380238,25.500000,0.000000,1477.000000,1375.000000,1256.000000,1506.000000
7.343001,65.032457,41.250124,-8.236375,22.324678,-7.444500,141.375144,11.686832,-1.693939,0.574371,-0.927833,0.463320,0.410037,0.000000,0.000000,0.000000,30.492269,-88.211514,8.236375,132.614269,141.375144,0.000000,0.000000,0.000000,0.000000,0.000000,0.000000,1012.260943,8.236375,25.500000,0.000000,1485.000000,1398.000000,1249.000000,1508.000000
7.444001,64.203344,42.108746,-8.101555,16.815325,-5.538003,144.053528,11.823991,-1.706421,0.622173,-0.864632,0.444627,0.240552,0.000000,0.000000,0.000000,30.492262,-88.211505,8.101555,135.274575,144.053528,0.000000,0.000000,0.000000,0.000000,0.000000,0.000000,1012.277127,8.101555,25.500000,0.000000,1485.000000,1412.000000,1266.000000,1505.000000
7.545001,63.327740,42.942679,-7.988518,11.893545,-3.444577,145.582814,11.959374,-1.621606,0.616405,-0.803232,0.399645,0.096359,0.000000,0.000000,0.000000,30.492254,-88.211496,7.988518,137.393099,145.582814,0.000000,0.000000,0.000000,0.000000,0.000000,0.000000,1012.290695,7.988518,25.500000,0.000000,1486.000000,1412.000000,1268.000000,1506.000000
7.646000,62.415934,43.757478,-7.903793,7.290772,-1.257637,146.230084,12.079717,-1.480158,0.608357,-0.777759,0.368589,0.010530,0.000000,0.000000,0.000000,30.492246,-88.211488,7.903793,138.926278,146.230084,0.000000,0.000000,0.000000,0.000000,0.000000,0.000000,1012.300866,7.903793,25.500000,0.000000,1485.000000,1417.000000,1288.000000,1506.000000
7.746000,61.487806,44.551397,-7.852122,2.908645,0.693445,146.371450,12.172173,-1.356771,0.572021,-0.745924,0.329325,-0.014003,0.000000,0.000000,0.000000,30.492237,-88.211479,7.852122,139.883742,146.371450,0.000000,0.000000,0.000000,0.000000,0.000000,0.000000,1012.307068,7.852122,25.500000,0.000000,1485.000000,1428.000000,1289.000000,1505.000000
7.846001,60.544544,45.338739,-7.832607,-1.190407,2.587938,146.297431,12.231497,-1.292035,0.561923,-0.656731,0.341769,-0.019035,0.000000,0.000000,0.000000,30.492229,-88.211471,7.832607,140.328682,146.297431,0.000000,0.000000,0.000000,0.000000,0.000000,0.000000,1012.309411,7.832607,25.500000,0.000000,1484.000000,1474.000000,1279.000000,1505.000000
7.947001,59.585734,46.132862,-7.845948,-4.318674,4.639759,145.919503,12.260637,-1.247653,0.591883,-0.387751,0.348058,-0.090230,0.000000,0.000000,0.000000,30.492220,-88.211463,7.845948,140.339424,145.919503,0.000000,0.000000,0.000000,0.000000,0.000000,0.000000,1012.307810,7.845948,25.500000,0.000000,1485.000000,1553.000000,1300.000000,1506.000000
8.047001,58.638402,46.921941,-7.895403,-5.310720,6.302149,144.700280,12.277335,-1.058238,0.581095,0.043232,0.281621,-0.312295,0.000000,0.000000,0.000000,30.492212,-88.211455,7.895403,140.046099,144.700280,0.000000,0.000000,0.000000,0.000000,0.000000,0.000000,1012.301873,7.895403,25.500000,0.000000,1485.000000,1568.000000,1303.000000,1505.000000
8.148001,57.689362,47.722866,-7.981301,-4.540153,7.617836,141.947011,12.284561,-0.544930,0.570987,0.290182,0.260985,-0.576459,0.000000,0.000000,0.000000,30.492203,-88.211446,7.981301,139.622556,141.947011,0.000000,0.000000,0.000000,0.000000,0.000000,0.000000,1012.291562,7.981301,25.500000,0.000000,1485.000000,1536.000000,1300.000000,1505.000000
8.248001,56.760969,48.518841,-8.099667,-3.466286,8.881502,138.215510,12.244781,0.166031,0.565502,0.258175,0.269364,-0.626747,0.000000,0.000000,0.000000,30.492195,-88.211438,8.099667,139.157984,138.215510,0.000000,0.000000,0.000000,0.000000,0.000000,0.000000,1012.277353,8.099667,25.500000,0.000000,1485.000000,1501.000000,1295.000000,1504.000000
8.349001,55.837685,49.324030,-8.250933,-3.027617,10.331051,135.032321,12.144313,0.733500,0.573563,0.099589,0.283376,-0.381431,0.000000,0.000000,0.000000,30.492186,-88.211429,8.250933,138.658897,135.032321,0.000000,0.000000,0.000000,0.000000,0.000000,0.000000,1012.259196,8.250933,25.500000,0.000000,1485.000000,1520.000000,1302.000000,1505.000000
8.450000,54.931741,50.128114,-8.433247,-2.671300,11.823672,133.770619,12.026996,0.888947,0.565435,0.110539,0.260411,-0.032848,0.000000,0.000000,0.000000,30.492178,-88.211421,8.433247,138.174183,133.770619,0.000000,0.000000,0.000000,0.000000,0.000000,0.000000,1012.237311,8.433247,25.500000,0.000000,1485.000000,1524.000000,1296.000000,1506.000000
8.551001,54.044424,50.927715,-8.644150,-1.800354,13.393644,134.230272,11.906821,0.714248,0.573630,0.154264,0.270321,0.178154,0.000000,0.000000,0.000000,30.492170,-88.211413,8.644150,137.808029,134.230272,0.000000,0.000000,0.000000,0.000000,0.000000,0.000000,1012.211996,8.644150,25.500000,0.000000,1485.000000,1521.000000,1305.000000,1506.000000
8.652001,53.175561,51.718376,-8.881691,-0.538993,14.858357,135.446294,11.766796,0.431990,0.565690,0.178025,0.234814,0.215549,0.000000,0.000000,0.000000,30.492163,-88.211404,8.881691,137.621114,135.446294,0.000000,0.000000,0.000000,0.000000,0.000000,0.000000,1012.183484,8.881691,25.500000,0.000000,1485.000000,1521.000000,1305.000000,1506.000000
8.753003,52.324233,52.495623,-9.142672,0.798772,16.152763,136.563580,11.597997,0.215366,0.559224,0.180518,0.216094,0.145381,0.000000,0.000000,0.000000,30.492155,-88.211396,9.142672,137.615774,136.563580,0.000000,0.000000,0.000000,0.000000,0.000000,0.000000,1012.152159,9.142672,25.500000,0.000000,1486.000000,1518.000000,1307.000000,1506.000000
8.854001,51.489558,53.255749,-9.423146,2.011830,17.344260,137.177381,11.403801,0.131761,0.559623,0.176728,0.200961,0.048591,0.000000,0.000000,0.000000,30.492147,-88.211388,9.423146,137.757096,137.177381,0.000000,0.000000,0.000000,0.000000,0.000000,0.000000,1012.118495,9.423146,25.500000,0.000000,1485.000000,1518.000000,1308.000000,1506.000000
8.954001,50.679126,53.988699,-9.716514,3.000085,18.432457,137.292297,11.192097,0.164017,0.560378,0.156227,0.181291,-0.018514,0.000000,0.000000,0.000000,30.492140,-88.211381,9.716514,138.004322,137.292297,0.000000,0.000000,0.000000,0.000000,0.000000,0.000000,1012.083285,9.716514,25.500000,0.000000,1486.000000,1515.000000,1310.000000,1506.000000
9.055000,49.876567,54.707160,-10.024969,3.833792,19.435210,137.170170,10.960373,0.252668,0.562390,0.146221,0.162895,-0.034318,0.000000,0.000000,0.000000,30.492133,-88.211373,10.024969,138.335522,137.170170,0.000000,0.000000,0.000000,0.000000,0.000000,0.000000,1012.046265,10.024969,25.500000,0.000000,1485.000000,1517.000000,1311.000000,1507.000000
9.155001,49.097642,55.395569,-10.338556,4.631354,20.425816,137.093595,10.714930,0.342797,0.585262,0.141657,0.175104,-0.011632,0.000000,0.000000,0.000000,30.492126,-88.211366,10.338556,138.735971,137.093595,0.000000,0.000000,0.000000,0.000000,0.000000,0.000000,1012.008630,10.338556,25.500000,0.000000,1485.000000,1518.000000,1300.000000,1505.000000
9.256001,48.326743,56.066199,-10.661179,5.540907,21.232970,137.221984,10.455721,0.408418,0.578195,0.157718,0.109894,0.028153,0.000000,0.000000,0.000000,30.492119,-88.211359,10.661179,139.234050,137.221984,0.000000,0.000000,0.000000,0.000000,0.000000,0.000000,1011.969912,10.661179,25.500000,0.000000,1485.000000,1524.000000,1319.000000,1505.000000
9.356001,47.578528,56.704799,-10.982506,6.650497,21.725734,137.561978,10.190524,0.450623,0.563350,0.186066,0.077367,0.060891,0.000000,0.000000,0.000000,30.492112,-88.211352,10.982506,139.817685,137.561978,0.000000,0.000000,0.000000,0.000000,0.000000,0.000000,1011.931350,10.982506,25.500000,0.000000,1485.000000,1530.000000,1322.000000,1506.000000
9.457001,46.836638,57.323820,-11.303463,7.977700,22.087789,138.062966,9.916425,0.488092,0.567481,0.206302,0.067487,0.081151,0.000000,0.000000,0.000000,30.492105,-88.211346,11.303463,140.517224,138.062966,0.000000,0.000000,0.000000,0.000000,0.000000,0.000000,1011.892835,11.303463,25.500000,0.000000,1485.000000,1531.000000,1319.000000,1506.000000
9.558001,46.107113,57.916152,-11.616873,9.459136,22.299076,138.663702,9.639713,0.532311,0.571902,0.226945,0.032887,0.097256,0.000000,0.000000,0.000000,30.492099,-88.211340,11.616873,141.351900,138.663702,0.000000,0.000000,0.000000,0.000000,0.000000,0.000000,1011.855226,11.616873,25.500000,0.000000,1485.000000,1535.000000,1327.000000,1505.000000
9.658001,45.395332,58.475820,-11.916223,11.031774,22.347563,139.331386,9.366197,0.587863,0.584088,0.231115,0.023652,0.113284,0.000000,0.000000,0.000000,30.492092,-88.211334,11.916223,142.310680,139.331386,0.000000,0.000000,0.000000,0.000000,0.000000,0.000000,1011.819305,11.916223,25.500000,0.000000,1487.000000,1532.000000,1320.000000,1505.000000
9.759001,44.685255,59.013597,-12.204263,12.732428,22.257406,140.117116,9.093322,0.651945,0.597143,0.257342,-0.004332,0.138932,0.000000,0.000000,0.000000,30.492086,-88.211328,12.204263,143.432169,140.117116,0.000000,0.000000,0.000000,0.000000,0.000000,0.000000,1011.784742,12.204263,25.500000,0.000000,1485.000000,1544.000000,1325.000000,1505.000000
9.859001,43.989128,59.518416,-12.472377,14.588882,22.064356,141.023672,8.828885,0.725205,0.625393,0.267874,0.012194,0.162736,0.000000,0.000000,0.000000,30.492080,-88.211323,12.472377,144.690220,141.023672,0.000000,0.000000,0.000000,0.000000,0.000000,0.000000,1011.752572,12.472377,25.500000,0.000000,1485.000000,1540.000000,1303.000000,1504.000000
9.960001,43.291091,59.999706,-12.723762,16.635430,21.776251,142.100180,8.571794,0.808168,0.647500,0.307241,-0.022191,0.196274,0.000000,0.000000,0.000000,30.492074,-88.211318,12.723762,146.163059,142.100180,0.000000,0.000000,0.000000,0.000000,0.000000,0.000000,1011.722409,12.723762,25.500000,0.000000,1485.000000,1559.000000,1316.000000,1505.000000
10.061000,42.596148,60.451321,-12.953947,19.009579,21.185050,143.271852,8.328538,0.905543,0.648203,0.368919,-0.055009,0.223500,0.000000,0.000000,0.000000,30.492067,-88.211313,12.953947,147.819705,143.271852,0.000000,0.000000,0.000000,0.000000,0.000000,0.000000,1011.694790,12.953947,25.500000,0.000000,1485.000000,1576.000000,1318.000000,1505.000000
10.161001,41.908860,60.868903,-13.157584,21.677883,20.384455,144.475941,8.103439,1.029078,0.645920,0.407899,-0.067531,0.242811,0.000000,0.000000,0.000000,30.492061,-88.211309,13.157584,149.633032,144.475941,0.000000,0.000000,0.000000,0.000000,0.000000,0.000000,1011.670358,13.157584,25.500000,0.000000,1486.000000,1573.000000,1314.000000,1505.000000
10.262001,41.213021,61.260460,-13.335249,24.510463,19.418641,145.759902,7.896001,1.180574,0.645233,0.413968,-0.075346,0.275972,0.000000,0.000000,0.000000,30.492055,-88.211305,13.335249,151.649120,145.759902,0.000000,0.000000,0.000000,0.000000,0.000000,0.000000,1011.649042,13.335249,25.500000,0.000000,1487.000000,1564.000000,1313.000000,1505.000000
10.363001,40.513072,61.621129,-13.481706,27.283038,18.269138,147.232994,7.714930,1.340569,0.650304,0.366344,-0.066807,0.337289,0.000000,0.000000,0.000000,30.492049,-88.211301,13.481706,153.839600,147.232994,0.000000,0.000000,0.000000,0.000000,0.000000,0.000000,1011.631470,13.481706,25.500000,0.000000,1486.000000,1533.000000,1301.000000,1505.000000
10.463001,39.813762,61.947063,-13.593556,29.805050,16.875682,149.086305,7.572585,1.475446,0.659957,0.324448,-0.067016,0.442633,0.000000,0.000000,0.000000,30.492042,-88.211298,13.593556,156.192029,149.086305,0.000000,0.000000,0.000000,0.000000,0.000000,0.000000,1011.618051,13.593556,25.500000,0.000000,1486.000000,1537.000000,1301.000000,1506.000000
10.564000,39.098954,62.243676,-13.671477,32.270959,15.023587,151.469591,7.478663,1.564196,0.661771,0.304012,-0.071746,0.566774,0.000000,0.000000,0.000000,30.492036,-88.211295,13.671477,158.739034,151.469591,0.000000,0.000000,0.000000,0.000000,0.000000,0.000000,1011.608702,13.671477,25.500000,0.000000,1486.000000,1537.000000,1300.000000,1507.000000
10.664001,38.380791,62.504031,-13.712171,34.593699,12.719276,154.326261,7.442101,1.602206,0.662659,0.252810,-0.059464,0.682773,0.000000,0.000000,0.000000,30.492029,-88.211292,13.712171,161.402038,154.326261,0.000000,0.000000,0.000000,0.000000,0.000000,0.000000,1011.603820,13.712171,25.500000,0.000000,1487.000000,1501.000000,1288.000000,1506.000000
10.765001,37.642958,62.732098,-13.714752,36.503970,9.996098,157.727636,7.466477,1.585225,0.678105,0.168392,-0.028753,0.801956,0.000000,0.000000,0.000000,30.492023,-88.211289,13.714752,164.240078,157.727636,0.000000,0.000000,0.000000,0.000000,0.000000,0.000000,1011.603511,13.714752,25.500000,0.000000,1487.000000,1475.000000,1270.000000,1505.000000
10.866000,36.890685,62.923127,-13.678026,37.816738,6.920579,161.701542,7.555668,1.498389,0.708340,0.082361,0.008316,0.920709,0.000000,0.000000,0.000000,30.492016,-88.211287,13.678026,167.260015,161.701542,0.000000,0.000000,0.000000,0.000000,0.000000,0.000000,1011.607917,13.678026,25.500000,0.000000,1487.000000,1461.000000,1252.000000,1506.000000
10.966002,36.129855,63.072875,-13.603715,38.481538,3.534223,166.149198,7.706501,1.335202,0.731758,0.008231,0.007744,1.020043,0.000000,0.000000,0.000000,30.492009,-88.211286,13.603715,170.469345,166.149198,0.000000,0.000000,0.000000,0.000000,0.000000,0.000000,1011.616832,13.603715,25.500000,0.000000,1487.000000,1451.000000,1267.000000,1504.000000
11.067001,35.343810,63.180956,-13.491737,38.427277,-0.241592,170.943120,7.913426,1.097377,0.735015,-0.091993,0.009763,1.080075,0.000000,0.000000,0.000000,30.492002,-88.211285,13.491737,173.842499,170.943120,0.000000,0.000000,0.000000,0.000000,0.000000,0.000000,1011.630267,13.491737,25.500000,0.000000,1485.000000,1411.000000,1259.000000,1504.000000
11.167001,34.547379,63.242709,-13.344915,37.340734,-4.040342,175.955416,8.159276,0.796515,0.738247,-0.235448,0.018859,1.108199,0.000000,0.000000,0.000000,30.491995,-88.211284,13.344915,177.255905,175.955416,0.000000,0.000000,0.000000,0.000000,0.000000,0.000000,1011.647882,13.344915,25.500000,0.000000,1485.000000,1375.000000,1262.000000,1504.000000
11.267001,33.732379,63.256981,-13.163973,35.033248,-7.710333,-178.790635,8.434104,0.427488,0.736492,-0.376791,0.028991,1.115565,0.000000,0.000000,0.000000,30.491988,-88.211284,13.163973,-179.313288,-178.790635,0.000000,0.000000,0.000000,0.000000,0.000000,0.000000,1011.669591,13.163973,25.500000,0.000000,1485.000000,1369.000000,1262.000000,1504.000000
11.368001,32.890159,63.221361,-12.949188,31.636311,-11.063267,-173.279378,8.726564,-0.007101,0.722409,-0.473321,0.032313,1.082087,0.000000,0.000000,0.000000,30.491980,-88.211284,12.949188,-175.905348,-173.279378,0.000000,0.000000,0.000000,0.000000,0.000000,0.000000,1011.695361,12.949188,25.500000,0.000000,1485.000000,1378.000000,1274.000000,1505.000000
11.468001,32.037369,63.135609,-12.708052,27.573666,-13.819423,-167.885842,9.018770,-0.458058,0.691517,-0.537719,0.047781,0.979175,0.000000,0.000000,0.000000,30.491972,-88.211285,12.708052,-172.693216,-167.885842,0.000000,0.000000,0.000000,0.000000,0.000000,0.000000,1011.724294,12.708052,25.500000,0.000000,1486.000000,1375.000000,1273.000000,1507.000000
11.568001,31.165846,63.000009,-12.441753,23.117867,-15.766610,-162.926352,9.311306,-0.869938,0.645083,-0.537828,0.025028,0.817651,0.000000,0.000000,0.000000,30.491964,-88.211287,12.441753,-169.696082,-162.926352,0.000000,0.000000,0.000000,0.000000,0.000000,0.000000,1011.756246,12.441753,25.500000,0.000000,1485.000000,1424.000000,1319.000000,1507.000000
11.668001,30.275430,62.815714,-12.154231,19.181851,-17.256323,-159.011627,9.616555,-1.170191,0.541083,-0.417033,-0.066748,0.580987,0.000000,0.000000,0.000000,30.491956,-88.211289,12.154231,-167.009384,-159.011627,0.000000,0.000000,0.000000,0.000000,0.000000,0.000000,1011.790746,12.154231,25.500000,0.000000,1484.000000,1475.000000,1380.000000,1509.000000
11.769001,29.357097,62.583531,-11.842719,16.533452,-18.580066,-156.734729,9.959234,-1.257764,0.406056,-0.272651,-0.119386,0.263940,0.000000,0.000000,0.000000,30.491948,-88.211291,11.842719,-164.721114,-156.734729,0.000000,0.000000,0.000000,0.000000,0.000000,0.000000,1011.828125,11.842719,25.500000,0.000000,1484.000000,1476.000000,1390.000000,1509.000000
11.870001,28.419887,62.309991,-11.506050,15.011931,-19.347392,-156.254277,10.347122,-1.072227,0.330084,-0.211951,-0.074777,-0.024636,0.000000,0.000000,0.000000,30.491940,-88.211294,11.506050,-162.822951,-156.254277,0.000000,0.000000,0.000000,0.000000,0.000000,0.000000,1011.868524,11.506050,25.500000,0.000000,1485.000000,1475.000000,1379.000000,1509.000000
11.970001,27.472100,62.001826,-11.146917,14.080045,-19.425010,-156.982109,10.755762,-0.690198,0.315905,-0.202342,-0.019659,-0.172163,0.000000,0.000000,0.000000,30.491931,-88.211297,11.146917,-161.216677,-156.982109,0.000000,0.000000,0.000000,0.000000,0.000000,0.000000,1011.911621,11.146917,25.500000,0.000000,1484.000000,1476.000000,1381.000000,1507.000000
12.071001,26.492043,61.654629,-10.762274,13.237109,-19.188319,-158.029526,11.164337,-0.262869,0.315725,-0.211047,0.037552,-0.153031,0.000000,0.000000,0.000000,30.491922,-88.211301,10.762274,-159.832356,-158.029526,0.000000,0.000000,0.000000,0.000000,0.000000,0.000000,1011.957780,10.762274,25.500000,0.000000,1485.000000,1475.000000,1359.000000,1506.000000
12.172000,25.486262,61.272851,-10.360987,12.124846,-18.655803,-158.465072,11.559877,0.042218,0.348422,-0.220963,0.105835,-0.012863,0.000000,0.000000,0.000000,30.491913,-88.211305,10.360987,-158.639262,-158.465072,0.000000,0.000000,0.000000,0.000000,0.000000,0.000000,1012.005938,10.360987,25.500000,0.000000,1486.000000,1475.000000,1350.000000,1506.000000
12.272000,24.462251,60.861062,-9.955528,10.674413,-18.031718,-157.886538,11.943811,0.131607,0.369903,-0.220273,0.136819,0.154480,0.000000,0.000000,0.000000,30.491904,-88.211309,9.955528,-157.581499,-157.886538,0.000000,0.000000,0.000000,0.000000,0.000000,0.000000,1012.054599,9.955528,25.500000,0.000000,1485.000000,1475.000000,1351.000000,1506.000000
12.372000,23.408487,60.415701,-9.549792,8.958277,-17.320190,-156.441098,12.318040,0.024169,0.408611,-0.270906,0.319206,0.257848,0.000000,0.000000,0.000000,30.491895,-88.211314,9.549792,-156.641101,-156.441098,0.000000,0.000000,0.000000,0.000000,0.000000,0.000000,1012.103295,9.549792,25.500000,0.000000,1485.000000,1426.000000,1222.000000,1507.000000
12.473000,22.313217,59.932045,-9.147153,6.192604,-14.647922,-154.264665,12.663564,-0.230375,0.693790,-0.452707,0.576350,0.341185,0.000000,0.000000,0.000000,30.491885,-88.211319,9.147153,-155.709820,-154.264665,0.000000,0.000000,0.000000,0.000000,0.000000,0.000000,1012.151621,9.147153,25.500000,0.000000,1485.000000,1432.000000,1234.000000,1507.000000
12.573001,21.193545,59.416371,-8.786328,2.814432,-11.614413,-151.868302,12.959635,-0.623157,0.788893,-0.529946,0.593960,0.367903,0.000000,0.000000,0.000000,30.491875,-88.211324,8.786328,-154.889241,-151.868302,0.000000,0.000000,0.000000,0.000000,0.000000,0.000000,1012.194930,8.786328,25.500000,0.000000,1485.000000,1430.000000,1185.000000,1507.000000
12.674000,20.027910,58.862727,-8.479328,-0.753558,-7.787506,-149.851973,13.190452,-1.033113,0.898219,-0.565343,0.699215,0.280123,0.000000,0.000000,0.000000,30.491864,-88.211330,8.479328,-154.364176,-149.851973,0.000000,0.000000,0.000000,0.000000,0.000000,0.000000,1012.231780,8.479328,25.500000,0.000000,1486.000000,1446.000000,1189.000000,1505.000000
12.774001,18.842013,58.291143,-8.249986,-3.958998,-3.769787,-148.899323,13.363310,-1.307558,0.913134,-0.504510,0.662578,0.097033,0.000000,0.000000,0.000000,30.491854,-88.211336,8.249986,-154.243767,-148.899323,0.000000,0.000000,0.000000,0.000000,0.000000,0.000000,1012.259309,8.249986,25.500000,0.000000,1486.000000,1470.000000,1222.000000,1503.000000
12.874001,17.629480,57.709227,-8.104451,-6.448490,-0.314780,-149.324907,13.501533,-1.333799,0.826948,-0.371294,0.584805,-0.137080,0.000000,0.000000,0.000000,30.491843,-88.211342,8.104451,-154.540398,-149.324907,0.000000,0.000000,0.000000,0.000000,0.000000,0.000000,1012.276779,8.104451,25.500000,0.000000,1485.000000,1489.000000,1229.000000,1501.000000
12.975001,16.384383,57.124533,-8.038887,-8.193098,2.823283,-151.156129,13.606764,-1.087285,0.776458,-0.223412,0.538256,-0.337414,0.000000,0.000000,0.000000,30.491831,-88.211348,8.038887,-155.202166,-151.156129,0.000000,0.000000,0.000000,0.000000,0.000000,0.000000,1012.284649,8.038887,25.500000,0.000000,1485.000000,1508.000000,1290.000000,1499.000000
13.075001,15.137243,56.560279,-8.050944,-9.192052,4.877527,-153.762873,13.671980,-0.670385,0.607678,-0.073735,0.357264,-0.432827,0.000000,0.000000,0.000000,30.491820,-88.211354,8.050944,-156.121213,-153.762873,0.000000,0.000000,0.000000,0.000000,0.000000,0.000000,1012.283202,8.050944,25.500000,0.000000,1485.000000,1527.000000,1330.000000,1497.000000
13.176001,13.868992,56.012234,-8.125735,-9.384178,6.082662,-156.533253,13.684420,-0.216566,0.433673,0.087559,0.232899,-0.427820,0.000000,0.000000,0.000000,30.491809,-88.211360,8.125735,-157.127760,-156.533253,0.000000,0.000000,0.000000,0.000000,0.000000,0.000000,1012.274224,8.125735,25.500000,0.000000,1486.000000,1551.000000,1405.000000,1495.000000
13.277001,12.596554,55.488387,-8.245352,-8.519734,6.189345,-158.928574,13.653375,0.177363,0.177476,0.275332,0.011791,-0.382299,0.000000,0.000000,0.000000,30.491797,-88.211365,8.245352,-158.073835,-158.928574,0.000000,0.000000,0.000000,0.000000,0.000000,0.000000,1012.259866,8.245352,25.500000,0.000000,1486.000000,1542.000000,1479.000000,1496.000000
13.378001,11.322569,54.985825,-8.385260,-6.984201,5.126192,-160.851562,13.594679,0.496765,-0.109089,0.316833,-0.185245,-0.309438,0.000000,0.000000,0.000000,30.491786,-88.211370,8.385260,-158.816709,-160.851562,0.000000,0.000000,0.000000,0.000000,0.000000,0.000000,1012.243072,8.385260,25.500000,0.000000,1486.000000,1544.000000,1490.000000,1496.000000
13.478006,10.059804,54.503713,-8.515793,-5.168380,3.914918,-162.181430,13.537876,0.686309,-0.221574,0.351587,-0.169056,-0.194796,0.000000,0.000000,0.000000,30.491774,-88.211375,8.515793,-159.362343,-162.181430,0.000000,0.000000,0.000000,0.000000,0.000000,0.000000,1012.227403,8.515793,25.500000,0.000000,1486.000000,1544.000000,1490.000000,1496.000000
13.579001,8.782360,54.028367,-8.625678,-3.185480,3.361244,-162.955850,13.502184,0.752092,-0.154398,0.352345,-0.043513,-0.088472,0.000000,0.000000,0.000000,30.491763,-88.211380,8.625678,-159.798860,-162.955850,0.000000,0.000000,0.000000,0.000000,0.000000,0.000000,1012.214213,8.625678,25.500000,0.000000,1485.000000,1539.000000,1462.000000,1496.000000
13.680000,7.502999,53.562107,-8.718174,-1.249452,3.159848,-163.218386,13.483827,0.728436,-0.096994,0.325570,-0.033821,-0.007909,0.000000,0.000000,0.000000,30.491751,-88.211385,8.718174,-160.128391,-163.218386,0.000000,0.000000,0.000000,0.000000,0.000000,0.000000,1012.203111,8.718174,25.500000,0.000000,1485.000000,1532.000000,1457.000000,1497.000000
13.780001,6.235052,53.106523,-8.799063,0.427867,2.948029,-163.098279,13.476158,0.652327,-0.077288,0.263584,-0.041281,0.049276,0.000000,0.000000,0.000000,30.491740,-88.211390,8.799063,-160.319555,-163.098279,0.000000,0.000000,0.000000,0.000000,0.000000,0.000000,1012.193402,8.799063,25.500000,0.000000,1485.000000,1521.000000,1455.000000,1498.000000
13.881001,4.953762,52.649290,-8.872290,1.751550,2.677769,-162.687033,13.476129,0.539975,-0.072338,0.192733,-0.048321,0.093923,0.000000,0.000000,0.000000,30.491729,-88.211395,8.872290,-160.381192,-162.687033,0.000000,0.000000,0.000000,0.000000,0.000000,0.000000,1012.184612,8.872290,25.500000,0.000000,1485.000000,1512.000000,1455.000000,1499.000000
13.981001,3.684906,52.196586,-8.936937,2.639841,2.402164,-162.070344,13.482599,0.406388,-0.063165,0.112804,-0.041234,0.124776,0.000000,0.000000,0.000000,30.491717,-88.211399,8.936937,-160.332069,-162.070344,0.000000,0.000000,0.000000,0.000000,0.000000,0.000000,1012.176853,8.936937,25.500000,0.000000,1486.000000,1502.000000,1452.000000,1500.000000
14.081001,2.416083,51.741530,-8.994616,3.082830,1.982232,-161.316625,13.493061,0.258981,-0.086557,0.036353,-0.084648,0.144475,0.000000,0.000000,0.000000,30.491706,-88.211404,8.994616,-160.198805,-161.316625,0.000000,0.000000,0.000000,0.000000,0.000000,0.000000,1012.169930,8.994616,25.500000,0.000000,1485.000000,1494.000000,1464.000000,1501.000000
14.182001,1.134558,51.277884,-9.043892,3.104507,1.721140,-160.471571,13.509154,0.105550,-0.045223,-0.034806,0.001348,0.150736,0.000000,0.000000,0.000000,30.491694,-88.211409,9.043892,-160.014975,-160.471571,0.000000,0.000000,0.000000,0.000000,0.000000,0.000000,1012.164015,9.043892,25.500000,0.000000,1485.000000,1487.000000,1439.000000,1501.000000
14.282001,-0.134398,50.813642,-9.086241,2.751973,1.990256,-159.608641,13.528043,-0.040547,0.050997,-0.094829,0.091528,0.143668,0.000000,0.000000,0.000000,30.491683,-88.211414,9.086241,-159.791825,-159.608641,0.000000,0.000000,0.000000,0.000000,0.000000,0.000000,1012.158932,9.086241,25.500000,0.000000,1485.000000,1482.000000,1412.000000,1502.000000
14.382002,-1.403056,50.343625,-9.131425,2.114291,2.497649,-158.813848,13.543065,-0.170986,0.103691,-0.135863,0.092111,0.123497,0.000000,0.000000,0.000000,30.491671,-88.211419,9.131425,-159.554494,-158.813848,0.000000,0.000000,0.000000,0.000000,0.000000,0.000000,1012.153509,9.131425,25.500000,0.000000,1485.000000,1480.000000,1408.000000,1502.000000
14.483018,-2.683438,49.863492,-9.186465,1.275514,2.984416,-158.173890,13.551073,-0.273874,0.113140,-0.162864,0.084264,0.090861,0.000000,0.000000,0.000000,30.491660,-88.211424,9.186465,-159.344087,-158.173890,0.000000,0.000000,0.000000,0.000000,0.000000,0.000000,1012.146903,9.186465,25.500000,0.000000,1486.000000,1479.000000,1407.000000,1502.000000
14.584001,-3.962389,49.379231,-9.252429,0.338206,3.477004,-157.747910,13.551637,-0.340155,0.116034,-0.165902,0.088975,0.052153,0.000000,0.000000,0.000000,30.491648,-88.211429,9.252429,-159.191147,-157.747910,0.000000,0.000000,0.000000,0.000000,0.000000,0.000000,1012.138985,9.252429,25.500000,0.000000,1487.000000,1482.000000,1405.000000,1502.000000
14.685000,-5.239599,48.892636,-9.329662,-0.583822,3.984939,-157.570181,13.544587,-0.364731,0.116508,-0.154940,0.085915,0.009316,0.000000,0.000000,0.000000,30.491637,-88.211434,9.329662,-159.110558,-157.570181,0.000000,0.000000,0.000000,0.000000,0.000000,0.000000,1012.129716,9.329662,25.500000,0.000000,1486.000000,1485.000000,1406.000000,1501.000000
14.785001,-6.502225,48.410553,-9.417330,-1.411091,4.455216,-157.636316,13.531386,-0.349612,0.111938,-0.129331,0.078573,-0.029022,0.000000,0.000000,0.000000,30.491625,-88.211439,9.417330,-159.107485,-157.636316,0.000000,0.000000,0.000000,0.000000,0.000000,0.000000,1012.119193,9.417330,25.500000,0.000000,1489.000000,1490.000000,1408.000000,1501.000000
14.886001,-7.775408,47.925335,-9.516709,-2.087844,4.806057,-157.910903,13.510597,-0.301774,0.088392,-0.094704,0.042402,-0.060637,0.000000,0.000000,0.000000,30.491614,-88.211444,9.516709,-159.179119,-157.910903,0.000000,0.000000,0.000000,0.000000,0.000000,0.000000,1012.107266,9.516709,25.500000,0.000000,1486.000000,1495.000000,1419.000000,1500.000000
14.987000,-9.046418,47.443567,-9.624699,-2.564629,4.981611,-158.338052,13.483536,-0.231255,0.060920,-0.055440,0.025502,-0.082351,0.000000,0.000000,0.000000,30.491603,-88.211449,9.624699,-159.310526,-158.338052,0.000000,0.000000,0.000000,0.000000,0.000000,0.000000,1012.094305,9.624699,25.500000,0.000000,1486.000000,1500.000000,1424.000000,1500.000000
15.087001,-10.302981,46.971061,-9.735326,-2.835383,6.092895,-158.904960,13.450461,-0.150068,0.286248,-0.020374,0.436586,-0.093833,0.000000,0.000000,0.000000,30.491591,-88.211454,9.735326,-159.483885,-158.904960,0.000000,0.000000,0.000000,0.000000,0.000000,0.000000,1012.081027,9.735326,25.500000,0.000000,1486.000000,1503.000000,1294.000000,1500.000000
15.188000,-11.568749,46.500816,-9.866380,-2.962674,9.085157,-159.611779,13.391470,-0.068606,0.606361,0.008024,0.586058,-0.093313,0.000000,0.000000,0.000000,30.491580,-88.211459,9.866380,-159.770013,-159.611779,0.000000,0.000000,0.000000,0.000000,0.000000,0.000000,1012.065298,9.866380,25.500000,0.000000,1487.000000,1505.000000,1251.000000,1500.000000
15.288001,-12.812477,46.046895,-10.047327,-2.992353,12.272985,-160.297104,13.295135,-0.000597,0.721191,0.023912,0.526763,-0.081603,0.000000,0.000000,0.000000,30.491569,-88.211464,10.047327,-160.133696,-160.297104,0.000000,0.000000,0.000000,0.000000,0.000000,0.000000,1012.043582,10.047327,25.500000,0.000000,1487.000000,1505.000000,1253.000000,1499.000000
15.388001,-14.038595,45.608514,-10.291119,-2.959361,15.010950,-160.868789,13.157082,0.043434,0.690429,0.034973,0.430718,-0.061885,0.000000,0.000000,0.000000,30.491558,-88.211468,10.291119,-160.515567,-160.868789,0.000000,0.000000,0.000000,0.000000,0.000000,0.000000,1012.014323,10.291119,25.500000,0.000000,1486.000000,1506.000000,1272.000000,1499.000000
15.488001,-15.240381,45.187666,-10.592712,-2.849468,17.193900,-161.299990,12.977746,0.062456,0.597036,0.045590,0.318922,-0.044934,0.000000,0.000000,0.000000,30.491547,-88.211473,10.592712,-160.878767,-161.299990,0.000000,0.000000,0.000000,0.000000,0.000000,0.000000,1011.978129,10.592712,25.500000,0.000000,1486.000000,1507.000000,1305.000000,1499.000000
15.589001,-16.425410,44.780702,-10.943525,-2.668072,18.781948,-161.625259,12.760525,0.066910,0.482797,0.049769,0.219419,-0.036521,0.000000,0.000000,0.000000,30.491536,-88.211477,10.943525,-161.205538,-161.625259,0.000000,0.000000,0.000000,0.000000,0.000000,0.000000,1011.936028,10.943525,25.500000,0.000000,1487.000000,1506.000000,1336.000000,1499.000000
15.689001,-17.568943,44.394733,-11.321821,-2.476436,19.839809,-161.883222,12.517293,0.065991,0.382463,0.044425,0.139067,-0.031979,0.000000,0.000000,0.000000,30.491526,-88.211481,11.321821,-161.485034,-161.883222,0.000000,0.000000,0.000000,0.000000,0.000000,0.000000,1011.890632,11.321821,25.500000,0.000000,1487.000000,1504.000000,1363.000000,1500.000000
15.790000,-18.694307,44.020599,-11.721415,-2.315645,20.488240,-162.090580,12.251484,0.060542,0.305612,0.035391,0.079533,-0.025634,0.000000,0.000000,0.000000,30.491516,-88.211485,11.721415,-161.729134,-162.090580,0.000000,0.000000,0.000000,0.000000,0.000000,0.000000,1011.842681,11.721415,25.500000,0.000000,1487.000000,1503.000000,1382.000000,1500.000000
15.890001,-19.780562,43.664258,-12.123245,-2.193028,20.832009,-162.241628,11.975854,0.048947,0.257652,0.024433,0.035297,-0.019134,0.000000,0.000000,0.000000,30.491506,-88.211489,12.123245,-161.942203,-162.241628,0.000000,0.000000,0.000000,0.000000,0.000000,0.000000,1011.794464,12.123245,25.500000,0.000000,1487.000000,1501.000000,1396.000000,1500.000000
15.990001,-20.840522,43.320682,-12.522947,-2.120915,20.945415,-162.343103,11.693896,0.031250,0.232133,0.013327,0.002756,-0.012748,0.000000,0.000000,0.000000,30.491496,-88.211492,12.522947,-162.134843,-162.343103,0.000000,0.000000,0.000000,0.000000,0.000000,0.000000,1011.746504,12.522947,25.500000,0.000000,1487.000000,1500.000000,1404.000000,1500.000000
16.090001,-21.875716,42.988833,-12.914455,-2.092372,20.892561,-162.405659,11.410422,0.008752,0.225422,0.004227,-0.022577,-0.009014,0.000000,0.000000,0.000000,30.491487,-88.211496,12.914455,-162.314221,-162.405659,0.000000,0.000000,0.000000,0.000000,0.000000,0.000000,1011.699529,12.914455,25.500000,0.000000,1488.000000,1499.000000,1409.000000,1500.000000
16.191001,-22.897555,42.664726,-13.297246,-2.104525,20.696945,-162.451335,11.126129,-0.015358,0.230610,-0.002079,-0.045620,-0.008897,0.000000,0.000000,0.000000,30.491478,-88.211499,13.297246,-162.488058,-162.451335,0.000000,0.000000,0.000000,0.000000,0.000000,0.000000,1011.653601,13.297246,25.500000,0.000000,1487.000000,1499.000000,1412.000000,1500.000000
16.291001,-23.887107,42.354115,-13.660635,-2.144825,20.377929,-162.503785,10.849188,-0.036856,0.244166,-0.005239,-0.064033,-0.013020,0.000000,0.000000,0.000000,30.491469,-88.211502,13.660635,-162.657646,-162.503785,0.000000,0.000000,0.000000,0.000000,0.000000,0.000000,1011.610003,13.660635,25.500000,0.000000,1486.000000,1499.000000,1412.000000,1500.000000
16.392001,-24.865456,42.050225,-14.009552,-2.209958,19.952739,-162.587936,10.576855,-0.052922,0.264435,-0.007125,-0.082956,-0.020150,0.000000,0.000000,0.000000,30.491460,-88.211505,14.009552,-162.830837,-162.587936,0.000000,0.000000,0.000000,0.000000,0.000000,0.000000,1011.568143,14.009552,25.500000,0.000000,1487.000000,1499.000000,1413.000000,1500.000000
16.493001,-25.823580,41.755884,-14.339702,-2.289677,18.954831,-162.693933,10.316472,-0.062446,0.155263,-0.007265,-0.495839,-0.027825,0.000000,0.000000,0.000000,30.491452,-88.211508,14.339702,-163.021227,-162.693933,0.000000,0.000000,0.000000,0.000000,0.000000,0.000000,1011.528536,14.339702,25.500000,0.000000,1487.000000,1500.000000,1685.000000,1500.000000
16.594000,-26.763361,41.470394,-14.647529,-2.310782,14.294674,-162.686344,10.061657,-0.066608,-0.383428,0.010499,-1.245822,-0.033766,0.000000,0.000000,0.000000,30.491443,-88.211511,14.647529,-163.172433,-162.686344,0.000000,0.000000,0.000000,0.000000,0.000000,0.000000,1011.491607,14.647529,25.500000,0.000000,1486.000000,1514.000000,2000.000000,1499.000000
16.694001,-27.686708,41.191534,-14.894918,-2.128166,5.682266,-162.593213,9.808533,-0.062765,-1.028562,0.042562,-1.597557,-0.054290,0.000000,0.000000,0.000000,30.491435,-88.211514,14.894918,-163.192051,-162.593213,0.000000,0.000000,0.000000,0.000000,0.000000,0.000000,1011.461930,14.894918,25.500000,0.000000,1485.000000,1513.000000,1999.000000,1499.000000
16.795000,-28.623568,40.907987,-15.033190,-1.836948,-3.248221,-162.672641,9.664673,-0.036660,-1.259823,0.056396,-1.445201,-0.079228,0.000000,0.000000,0.000000,30.491426,-88.211517,15.033190,-163.126990,-162.672641,0.000000,0.000000,0.000000,0.000000,0.000000,0.000000,1011.445343,15.033190,25.500000,0.000000,1485.000000,1514.000000,1966.000000,1499.000000
16.896000,-29.564321,40.622111,-15.035669,-1.449604,-11.059704,-162.955307,9.686452,0.010990,-1.219483,0.062797,-1.222019,-0.093129,0.000000,0.000000,0.000000,30.491418,-88.211520,15.035669,-163.072337,-162.955307,0.000000,0.000000,0.000000,0.000000,0.000000,0.000000,1011.445046,15.035669,25.500000,0.000000,1485.000000,1513.000000,1888.000000,1499.000000
16.996001,-30.495505,40.338510,-14.904452,-0.983870,-17.477346,-163.363816,9.860087,0.070287,-1.060898,0.063582,-0.993916,-0.089990,0.000000,0.000000,0.000000,30.491410,-88.211523,14.904452,-163.057047,-163.363816,0.000000,0.000000,0.000000,0.000000,0.000000,0.000000,1011.460786,14.904452,25.500000,0.000000,1486.000000,1512.000000,1795.000000,1499.000000
17.097000,-31.434297,40.052674,-14.647727,-0.468975,-22.658446,-163.793879,10.160893,0.128041,-0.867305,0.062532,-0.787294,-0.070312,0.000000,0.000000,0.000000,30.491401,-88.211526,14.647727,-163.080200,-163.793879,0.000000,0.000000,0.000000,0.000000,0.000000,0.000000,1011.491584,14.647727,25.500000,0.000000,1485.000000,1510.000000,1712.000000,1499.000000
