Time (sec) ,X(m) ,Y(m) ,Z(m) ,Roll (deg) ,Pitch (deg) ,Yaw (deg) ,U(m/s) ,V(m/s) ,W(m/s) ,P(rad/s) ,Q(rad/s) ,R(rad/s) ,Mx(Gauss) ,My(Gauss) ,Mz(Gauss) ,GPS Latitude (deg) ,GPS Longitude (deg) ,GPS Altitude (m) ,GPS Heading (deg) ,Yaw (deg) ,Analog 1 (V) ,Analog 2 (V) ,Analog 3 (V) ,Analog 4 (V) ,Analog 5 (V) ,Analog 6 (V) ,Pressure (Pa) ,Pressure Altitude (m) ,Temperature (C) ,RC In Channel #5 ,PWM Model 1 ,PWM Model 2 ,PWM Model 3 ,PWM Model 4 
 0.000031,20.010000,-0.000000,-9.999998,0.057153,-0.000084,-0.000197,9.999710,0.000006,0.003986,0.995018,-0.002948,-0.006888,0.000000,0.000000,0.000000,30.491864,-88.211945,9.999998,-0.000095,-0.000197,0.000000,0.000000,0.000000,0.000000,0.000000,0.000000,1012.049262,9.999998,25.500000,992.000000,992.000000,1500.000000,1500.000000,1500.000000
0.101001,21.018885,0.000559,-9.982660,4.534594,-0.726629,-1.570147,9.980814,0.304999,0.170914,0.574958,-0.254475,-0.434709,0.000000,0.000000,0.000000,30.491873,-88.211945,9.982660,0.096848,-1.570147,0.000000,0.000000,0.000000,0.000000,0.000000,0.000000,1012.051343,9.982660,25.500000,992.000000,992.000000,1500.000000,1500.000000,1500.000000
0.202001,22.027824,0.003896,-9.934372,7.023329,-1.918207,-4.336932,10.023741,0.837878,0.236447,0.257426,0.000963,-0.414931,0.000000,0.000000,0.000000,30.491882,-88.211945,9.934372,0.248760,-4.336932,0.000000,0.000000,0.000000,0.000000,0.000000,0.000000,1012.057138,9.934372,25.500000,2469.000000,1762.000000,1465.000000,1212.000000,1504.000000
0.303001,23.052264,0.009868,-9.854052,7.732013,-0.247473,-5.694816,10.198434,1.197803,0.641779,-0.002220,0.375236,-0.091187,0.000000,0.000000,0.000000,30.491891,-88.211944,9.854052,0.464804,-5.694816,0.000000,0.000000,0.000000,0.000000,0.000000,0.000000,1012.066778,9.854052,25.500000,2469.000000,1762.000000,1461.000000,1229.000000,1504.000000
0.403001,24.089150,0.022126,-9.776945,7.294527,1.649967,-4.782009,10.408654,1.154699,0.826312,-0.138732,0.298598,0.313906,0.000000,0.000000,0.000000,30.491901,-88.211944,9.776945,0.910886,-4.782009,0.000000,0.000000,0.000000,0.000000,0.000000,0.000000,1012.076032,9.776945,25.500000,2469.000000,1762.000000,1464.000000,1248.000000,1504.000000
0.503001,25.148055,0.044107,-9.724100,6.454983,2.741432,-1.926559,10.644742,0.731928,0.820294,-0.181901,0.210136,0.595997,0.000000,0.000000,0.000000,30.491910,-88.211944,9.724100,1.474832,-1.926559,0.000000,0.000000,0.000000,0.000000,0.000000,0.000000,1012.082374,9.724100,25.500000,2469.000000,1762.000000,1468.000000,1259.000000,1503.000000
0.604000,26.237201,0.078319,-9.698761,5.627185,3.646947,1.920246,10.849643,0.119689,0.798045,-0.172810,0.251059,0.651038,0.000000,0.000000,0.000000,30.491920,-88.211944,9.698761,2.131917,1.920246,0.000000,0.000000,0.000000,0.000000,0.000000,0.000000,1012.085416,9.698761,25.500000,2469.000000,1762.000000,1472.000000,1242.000000,1503.000000
0.704002,27.331946,0.126178,-9.701872,4.957226,4.802484,5.421720,10.996918,-0.423129,0.782430,-0.150170,0.256397,0.498388,0.000000,0.000000,0.000000,30.491930,-88.211943,9.701872,2.876402,5.421720,0.000000,0.000000,0.000000,0.000000,0.000000,0.000000,1012.085042,9.701872,25.500000,2469.000000,1762.000000,1475.000000,1254.000000,1502.000000
0.805000,28.450587,0.190067,-9.735673,4.352638,6.063088,7.697730,11.112045,-0.732405,0.746473,-0.134208,0.240687,0.239922,0.000000,0.000000,0.000000,30.491940,-88.211943,9.735673,3.647002,7.697730,0.000000,0.000000,0.000000,0.000000,0.000000,0.000000,1012.080986,9.735673,25.500000,2469.000000,1762.000000,1478.000000,1266.000000,1502.000000
0.905001,29.567426,0.268239,-9.799526,3.685776,7.338403,8.449439,11.215807,-0.762346,0.702491,-0.129823,0.222146,-0.000124,0.000000,0.000000,0.000000,30.491950,-88.211942,9.799526,4.333190,8.449439,0.000000,0.000000,0.000000,0.000000,0.000000,0.000000,1012.073322,9.799526,25.500000,2469.000000,1762.000000,1482.000000,1279.000000,1502.000000
1.005001,30.690498,0.358990,-9.892288,2.884883,8.580423,8.045449,11.309872,-0.592331,0.658894,-0.129636,0.202864,-0.145017,0.000000,0.000000,0.000000,30.491960,-88.211941,9.892288,4.872266,8.045449,0.000000,0.000000,0.000000,0.000000,0.000000,0.000000,1012.062189,9.892288,25.500000,2458.000000,1762.000000,1486.000000,1292.000000,1501.000000
1.105001,31.817391,0.458987,-10.012089,2.004390,9.726478,7.108951,11.383637,-0.348329,0.618206,-0.123961,0.183106,-0.177426,0.000000,0.000000,0.000000,30.491970,-88.211940,10.012089,5.237180,7.108951,0.000000,0.000000,0.000000,0.000000,0.000000,0.000000,1012.047811,10.012089,25.500000,2469.000000,1762.000000,1490.000000,1303.000000,1501.000000
1.205008,32.946077,0.564760,-10.156796,1.176845,10.744967,6.215114,11.432631,-0.140351,0.580629,-0.107590,0.163943,-0.130366,0.000000,0.000000,0.000000,30.491980,-88.211939,10.156796,5.445208,6.215114,0.000000,0.000000,0.000000,0.000000,0.000000,0.000000,1012.030444,10.156796,25.500000,2469.000000,1762.000000,1494.000000,1313.000000,1501.000000
1.306001,34.086055,0.674538,-10.325862,0.521819,11.649725,5.680233,11.460249,-0.022749,0.545927,-0.081939,0.146304,-0.055202,0.000000,0.000000,0.000000,30.491991,-88.211938,10.325862,5.539842,5.680233,0.000000,0.000000,0.000000,0.000000,0.000000,0.000000,1012.010153,10.325862,25.500000,2469.000000,1762.000000,1497.000000,1322.000000,1500.000000
1.407001,35.224423,0.785317,-10.515446,0.104822,12.450138,5.547658,11.470308,0.005193,0.514748,-0.053140,0.130352,0.003747,0.000000,0.000000,0.000000,30.492001,-88.211936,10.515446,5.569138,5.547658,0.000000,0.000000,0.000000,0.000000,0.000000,0.000000,1011.987401,10.515446,25.500000,2458.000000,1762.000000,1499.000000,1330.000000,1500.000000
1.508001,36.359764,0.896072,-10.723014,-0.100487,13.161546,5.658542,11.465273,-0.017868,0.487426,-0.028160,0.115761,0.027505,0.000000,0.000000,0.000000,30.492011,-88.211935,10.723014,5.572098,5.658542,0.000000,0.000000,0.000000,0.000000,0.000000,0.000000,1011.962491,10.723014,25.500000,2469.000000,1762.000000,1500.000000,1337.000000,1500.000000
1.608001,37.479686,1.005304,-10.943836,-0.166853,13.785242,5.811397,11.446974,-0.048795,0.464153,-0.009227,0.101984,0.020862,0.000000,0.000000,0.000000,30.492021,-88.211934,10.943836,5.569309,5.811397,0.000000,0.000000,0.000000,0.000000,0.000000,0.000000,1011.935991,10.943836,25.500000,2469.000000,1762.000000,1501.000000,1344.000000,1500.000000
1.708001,38.594464,1.113977,-11.177621,-0.173214,14.331960,5.872945,11.417044,-0.061143,0.444378,0.000561,0.088874,-0.000289,0.000000,0.000000,0.000000,30.492031,-88.211933,11.177621,5.566279,5.872945,0.000000,0.000000,0.000000,0.000000,0.000000,0.000000,1011.907936,11.177621,25.500000,2458.000000,1762.000000,1501.000000,1349.000000,1500.000000
1.809001,39.714337,1.223065,-11.424818,-0.173176,14.771111,5.808104,11.376984,-0.049314,0.414667,0.004348,0.034584,-0.019569,0.000000,0.000000,0.000000,30.492041,-88.211932,11.424818,5.560225,5.808104,0.000000,0.000000,0.000000,0.000000,0.000000,0.000000,1011.878272,11.424818,25.500000,2469.000000,1762.000000,1501.000000,1386.000000,1500.000000
1.909001,40.816275,1.330217,-11.679468,0.081872,13.747505,5.692967,11.334678,-0.028160,0.135155,0.276603,-0.424270,-0.007118,0.000000,0.000000,0.000000,30.492051,-88.211931,11.679468,5.545900,5.692967,0.000000,0.000000,0.000000,0.000000,0.000000,0.000000,1011.847715,11.679468,25.500000,2458.000000,1762.000000,1707.000000,1586.000000,1479.000000
2.009001,41.915361,1.437180,-11.925113,3.658716,10.738488,4.957166,11.292056,0.109226,-0.193042,0.939804,-0.523125,-0.282614,0.000000,0.000000,0.000000,30.492061,-88.211930,11.925113,5.585294,4.957166,0.000000,0.000000,0.000000,0.000000,0.000000,0.000000,1011.818238,11.925113,25.500000,2469.000000,1762.000000,1700.000000,1549.000000,1480.000000
2.110001,43.030861,1.547030,-12.132100,9.433503,8.520916,1.817417,11.259612,0.714602,-0.255978,1.175248,-0.368325,-0.672756,0.000000,0.000000,0.000000,30.492071,-88.211928,12.132100,5.661294,1.817417,0.000000,0.000000,0.000000,0.000000,0.000000,0.000000,1011.793401,12.132100,25.500000,2469.000000,1762.000000,1671.000000,1527.000000,1483.000000
2.211001,44.155239,1.659149,-12.288855,15.607238,7.719046,-2.866405,11.184509,1.670655,-0.257522,1.155215,-0.258063,-0.769702,0.000000,0.000000,0.000000,30.492081,-88.211927,12.288855,5.723628,-2.866405,0.000000,0.000000,0.000000,0.000000,0.000000,0.000000,1011.774592,12.288855,25.500000,2458.000000,1762.000000,1640.000000,1513.000000,1486.000000
2.311001,45.278110,1.772284,-12.394681,21.356783,7.641795,-6.907235,11.068325,2.561632,-0.286757,1.036695,-0.212568,-0.493994,0.000000,0.000000,0.000000,30.492091,-88.211926,12.394681,5.782612,-6.907235,0.000000,0.000000,0.000000,0.000000,0.000000,0.000000,1011.761894,12.394681,25.500000,2458.000000,1762.000000,1617.000000,1518.000000,1488.000000
2.411001,46.411010,1.887772,-12.450478,26.661029,7.218179,-8.708674,11.023429,3.064683,-0.315477,0.899190,-0.167125,0.004180,0.000000,0.000000,0.000000,30.492102,-88.211925,12.450478,5.871148,-8.708674,0.000000,0.000000,0.000000,0.000000,0.000000,0.000000,1011.755199,12.450478,25.500000,2458.000000,1762.000000,1590.000000,1514.000000,1491.000000
2.512000,47.566487,2.008825,-12.454180,31.592179,5.736040,-7.744891,11.151811,3.070183,-0.305012,0.770819,-0.109284,0.519254,0.000000,0.000000,0.000000,30.492112,-88.211924,12.454180,6.132066,-7.744891,0.000000,0.000000,0.000000,0.000000,0.000000,0.000000,1011.754755,12.454180,25.500000,2458.000000,1762.000000,1565.000000,1500.000000,1493.000000
2.612001,48.723638,2.138782,-12.405675,35.910375,3.087785,-4.577954,11.441183,2.662801,-0.252599,0.652688,-0.044274,0.876209,0.000000,0.000000,0.000000,30.492122,-88.211922,12.405675,6.753108,-4.577954,0.000000,0.000000,0.000000,0.000000,0.000000,0.000000,1011.760575,12.405675,25.500000,2458.000000,1762.000000,1538.000000,1480.000000,1496.000000
2.713000,49.908076,2.290156,-12.305920,39.387893,-0.376965,-0.193139,11.814888,2.029639,-0.172422,0.516177,0.033559,1.019611,0.000000,0.000000,0.000000,30.492133,-88.211921,12.305920,7.888824,-0.193139,0.000000,0.000000,0.000000,0.000000,0.000000,0.000000,1011.772544,12.305920,25.500000,2469.000000,1762.000000,1521.000000,1439.000000,1498.000000
2.813001,51.098253,2.472286,-12.159663,41.811704,-3.753906,4.555190,12.199319,1.389156,-0.054073,0.392573,0.145303,0.978518,0.000000,0.000000,0.000000,30.492144,-88.211919,12.159663,9.598979,4.555190,0.000000,0.000000,0.000000,0.000000,0.000000,0.000000,1011.790094,12.159663,25.500000,2469.000000,1762.000000,1509.000000,1405.000000,1499.000000
2.914001,52.318471,2.703924,-11.969472,43.333635,-6.509225,9.177179,12.579556,0.888622,0.056205,0.280088,0.227429,0.825319,0.000000,0.000000,0.000000,30.492155,-88.211916,11.969472,11.964609,9.177179,0.000000,0.000000,0.000000,0.000000,0.000000,0.000000,1011.812915,11.969472,25.500000,2469.000000,1762.000000,1501.000000,1377.000000,1500.000000
3.014001,53.543278,2.995087,-11.745587,44.121800,-8.355540,13.294067,12.955140,0.604791,0.134532,0.185365,0.289724,0.652378,0.000000,0.000000,0.000000,30.492166,-88.211913,11.745587,14.809524,13.294067,0.000000,0.000000,0.000000,0.000000,0.000000,0.000000,1011.839780,11.745587,25.500000,2469.000000,1762.000000,1497.000000,1359.000000,1500.000000
3.114001,54.781860,3.359651,-11.492556,44.390269,-9.371389,17.019946,13.339273,0.504176,0.192845,0.119797,0.362064,0.526497,0.000000,0.000000,0.000000,30.492177,-88.211909,11.492556,17.990690,17.019946,0.000000,0.000000,0.000000,0.000000,0.000000,0.000000,1011.870144,11.492556,25.500000,2469.000000,1762.000000,1501.000000,1323.000000,1500.000000
3.215000,56.042734,3.812028,-11.214057,44.319383,-9.567806,20.840423,13.736630,0.507733,0.290483,0.074948,0.478646,0.462591,0.000000,0.000000,0.000000,30.492188,-88.211905,11.214057,21.504812,20.840423,0.000000,0.000000,0.000000,0.000000,0.000000,0.000000,1011.903564,11.214057,25.500000,2458.000000,1762.000000,1496.000000,1308.000000,1500.000000
3.315001,57.294898,4.354591,-10.926155,44.053406,-9.381994,24.713525,14.136249,0.533545,0.332346,0.059106,0.494384,0.453775,0.000000,0.000000,0.000000,30.492200,-88.211899,10.926155,25.324455,24.713525,0.000000,0.000000,0.000000,0.000000,0.000000,0.000000,1011.938113,10.926155,25.500000,2458.000000,1762.000000,1497.000000,1310.000000,1500.000000
3.416002,58.555693,5.006236,-10.632087,43.720812,-9.121243,28.692636,14.542192,0.532739,0.335857,0.054113,0.521104,0.462704,0.000000,0.000000,0.000000,30.492211,-88.211892,10.632087,29.287132,28.692636,0.000000,0.000000,0.000000,0.000000,0.000000,0.000000,1011.973403,10.632087,25.500000,2458.000000,1762.000000,1499.000000,1306.000000,1500.000000
3.517001,59.804086,5.766057,-10.340725,43.377568,-8.733469,32.813007,14.946089,0.501778,0.335196,0.051691,0.540201,0.462906,0.000000,0.000000,0.000000,30.492222,-88.211884,10.340725,33.317741,32.813007,0.000000,0.000000,0.000000,0.000000,0.000000,0.000000,1012.008370,10.340725,25.500000,2458.000000,1762.000000,1501.000000,1310.000000,1500.000000
3.618000,61.030530,6.636899,-10.057902,43.087128,-8.224256,36.958592,15.343870,0.462233,0.325085,0.060494,0.567171,0.445778,0.000000,0.000000,0.000000,30.492233,-88.211875,10.057902,37.376491,36.958592,0.000000,0.000000,0.000000,0.000000,0.000000,0.000000,1012.042312,10.057902,25.500000,2469.000000,1762.000000,1502.000000,1309.000000,1500.000000
3.718001,62.213270,7.609529,-9.791305,42.905842,-7.502068,41.046284,15.727848,0.443154,0.314912,0.071216,0.581201,0.415091,0.000000,0.000000,0.000000,30.492244,-88.211865,9.791305,41.432629,41.046284,0.000000,0.000000,0.000000,0.000000,0.000000,0.000000,1012.074309,9.791305,25.500000,2458.000000,1762.000000,1503.000000,1316.000000,1500.000000
3.819001,63.365242,8.703317,-9.540829,42.917960,-6.658315,45.015056,16.103441,0.457002,0.273361,0.105697,0.562518,0.382823,0.000000,0.000000,0.000000,30.492254,-88.211854,9.540829,45.528987,45.015056,0.000000,0.000000,0.000000,0.000000,0.000000,0.000000,1012.104371,9.540829,25.500000,2458.000000,1762.000000,1509.000000,1325.000000,1499.000000
3.920004,64.464535,9.906014,-9.311975,43.181397,-5.741102,48.792363,16.465064,0.509974,0.221621,0.121811,0.554856,0.353244,0.000000,0.000000,0.000000,30.492264,-88.211841,9.311975,49.545200,48.792363,0.000000,0.000000,0.000000,0.000000,0.000000,0.000000,1012.131838,9.311975,25.500000,2458.000000,1762.000000,1507.000000,1334.000000,1499.000000
4.021001,65.502201,11.212750,-9.105727,43.500755,-4.828323,52.481417,16.813243,0.570320,0.168803,0.111409,0.545809,0.361174,0.000000,0.000000,0.000000,30.492273,-88.211827,9.105727,53.482049,52.481417,0.000000,0.000000,0.000000,0.000000,0.000000,0.000000,1012.156593,9.105727,25.500000,2458.000000,1762.000000,1506.000000,1343.000000,1499.000000
4.122001,66.469907,12.617923,-8.922446,43.832863,-4.052873,56.225209,17.150174,0.584943,0.118243,0.102015,0.539479,0.387239,0.000000,0.000000,0.000000,30.492282,-88.211813,8.922446,57.347322,56.225209,0.000000,0.000000,0.000000,0.000000,0.000000,0.000000,1012.178592,8.922446,25.500000,2458.000000,1762.000000,1504.000000,1351.000000,1500.000000
4.222001,67.351305,14.100283,-8.763472,44.137120,-3.417929,60.012494,17.473512,0.551571,0.074311,0.089902,0.536539,0.405269,0.000000,0.000000,0.000000,30.492290,-88.211797,8.763472,61.125554,60.012494,0.000000,0.000000,0.000000,0.000000,0.000000,0.000000,1012.197674,8.763472,25.500000,2458.000000,1762.000000,1502.000000,1357.000000,1500.000000
4.323000,68.156319,15.683328,-8.625507,44.402970,-2.840865,63.865990,17.789243,0.496169,0.034996,0.074590,0.534310,0.404639,0.000000,0.000000,0.000000,30.492297,-88.211781,8.625507,64.912438,63.865990,0.000000,0.000000,0.000000,0.000000,0.000000,0.000000,1012.214234,8.625507,25.500000,2458.000000,1762.000000,1501.000000,1363.000000,1500.000000
4.423001,68.861740,17.329273,-8.511377,44.534838,-2.347252,67.573727,18.090573,0.444978,-0.028544,0.026684,0.491237,0.400040,0.000000,0.000000,0.000000,30.492304,-88.211764,8.511377,68.624887,67.573727,0.000000,0.000000,0.000000,0.000000,0.000000,0.000000,1012.227933,8.511377,25.500000,2469.000000,1762.000000,1495.000000,1381.000000,1500.000000
4.524001,69.476824,19.063261,-8.417262,44.162213,-2.567937,70.620419,18.381802,0.386041,-0.322197,-0.312249,0.121731,0.405833,0.000000,0.000000,0.000000,30.492309,-88.211745,8.417262,72.169553,70.620419,0.000000,0.000000,0.000000,0.000000,0.000000,0.000000,1012.239230,8.417262,25.500000,2469.000000,1762.000000,1401.000000,1474.000000,1510.000000
4.624001,70.003396,20.837547,-8.325590,34.854996,-4.638307,74.061965,18.668549,-0.144037,-0.512946,-3.169484,0.206397,1.335144,0.000000,0.000000,0.000000,30.492314,-88.211727,8.325590,74.588891,74.061965,0.000000,0.000000,0.000000,0.000000,0.000000,0.000000,1012.250234,8.325590,25.500000,2458.000000,1762.000000,1059.000000,1435.000000,1544.000000
4.725001,70.473445,22.675612,-8.214968,10.278260,-8.146797,87.352775,18.561945,-3.708997,-0.764334,-4.262638,0.398943,3.111381,0.000000,0.000000,0.000000,30.492318,-88.211708,8.214968,76.633606,87.352775,0.000000,0.000000,0.000000,0.000000,0.000000,0.000000,1012.263513,8.214968,25.500000,2469.000000,1762.000000,1182.000000,1419.000000,1532.000000
4.826000,70.883054,24.544387,-8.056446,-14.474458,-4.197433,103.542739,17.283227,-7.876981,-1.270237,-3.461354,0.750194,2.063596,0.000000,0.000000,0.000000,30.492322,-88.211688,8.056446,78.717354,103.542739,0.000000,0.000000,0.000000,0.000000,0.000000,0.000000,1012.282541,8.056446,25.500000,2469.000000,1762.000000,1300.000000,1458.000000,1520.000000
4.926001,71.211765,26.401240,-7.807897,-31.343980,1.084133,105.981425,16.997866,-8.432407,-1.322873,-2.397784,0.671424,-0.551992,0.000000,0.000000,0.000000,30.492325,-88.211669,7.807897,81.146525,105.981425,0.000000,0.000000,0.000000,0.000000,0.000000,0.000000,1012.312377,7.807897,25.500000,2469.000000,1762.000000,1385.000000,1511.000000,1512.000000
5.027001,71.476898,28.281237,-7.477124,-42.837151,-1.490416,97.252871,18.316006,-5.627206,-1.010915,-1.610766,0.581600,-2.066068,0.000000,0.000000,0.000000,30.492327,-88.211649,7.477124,82.459995,97.252871,0.000000,0.000000,0.000000,0.000000,0.000000,0.000000,1012.352084,7.477124,25.500000,2469.000000,1762.000000,1442.000000,1467.000000,1506.000000
5.128000,71.741308,30.182196,-7.100734,-49.698841,-7.354987,86.359871,19.442199,-2.145565,-0.433279,-1.080626,0.765802,-1.732484,0.000000,0.000000,0.000000,30.492330,-88.211629,7.100734,81.235005,86.359871,0.000000,0.000000,0.000000,0.000000,0.000000,0.000000,1012.397269,7.100734,25.500000,2458.000000,1762.000000,1471.000000,1376.000000,1503.000000
5.228001,72.095800,32.090056,-6.717957,-53.352165,-9.858985,78.310159,19.996418,-0.473024,-0.030841,-0.640152,0.831383,-0.681377,0.000000,0.000000,0.000000,30.492333,-88.211609,6.717957,77.437524,78.310159,0.000000,0.000000,0.000000,0.000000,0.000000,0.000000,1012.443222,6.717957,25.500000,2458.000000,1762.000000,1490.000000,1344.000000,1501.000000
5.329001,72.617357,34.028788,-6.346602,-55.083960,-8.282050,72.591523,20.429671,-0.543673,0.274406,-0.317417,1.182872,-0.148068,0.000000,0.000000,0.000000,30.492337,-88.211589,6.346602,72.373815,72.591523,0.000000,0.000000,0.000000,0.000000,0.000000,0.000000,1012.487805,6.346602,25.500000,2458.000000,1762.000000,1493.000000,1238.000000,1501.000000
5.430000,73.349529,35.952168,-6.018369,-55.861498,-4.528271,65.356278,20.810142,-0.955650,0.786645,-0.269839,1.551587,-0.244831,0.000000,0.000000,0.000000,30.492344,-88.211569,6.018369,65.712616,65.356278,0.000000,0.000000,0.000000,0.000000,0.000000,0.000000,1012.527213,6.018369,25.500000,2469.000000,1762.000000,1481.000000,1187.000000,1502.000000
5.531002,74.351734,37.807301,-5.780466,-57.141015,-1.326614,57.026459,21.160499,-1.023100,0.869951,-0.288372,1.413081,-0.403446,0.000000,0.000000,0.000000,30.492353,-88.211550,5.780466,57.543748,57.026459,0.000000,0.000000,0.000000,0.000000,0.000000,0.000000,1012.555777,5.780466,25.500000,2458.000000,1762.000000,1482.000000,1212.000000,1502.000000
5.632001,75.633556,39.535260,-5.646651,-58.667966,0.651546,49.079950,21.486358,-0.869922,0.701425,-0.241826,1.327398,-0.460827,0.000000,0.000000,0.000000,30.492365,-88.211532,5.646651,49.509874,49.079950,0.000000,0.000000,0.000000,0.000000,0.000000,0.000000,1012.571843,5.646651,25.500000,2469.000000,1762.000000,1495.000000,1232.000000,1501.000000
5.733001,77.163473,41.095340,-5.601556,-59.999793,2.237562,41.166246,21.773535,-0.679317,0.616977,-0.144645,1.295191,-0.454792,0.000000,0.000000,0.000000,30.492378,-88.211515,5.601556,41.716365,41.166246,0.000000,0.000000,0.000000,0.000000,0.000000,0.000000,1012.577258,5.601556,25.500000,2458.000000,1762.000000,1496.000000,1248.000000,1500.000000
5.833001,78.892218,42.439531,-5.633216,-60.973142,3.527347,33.656912,22.025937,-0.524045,0.495691,-0.042645,1.218554,-0.441896,0.000000,0.000000,0.000000,30.492394,-88.211501,5.633216,34.159844,33.656912,0.000000,0.000000,0.000000,0.000000,0.000000,0.000000,1012.573456,5.633216,25.500000,2469.000000,1762.000000,1506.000000,1267.000000,1499.000000
5.934001,80.818238,43.570418,-5.730989,-61.488740,4.606517,26.269006,22.252958,-0.368653,0.415090,0.042634,1.193567,-0.454091,0.000000,0.000000,0.000000,30.492411,-88.211490,5.730989,26.791792,26.269006,0.000000,0.000000,0.000000,0.000000,0.000000,0.000000,1012.561717,5.730989,25.500000,2458.000000,1762.000000,1504.000000,1278.000000,1500.000000
6.035000,82.888834,44.454767,-5.887252,-61.814123,5.581077,19.009441,22.455417,-0.226985,0.351703,0.081859,1.164851,-0.429460,0.000000,0.000000,0.000000,30.492430,-88.211480,5.887252,19.563941,19.009441,0.000000,0.000000,0.000000,0.000000,0.000000,0.000000,1012.542955,5.887252,25.500000,2469.000000,1762.000000,1505.000000,1288.000000,1499.000000
6.135000,85.045800,45.073390,-6.094773,-62.022283,6.587130,12.050922,22.633903,-0.157184,0.287554,0.104535,1.130502,-0.398294,0.000000,0.000000,0.000000,30.492449,-88.211474,6.094773,12.544191,12.050922,0.000000,0.000000,0.000000,0.000000,0.000000,0.000000,1012.518040,6.094773,25.500000,2469.000000,1762.000000,1506.000000,1298.000000,1499.000000
6.236001,87.295968,45.431067,-6.353578,-62.263069,7.643874,5.233481,22.794290,-0.147817,0.236318,0.118207,1.124988,-0.374909,0.000000,0.000000,0.000000,30.492470,-88.211470,6.353578,5.622999,5.233481,0.000000,0.000000,0.000000,0.000000,0.000000,0.000000,1012.486968,6.353578,25.500000,2458.000000,1762.000000,1508.000000,1302.000000,1499.000000
6.337001,89.582421,45.516853,-6.658633,-62.561880,8.688093,-1.520546,22.936415,-0.154265,0.190394,0.127603,1.084417,-0.374822,0.000000,0.000000,0.000000,30.492490,-88.211469,6.658633,-1.239854,-1.520546,0.000000,0.000000,0.000000,0.000000,0.000000,0.000000,1012.450344,6.658633,25.500000,2458.000000,1762.000000,1509.000000,1313.000000,1499.000000
6.438001,91.870439,45.330995,-7.006989,-62.838097,9.548000,-8.100398,23.062089,-0.139414,0.124811,0.141967,1.049934,-0.391963,0.000000,0.000000,0.000000,30.492511,-88.211471,7.006989,-7.948362,-8.100398,0.000000,0.000000,0.000000,0.000000,0.000000,0.000000,1012.408523,7.006989,25.500000,2469.000000,1762.000000,1510.000000,1321.000000,1499.000000
6.538001,94.105492,44.886963,-7.389704,-63.066552,10.226568,-14.526590,23.172007,-0.092162,0.073032,0.157884,1.026419,-0.400854,0.000000,0.000000,0.000000,30.492531,-88.211476,7.389704,-14.435806,-14.526590,0.000000,0.000000,0.000000,0.000000,0.000000,0.000000,1012.362579,7.389704,25.500000,2469.000000,1762.000000,1512.000000,1328.000000,1499.000000
6.639001,96.302588,44.185985,-7.810172,-63.242166,10.825333,-20.919651,23.269842,-0.042864,0.029258,0.181015,1.005155,-0.393096,0.000000,0.000000,0.000000,30.492551,-88.211483,7.810172,-20.870944,-20.919651,0.000000,0.000000,0.000000,0.000000,0.000000,0.000000,1012.312104,7.810172,25.500000,2469.000000,1762.000000,1518.000000,1334.000000,1498.000000
6.739001,98.391148,43.254110,-8.256681,-63.341964,11.388759,-27.132063,23.354977,-0.012435,-0.010679,0.202329,0.984274,-0.386948,0.000000,0.000000,0.000000,30.492569,-88.211493,8.256681,-27.138803,-27.132063,0.000000,0.000000,0.000000,0.000000,0.000000,0.000000,1012.258506,8.256681,25.500000,2458.000000,1762.000000,1513.000000,1340.000000,1499.000000
6.840001,100.388007,42.087607,-8.735287,-63.418898,11.922448,-33.293886,23.430293,0.006398,-0.048951,0.204133,0.963082,-0.383489,0.000000,0.000000,0.000000,30.492587,-88.211505,8.735287,-33.365594,-33.293886,0.000000,0.000000,0.000000,0.000000,0.000000,0.000000,1012.201057,8.735287,25.500000,2469.000000,1762.000000,1513.000000,1345.000000,1499.000000
6.940009,102.231664,40.726465,-9.233980,-63.478339,12.399428,-39.260341,23.495220,0.016519,-0.099486,0.220054,0.912517,-0.379622,0.000000,0.000000,0.000000,30.492604,-88.211519,9.233980,-39.434377,-39.260341,0.000000,0.000000,0.000000,0.000000,0.000000,0.000000,1012.141200,9.233980,25.500000,2469.000000,1762.000000,1519.000000,1356.000000,1498.000000
7.041001,103.941410,39.163935,-9.759256,-62.066872,12.203322,-44.150976,23.546175,0.063926,-0.513823,1.011583,0.348665,-0.496667,0.000000,0.000000,0.000000,30.492619,-88.211536,9.759256,-45.185327,-44.150976,0.000000,0.000000,0.000000,0.000000,0.000000,0.000000,1012.078155,9.759256,25.500000,2469.000000,1762.000000,1693.000000,1475.000000,1481.000000
7.141001,105.510074,37.481742,-10.274272,-50.208576,7.141937,-48.002976,23.505867,1.469921,-1.351096,3.204422,-0.118029,-1.898324,0.000000,0.000000,0.000000,30.492633,-88.211553,10.274272,-48.237091,-48.002976,0.000000,0.000000,0.000000,0.000000,0.000000,0.000000,1012.016345,10.274272,25.500000,2458.000000,1762.000000,1752.000000,1546.000000,1475.000000
7.241001,107.035949,35.736861,-10.709468,-31.708976,-0.615081,-58.661561,22.929508,5.258236,-1.439444,3.076787,0.559076,-2.196189,0.000000,0.000000,0.000000,30.492647,-88.211571,10.709468,-49.462219,-58.661561,0.000000,0.000000,0.000000,0.000000,0.000000,0.000000,1011.964117,10.709468,25.500000,2469.000000,1762.000000,1659.000000,1469.000000,1484.000000
7.341001,108.518194,33.940162,-11.036838,-16.817109,-0.377287,-66.258219,22.513269,6.547821,-1.227683,2.061686,0.522736,-0.059869,0.000000,0.000000,0.000000,30.492661,-88.211590,11.036838,-51.544903,-66.258219,0.000000,0.000000,0.000000,0.000000,0.000000,0.000000,1011.924830,11.036838,25.500000,2458.000000,1762.000000,1584.000000,1496.000000,1492.000000
7.442001,109.952130,32.073217,-11.313308,-7.227924,2.412197,-62.309928,23.136404,3.865755,-1.171557,1.270292,0.182933,1.254951,0.000000,0.000000,0.000000,30.492673,-88.211610,11.313308,-53.213657,-62.309928,0.000000,0.000000,0.000000,0.000000,0.000000,0.000000,1011.891653,11.313308,25.500000,2458.000000,1762.000000,1536.000000,1524.000000,1496.000000
7.542001,111.340974,30.189794,-11.570946,-1.329283,3.261952,-56.047618,23.560227,0.940486,-1.178181,0.690068,0.006647,0.758127,0.000000,0.000000,0.000000,30.492686,-88.211629,11.570946,-53.817569,-56.047618,0.000000,0.000000,0.000000,0.000000,0.000000,0.000000,1011.860737,11.570946,25.500000,2458.000000,1762.000000,1507.000000,1526.000000,1499.000000
7.642005,112.729811,28.288224,-11.822221,1.298892,3.351375,-53.997646,23.728917,0.033662,-1.116159,0.212702,0.063696,0.046518,0.000000,0.000000,0.000000,30.492698,-88.211649,11.822221,-53.854908,-53.997646,0.000000,0.000000,0.000000,0.000000,0.000000,0.000000,1011.830585,11.822221,25.500000,2469.000000,1762.000000,1494.000000,1514.000000,1501.000000
7.743001,114.142325,26.356357,-12.079753,1.645138,4.763790,-54.134465,23.899952,0.120137,-0.667752,-0.045288,0.782998,-0.017059,0.000000,0.000000,0.000000,30.492711,-88.211669,12.079753,-53.799070,-54.134465,0.000000,0.000000,0.000000,0.000000,0.000000,0.000000,1011.799682,12.079753,25.500000,2469.000000,1762.000000,1492.000000,1356.000000,1501.000000
7.844002,115.560526,24.423626,-12.423055,1.235126,11.909711,-53.608842,24.042811,-0.001637,0.390364,-0.101435,1.128189,0.116853,0.000000,0.000000,0.000000,30.492724,-88.211690,12.423055,-53.634313,-53.608842,0.000000,0.000000,0.000000,0.000000,0.000000,0.000000,1011.758490,12.423055,25.500000,2469.000000,1762.000000,1494.000000,1325.000000,1501.000000
7.945001,116.961446,22.528223,-13.015374,0.878295,16.901349,-52.871512,24.081670,-0.227625,-0.003211,-0.082021,0.713270,0.068983,0.000000,0.000000,0.000000,30.492737,-88.211709,13.015374,-53.438201,-52.871512,0.000000,0.000000,0.000000,0.000000,0.000000,0.000000,1011.687420,13.015374,25.500000,2458.000000,1762.000000,1496.000000,1368.000000,1500.000000
8.046001,118.330752,20.686800,-13.814748,0.506500,20.603305,-52.746826,24.032602,-0.220601,-0.289334,-0.061190,0.575278,-0.034198,0.000000,0.000000,0.000000,30.492749,-88.211729,13.814748,-53.305144,-52.746826,0.000000,0.000000,0.000000,0.000000,0.000000,0.000000,1011.591514,13.814748,25.500000,2469.000000,1762.000000,1497.000000,1405.000000,1500.000000
8.146001,119.650270,18.918350,-14.754114,0.117112,23.537390,-53.026810,23.919499,-0.085860,-0.484826,-0.038022,0.443129,-0.047419,0.000000,0.000000,0.000000,30.492761,-88.211747,14.754114,-53.250633,-53.026810,0.000000,0.000000,0.000000,0.000000,0.000000,0.000000,1011.478821,14.754114,25.500000,2469.000000,1762.000000,1499.000000,1435.000000,1500.000000
8.247001,120.944550,17.185293,-15.813032,-0.107869,25.769437,-53.228010,23.752387,-0.006309,-0.655433,-0.013041,0.334477,-0.015348,0.000000,0.000000,0.000000,30.492772,-88.211765,15.813032,-53.248437,-53.228010,0.000000,0.000000,0.000000,0.000000,0.000000,0.000000,1011.351798,15.813032,25.500000,2469.000000,1762.000000,1501.000000,1457.000000,1500.000000
8.347001,122.189953,15.517224,-16.938091,-0.132271,27.448851,-53.275013,23.547892,0.006878,-0.777485,0.007990,0.254971,-0.003387,0.000000,0.000000,0.000000,30.492784,-88.211783,16.938091,-53.260772,-53.275013,0.000000,0.000000,0.000000,0.000000,0.000000,0.000000,1011.216856,16.938091,25.500000,2458.000000,1762.000000,1501.000000,1474.000000,1500.000000
8.448001,123.414821,13.875934,-18.126956,-0.087216,28.737001,-53.311382,23.311748,0.015062,-0.865285,0.008277,0.192683,-0.006575,0.000000,0.000000,0.000000,30.492795,-88.211800,18.126956,-53.272003,-53.311382,0.000000,0.000000,0.000000,0.000000,0.000000,0.000000,1011.074276,18.126956,25.500000,2469.000000,1762.000000,1500.000000,1487.000000,1500.000000
8.549001,124.610003,12.273815,-19.350003,-0.071684,29.708006,-53.330130,23.053152,0.017708,-0.925959,0.001797,0.145242,0.002333,0.000000,0.000000,0.000000,30.492805,-88.211816,19.350003,-53.281624,-53.330130,0.000000,0.000000,0.000000,0.000000,0.000000,0.000000,1010.927613,19.350003,25.500000,2469.000000,1762.000000,1500.000000,1496.000000,1500.000000
8.649001,125.767145,10.722249,-20.580813,-0.048658,30.430313,-53.297729,22.780483,0.004357,-0.965183,0.000952,0.108561,0.005791,0.000000,0.000000,0.000000,30.492816,-88.211833,20.580813,-53.287134,-53.297729,0.000000,0.000000,0.000000,0.000000,0.000000,0.000000,1010.780038,20.580813,25.500000,2458.000000,1762.000000,1500.000000,1504.000000,1500.000000
8.750001,126.912020,9.186947,-21.833540,-0.030984,30.973169,-53.273302,22.492435,-0.004483,-0.988742,0.000780,0.080112,0.001080,0.000000,0.000000,0.000000,30.492826,-88.211849,21.833540,-53.288612,-53.273302,0.000000,0.000000,0.000000,0.000000,0.000000,0.000000,1010.629852,21.833540,25.500000,2469.000000,1762.000000,1500.000000,1509.000000,1500.000000
8.851001,128.035057,7.680882,-23.088003,-0.031441,31.370775,-53.279832,22.194853,-0.002564,-0.999949,0.000210,0.058041,-0.002155,0.000000,0.000000,0.000000,30.492836,-88.211864,23.088003,-53.289502,-53.279832,0.000000,0.000000,0.000000,0.000000,0.000000,0.000000,1010.479476,23.088003,25.500000,2469.000000,1762.000000,1500.000000,1513.000000,1500.000000
8.952001,129.137897,6.201824,-24.338187,-0.038449,31.655850,-53.293085,21.890171,0.001153,-1.001595,-0.000163,0.040641,-0.001238,0.000000,0.000000,0.000000,30.492846,-88.211880,24.338187,-53.291550,-53.293085,0.000000,0.000000,0.000000,0.000000,0.000000,0.000000,1010.329631,24.338187,25.500000,2469.000000,1762.000000,1500.000000,1516.000000,1500.000000
9.053002,130.221835,4.747990,-25.579533,-0.040812,31.853007,-53.295722,21.580244,0.001235,-0.995864,-0.000127,0.027075,0.000328,0.000000,0.000000,0.000000,30.492856,-88.211895,25.579533,-53.294020,-53.295722,0.000000,0.000000,0.000000,0.000000,0.000000,0.000000,1010.180863,25.579533,25.500000,2469.000000,1762.000000,1500.000000,1518.000000,1500.000000
9.154000,131.287917,3.317988,-26.808576,-0.039435,31.980475,-53.292547,21.266489,-0.000404,-0.984480,0.000011,0.017186,0.000394,0.000000,0.000000,0.000000,30.492865,-88.211910,26.808576,-53.296075,-53.292547,0.000000,0.000000,0.000000,0.000000,0.000000,0.000000,1010.033587,26.808576,25.500000,2469.000000,1762.000000,1500.000000,1519.000000,1500.000000
9.254002,132.326672,1.924545,-28.010730,-0.039065,32.052057,-53.292189,20.953127,-0.001031,-0.969398,0.000030,0.007746,-0.000274,0.000000,0.000000,0.000000,30.492875,-88.211924,28.010730,-53.297800,-53.292189,0.000000,0.000000,0.000000,0.000000,0.000000,0.000000,1009.889551,28.010730,25.500000,2469.000000,1762.000000,1500.000000,1520.000000,1500.000000
9.355000,133.359554,0.538893,-29.207967,-0.040785,32.083984,-53.295446,20.634873,-0.000571,-0.948692,-0.000030,0.003148,-0.000570,0.000000,0.000000,0.000000,30.492884,-88.211939,29.207967,-53.299642,-53.295446,0.000000,0.000000,0.000000,0.000000,0.000000,0.000000,1009.746119,29.207967,25.500000,2458.000000,1762.000000,1500.000000,1520.000000,1500.000000
9.455001,134.366578,-0.812166,-30.375155,-0.042905,32.085772,-53.298881,20.318562,-0.000130,-0.926252,-0.000065,-0.002645,-0.000405,0.000000,0.000000,0.000000,30.492893,-88.211953,30.375155,-53.301691,-53.298881,0.000000,0.000000,0.000000,0.000000,0.000000,0.000000,1009.606304,30.375155,25.500000,2458.000000,1762.000000,1500.000000,1520.000000,1500.000000
9.555001,135.358410,-2.142946,-31.523168,-0.044314,32.053108,-53.300861,20.001394,-0.000162,-0.903684,-0.000055,-0.008781,-0.000216,0.000000,0.000000,0.000000,30.492902,-88.211967,31.523168,-53.303843,-53.300861,0.000000,0.000000,0.000000,0.000000,0.000000,0.000000,1009.468801,31.523168,25.500000,2458.000000,1762.000000,1500.000000,1520.000000,1500.000000
9.656002,136.345133,-3.466973,-32.662133,-0.045275,31.987819,-53.302177,19.680721,-0.000396,-0.878984,-0.000037,-0.011370,-0.000218,0.000000,0.000000,0.000000,30.492911,-88.211981,32.662133,-53.306017,-53.302177,0.000000,0.000000,0.000000,0.000000,0.000000,0.000000,1009.332396,32.662133,25.500000,2458.000000,1762.000000,1500.000000,1519.000000,1500.000000
9.757000,137.317092,-4.771296,-33.779608,-0.046401,31.908987,-53.303929,19.360235,-0.000511,-0.851814,-0.000035,-0.017154,-0.000320,0.000000,0.000000,0.000000,30.492920,-88.211994,33.779608,-53.308222,-53.303929,0.000000,0.000000,0.000000,0.000000,0.000000,0.000000,1009.198580,33.779608,25.500000,2469.000000,1762.000000,1500.000000,1519.000000,1500.000000
9.857001,138.265098,-6.043577,-34.864350,-0.047850,31.811625,-53.306252,19.043290,-0.000480,-0.823710,-0.000044,-0.019598,-0.000385,0.000000,0.000000,0.000000,30.492928,-88.212008,34.864350,-53.310491,-53.306252,0.000000,0.000000,0.000000,0.000000,0.000000,0.000000,1009.068697,34.864350,25.500000,2469.000000,1762.000000,1500.000000,1518.000000,1500.000000
9.957001,139.199049,-7.297100,-35.927091,-0.049448,31.698250,-53.308763,18.726944,-0.000430,-0.794813,-0.000052,-0.021276,-0.000387,0.000000,0.000000,0.000000,30.492937,-88.212021,35.927091,-53.312873,-53.308763,0.000000,0.000000,0.000000,0.000000,0.000000,0.000000,1008.941462,35.927091,25.500000,2469.000000,1762.000000,1500.000000,1516.000000,1500.000000
10.057001,140.119119,-8.532105,-36.967491,-0.051025,31.571531,-53.311185,18.411415,-0.000437,-0.765006,-0.000054,-0.022869,-0.000373,0.000000,0.000000,0.000000,30.492945,-88.212034,36.967491,-53.315363,-53.311185,0.000000,0.000000,0.000000,0.000000,0.000000,0.000000,1008.816913,36.967491,25.500000,2469.000000,1762.000000,1500.000000,1515.000000,1500.000000
10.158000,141.034462,-9.760877,-37.995349,-0.052588,31.430605,-53.313579,18.093727,-0.000486,-0.734453,-0.000054,-0.025624,-0.000381,0.000000,0.000000,0.000000,30.492953,-88.212047,37.995349,-53.317981,-53.313579,0.000000,0.000000,0.000000,0.000000,0.000000,0.000000,1008.693879,37.995349,25.500000,2469.000000,1762.000000,1500.000000,1514.000000,1500.000000
10.258001,141.927095,-10.959280,-38.990105,-0.054185,31.278172,-53.316053,17.780344,-0.000535,-0.703717,-0.000055,-0.027242,-0.000408,0.000000,0.000000,0.000000,30.492961,-88.212059,38.990105,-53.320675,-53.316053,0.000000,0.000000,0.000000,0.000000,0.000000,0.000000,1008.574819,38.990105,25.500000,2458.000000,1762.000000,1500.000000,1512.000000,1500.000000
10.359001,142.815009,-12.151468,-39.971489,-0.055902,31.113050,-53.318740,17.465160,-0.000565,-0.672267,-0.000058,-0.030156,-0.000440,0.000000,0.000000,0.000000,30.492969,-88.212071,39.971489,-53.323516,-53.318740,0.000000,0.000000,0.000000,0.000000,0.000000,0.000000,1008.457370,39.971489,25.500000,2458.000000,1762.000000,1500.000000,1511.000000,1500.000000
10.460001,143.689336,-13.325536,-40.929327,-0.057718,30.928506,-53.321592,17.151316,-0.000586,-0.644170,-0.000062,-0.044495,-0.000466,0.000000,0.000000,0.000000,30.492977,-88.212084,40.929327,-53.326495,-53.321592,0.000000,0.000000,0.000000,0.000000,0.000000,0.000000,1008.342749,40.929327,25.500000,2469.000000,1762.000000,1500.000000,1515.000000,1500.000000
10.560001,144.541189,-14.469554,-41.855543,-0.058247,28.449421,-53.321840,16.801850,-0.000610,-1.236824,-0.000075,-1.077010,-0.000484,0.000000,0.000000,0.000000,30.492985,-88.212096,41.855543,-53.329379,-53.321840,0.000000,0.000000,0.000000,0.000000,0.000000,0.000000,1008.231923,41.855543,25.500000,2458.000000,1762.000000,1500.000000,1785.000000,1500.000000
10.661001,145.405991,-15.630989,-42.716258,-0.056731,21.307315,-53.317045,16.400124,-0.000655,-2.001860,-0.000096,-1.470632,-0.000488,0.000000,0.000000,0.000000,30.492993,-88.212108,42.716258,-53.327445,-53.317045,0.000000,0.000000,0.000000,0.000000,0.000000,0.000000,1008.128943,42.716258,25.500000,2469.000000,1762.000000,1500.000000,1904.000000,1500.000000
10.762001,146.302433,-16.834753,-43.406950,-0.055236,10.920340,-53.309446,16.010431,-0.000724,-2.668898,-0.000116,-1.773745,-0.000495,0.000000,0.000000,0.000000,30.493001,-88.212120,43.406950,-53.321896,-53.309446,0.000000,0.000000,0.000000,0.000000,0.000000,0.000000,1008.046312,43.406950,25.500000,2469.000000,1762.000000,1500.000000,1947.000000,1500.000000
10.862001,147.229842,-18.079804,-43.840383,-0.055275,2.362323,-53.304060,15.891796,-0.000794,-2.405028,-0.000118,-1.264838,-0.000520,0.000000,0.000000,0.000000,30.493009,-88.212133,43.840383,-53.315393,-53.304060,0.000000,0.000000,0.000000,0.000000,0.000000,0.000000,1007.994461,43.840383,25.500000,2458.000000,1762.000000,1500.000000,1862.000000,1500.000000
10.963000,148.191758,-19.370922,-44.033945,-0.055995,-4.126291,-53.300887,15.966726,-0.000825,-2.008755,-0.000117,-1.024733,-0.000560,0.000000,0.000000,0.000000,30.493018,-88.212147,44.033945,-53.310846,-53.300887,0.000000,0.000000,0.000000,0.000000,0.000000,0.000000,1007.971306,44.033945,25.500000,2469.000000,1762.000000,1500.000000,1803.000000,1500.000000
11.063002,149.157064,-20.666413,-44.026308,-0.056909,-9.585859,-53.298793,16.162844,-0.000804,-1.755037,-0.000117,-0.875358,-0.000587,0.000000,0.000000,0.000000,30.493026,-88.212160,44.026308,-53.307797,-53.298793,0.000000,0.000000,0.000000,0.000000,0.000000,0.000000,1007.972219,44.026308,25.500000,2469.000000,1762.000000,1500.000000,1749.000000,1500.000000
11.164001,150.140156,-21.985653,-43.847764,-0.057847,-14.248563,-53.297509,16.468700,-0.000752,-1.564744,-0.000116,-0.735213,-0.000587,0.000000,0.000000,0.000000,30.493035,-88.212174,43.847764,-53.305689,-53.297509,0.000000,0.000000,0.000000,0.000000,0.000000,0.000000,1007.993578,43.847764,25.500000,2458.000000,1762.000000,1500.000000,1702.000000,1500.000000
11.265001,151.130335,-23.314319,-43.520978,-0.058676,-18.116793,-53.296898,16.866103,-0.000700,-1.413231,-0.000112,-0.604915,-0.000567,0.000000,0.000000,0.000000,30.493044,-88.212188,43.520978,-53.304372,-53.296898,0.000000,0.000000,0.000000,0.000000,0.000000,0.000000,1008.032671,43.520978,25.500000,2469.000000,1762.000000,1500.000000,1663.000000,1500.000000
11.365001,152.118913,-24.640792,-43.070831,-0.059317,-21.259800,-53.296832,17.333243,-0.000662,-1.298685,-0.000104,-0.494908,-0.000541,0.000000,0.000000,0.000000,30.493053,-88.212202,43.070831,-53.303749,-53.296832,0.000000,0.000000,0.000000,0.000000,0.000000,0.000000,1008.086523,43.070831,25.500000,2458.000000,1762.000000,1500.000000,1632.000000,1500.000000
11.466000,153.128257,-25.995112,-42.504833,-0.059737,-23.839210,-53.297247,17.865276,-0.000633,-1.213814,-0.000096,-0.398821,-0.000518,0.000000,0.000000,0.000000,30.493062,-88.212216,42.504833,-53.303707,-53.297247,0.000000,0.000000,0.000000,0.000000,0.000000,0.000000,1008.154238,42.504833,25.500000,2469.000000,1762.000000,1500.000000,1606.000000,1500.000000
11.567000,154.151833,-27.368540,-41.840786,-0.059904,-25.902228,-53.298116,18.445994,-0.000602,-1.154183,-0.000089,-0.316439,-0.000499,0.000000,0.000000,0.000000,30.493071,-88.212230,41.840786,-53.304173,-53.298116,0.000000,0.000000,0.000000,0.000000,0.000000,0.000000,1008.233689,41.840786,25.500000,2469.000000,1762.000000,1500.000000,1586.000000,1500.000000
11.667001,155.182829,-28.751959,-41.098303,-0.059829,-27.510206,-53.299371,19.059113,-0.000566,-1.116044,-0.000082,-0.246910,-0.000478,0.000000,0.000000,0.000000,30.493080,-88.212245,41.098303,-53.305061,-53.299371,0.000000,0.000000,0.000000,0.000000,0.000000,0.000000,1008.322530,41.098303,25.500000,2469.000000,1762.000000,1500.000000,1569.000000,1500.000000
11.768001,156.245451,-30.177870,-40.272564,-0.059541,-28.763208,-53.300955,19.708619,-0.000530,-1.095574,-0.000077,-0.187902,-0.000455,0.000000,0.000000,0.000000,30.493090,-88.212260,40.272564,-53.306315,-53.300955,0.000000,0.000000,0.000000,0.000000,0.000000,0.000000,1008.421340,40.272564,25.500000,2458.000000,1762.000000,1500.000000,1557.000000,1500.000000
11.869002,157.332930,-31.637212,-39.379316,-0.059080,-29.705377,-53.302771,20.381617,-0.000498,-1.090783,-0.000071,-0.139226,-0.000430,0.000000,0.000000,0.000000,30.493100,-88.212275,39.379316,-53.307858,-53.302771,0.000000,0.000000,0.000000,0.000000,0.000000,0.000000,1008.528238,39.379316,25.500000,2469.000000,1762.000000,1500.000000,1547.000000,1500.000000
11.970001,158.448426,-33.134240,-38.426099,-0.058480,-30.390653,-53.304756,21.072394,-0.000472,-1.099120,-0.000066,-0.099428,-0.000407,0.000000,0.000000,0.000000,30.493110,-88.212291,38.426099,-53.309621,-53.304756,0.000000,0.000000,0.000000,0.000000,0.000000,0.000000,1008.642322,38.426099,25.500000,2469.000000,1762.000000,1500.000000,1541.000000,1500.000000
12.071001,159.594740,-34.672732,-37.419437,-0.057774,-30.868829,-53.306864,21.776209,-0.000448,-1.118880,-0.000061,-0.067019,-0.000387,0.000000,0.000000,0.000000,30.493120,-88.212307,37.419437,-53.311541,-53.306864,0.000000,0.000000,0.000000,0.000000,0.000000,0.000000,1008.762814,37.419437,25.500000,2458.000000,1762.000000,1500.000000,1536.000000,1500.000000
12.172000,160.774354,-36.256030,-36.365121,-0.056891,-31.016730,-53.309242,22.492824,-0.000425,-1.086602,-0.000057,0.097113,-0.000369,0.000000,0.000000,0.000000,30.493131,-88.212323,36.365121,-53.313576,-53.309242,0.000000,0.000000,0.000000,0.000000,0.000000,0.000000,1008.889023,36.365121,25.500000,2458.000000,1762.000000,1500.000000,1483.000000,1500.000000
12.272001,161.981211,-37.876038,-35.291224,-0.054010,-27.323881,-53.315713,23.239967,-0.000401,-0.103003,-0.000044,1.271634,-0.000357,0.000000,0.000000,0.000000,30.493142,-88.212340,35.291224,-53.317062,-53.315713,0.000000,0.000000,0.000000,0.000000,0.000000,0.000000,1009.017588,35.291224,25.500000,2469.000000,1762.000000,1500.000000,1271.000000,1500.000000
12.372001,163.265599,-39.600501,-34.325246,-0.050215,-19.357580,-53.325810,23.906220,-0.000363,0.555016,-0.000033,1.146460,-0.000351,0.000000,0.000000,0.000000,30.493153,-88.212358,34.325246,-53.325450,-53.325810,0.000000,0.000000,0.000000,0.000000,0.000000,0.000000,1009.133245,34.325246,25.500000,2469.000000,1762.000000,1500.000000,1306.000000,1500.000000
12.473001,164.659196,-41.472176,-33.600310,-0.048252,-13.042208,-53.333512,24.479813,-0.000331,0.411097,-0.000033,1.198478,-0.000329,0.000000,0.000000,0.000000,30.493166,-88.212378,33.600310,-53.333436,-53.333512,0.000000,0.000000,0.000000,0.000000,0.000000,0.000000,1009.220050,33.600310,25.500000,2469.000000,1762.000000,1500.000000,1293.000000,1500.000000
12.573001,166.109142,-43.420073,-33.144354,-0.047233,-7.071698,-53.340418,24.940994,-0.000330,0.147270,-0.000032,0.810259,-0.000311,0.000000,0.000000,0.000000,30.493179,-88.212398,33.144354,-53.340868,-53.340418,0.000000,0.000000,0.000000,0.000000,0.000000,0.000000,1009.274649,33.144354,25.500000,2469.000000,1762.000000,1500.000000,1365.000000,1500.000000
12.673001,167.603644,-45.428312,-32.932750,-0.047028,-4.108209,-53.344635,25.296538,-0.000342,-0.590933,-0.000037,0.253356,-0.000304,0.000000,0.000000,0.000000,30.493192,-88.212419,32.932750,-53.346490,-53.344635,0.000000,0.000000,0.000000,0.000000,0.000000,0.000000,1009.299989,32.932750,25.500000,2458.000000,1762.000000,1500.000000,1459.000000,1500.000000
12.774000,169.137862,-47.490254,-32.860946,-0.047072,-2.553950,-53.347670,25.590531,-0.000353,-0.872286,-0.000039,0.277478,-0.000303,0.000000,0.000000,0.000000,30.493206,-88.212441,32.860946,-53.350047,-53.347670,0.000000,0.000000,0.000000,0.000000,0.000000,0.000000,1009.308587,32.860946,25.500000,2458.000000,1762.000000,1500.000000,1474.000000,1500.000000
12.874001,170.674215,-49.555311,-32.872261,-0.047206,-1.144325,-53.350570,25.850439,-0.000355,-0.986747,-0.000040,0.212963,-0.000304,0.000000,0.000000,0.000000,30.493220,-88.212462,32.872261,-53.353142,-53.350570,0.000000,0.000000,0.000000,0.000000,0.000000,0.000000,1009.307232,32.872261,25.500000,2458.000000,1762.000000,1500.000000,1489.000000,1500.000000
12.975000,172.240264,-51.660509,-32.950818,-0.047413,-0.066519,-53.353216,26.084686,-0.000352,-1.090965,-0.000041,0.162523,-0.000302,0.000000,0.000000,0.000000,30.493234,-88.212484,32.950818,-53.355958,-53.353216,0.000000,0.000000,0.000000,0.000000,0.000000,0.000000,1009.297825,32.950818,25.500000,2458.000000,1762.000000,1500.000000,1499.000000,1500.000000
13.075001,173.802960,-53.761406,-33.080644,-0.047664,0.751261,-53.355619,26.295276,-0.000352,-1.172557,-0.000041,0.124934,-0.000300,0.000000,0.000000,0.000000,30.493248,-88.212506,33.080644,-53.358501,-53.355619,0.000000,0.000000,0.000000,0.000000,0.000000,0.000000,1009.282278,33.080644,25.500000,2458.000000,1762.000000,1500.000000,1508.000000,1500.000000
13.176001,175.392239,-55.898231,-33.252876,-0.047946,1.385359,-53.357881,26.491305,-0.000354,-1.238596,-0.000041,0.095341,-0.000299,0.000000,0.000000,0.000000,30.493262,-88.212528,33.252876,-53.360881,-53.357881,0.000000,0.000000,0.000000,0.000000,0.000000,0.000000,1009.261654,33.252876,25.500000,2469.000000,1762.000000,1500.000000,1514.000000,1500.000000
13.277001,176.991662,-58.048877,-33.457521,-0.048248,1.871555,-53.360023,26.674356,-0.000355,-1.291923,-0.000042,0.073464,-0.000299,0.000000,0.000000,0.000000,30.493277,-88.212551,33.457521,-53.363117,-53.360023,0.000000,0.000000,0.000000,0.000000,0.000000,0.000000,1009.237148,33.457521,25.500000,2458.000000,1762.000000,1500.000000,1519.000000,1500.000000
13.377004,178.584679,-60.191077,-33.685294,-0.048561,2.242554,-53.362053,26.845670,-0.000355,-1.335037,-0.000042,0.057328,-0.000299,0.000000,0.000000,0.000000,30.493291,-88.212573,33.685294,-53.365223,-53.362053,0.000000,0.000000,0.000000,0.000000,0.000000,0.000000,1009.209873,33.685294,25.500000,2458.000000,1762.000000,1500.000000,1522.000000,1500.000000
13.478001,180.202758,-62.367145,-33.935502,-0.048887,2.532173,-53.364032,27.010859,-0.000355,-1.371289,-0.000042,0.044343,-0.000299,0.000000,0.000000,0.000000,30.493306,-88.212596,33.935502,-53.367268,-53.364032,0.000000,0.000000,0.000000,0.000000,0.000000,0.000000,1009.179913,33.935502,25.500000,2458.000000,1762.000000,1500.000000,1525.000000,1500.000000
13.578001,181.813586,-64.533619,-34.199219,-0.049217,2.756495,-53.365940,27.168344,-0.000356,-1.401030,-0.000042,0.035037,-0.000299,0.000000,0.000000,0.000000,30.493320,-88.212619,34.199219,-53.369231,-53.365940,0.000000,0.000000,0.000000,0.000000,0.000000,0.000000,1009.148336,34.199219,25.500000,2469.000000,1762.000000,1500.000000,1528.000000,1500.000000
13.679000,183.449174,-66.733549,-34.478667,-0.049556,2.933209,-53.367828,27.322480,-0.000357,-1.427248,-0.000042,0.027951,-0.000300,0.000000,0.000000,0.000000,30.493335,-88.212642,34.478667,-53.371168,-53.367828,0.000000,0.000000,0.000000,0.000000,0.000000,0.000000,1009.114876,34.478667,25.500000,2469.000000,1762.000000,1500.000000,1529.000000,1500.000000
13.780000,185.093299,-68.945117,-34.768929,-0.049900,3.075283,-53.369688,27.472694,-0.000357,-1.449717,-0.000043,0.020826,-0.000300,0.000000,0.000000,0.000000,30.493350,-88.212665,34.768929,-53.373071,-53.369688,0.000000,0.000000,0.000000,0.000000,0.000000,0.000000,1009.080122,34.768929,25.500000,2469.000000,1762.000000,1500.000000,1531.000000,1500.000000
13.880001,186.729428,-71.146081,-35.065240,-0.050243,3.186796,-53.371508,27.618198,-0.000358,-1.470068,-0.000043,0.016193,-0.000300,0.000000,0.000000,0.000000,30.493364,-88.212688,35.065240,-53.374931,-53.371508,0.000000,0.000000,0.000000,0.000000,0.000000,0.000000,1009.044645,35.065240,25.500000,2458.000000,1762.000000,1500.000000,1532.000000,1500.000000
13.981001,188.390178,-73.380316,-35.372172,-0.050594,3.279779,-53.373332,27.762516,-0.000359,-1.488160,-0.000043,0.012707,-0.000301,0.000000,0.000000,0.000000,30.493379,-88.212711,35.372172,-53.376791,-53.373332,0.000000,0.000000,0.000000,0.000000,0.000000,0.000000,1009.007897,35.372172,25.500000,2469.000000,1762.000000,1500.000000,1533.000000,1500.000000
