Time (sec) ,X(m) ,Y(m) ,Z(m) ,Roll (deg) ,Pitch (deg) ,Yaw (deg) ,U(m/s) ,V(m/s) ,W(m/s) ,P(rad/s) ,Q(rad/s) ,R(rad/s) ,Mx(Gauss) ,My(Gauss) ,Mz(Gauss) ,GPS Latitude (deg) ,GPS Longitude (deg) ,GPS Altitude (m) ,GPS Heading (deg) ,Yaw (deg) ,Analog 1 (V) ,Analog 2 (V) ,Analog 3 (V) ,Analog 4 (V) ,Analog 5 (V) ,Analog 6 (V) ,Pressure (Pa) ,Pressure Altitude (m) ,Temperature (C) ,RC In Channel #5 ,PWM Model 1 ,PWM Model 2 ,PWM Model 3 ,PWM Model 4 
 0.000038,20.010000,-0.000000,-9.999998,0.057153,-0.000084,-0.000197,9.999710,0.000006,0.003986,0.995018,-0.002948,-0.006888,0.000000,0.000000,0.000000,30.491864,-88.211945,9.999998,-0.000095,-0.000197,0.000000,0.000000,0.000000,0.000000,0.000000,0.000000,1012.049262,9.999998,25.500000,992.000000,992.000000,1500.000000,1500.000000,1500.000000
0.101000,21.022987,0.000540,-9.982785,4.531663,-0.728177,-1.572586,10.061948,0.306562,0.166146,0.573572,-0.254885,-0.435450,0.000000,0.000000,0.000000,30.491873,-88.211945,9.982785,0.092092,-1.572586,0.000000,0.000000,0.000000,0.000000,0.000000,0.000000,1012.051328,9.982785,25.500000,992.000000,1500.000000,1500.000000,1500.000000,1500.000000
0.201001,22.033169,0.003740,-9.936572,7.026670,-2.239550,-4.347232,10.126652,0.836984,0.117076,0.294104,-0.345817,-0.411372,0.000000,0.000000,0.000000,30.491882,-88.211945,9.936572,0.268339,-4.347232,0.000000,0.000000,0.000000,0.000000,0.000000,0.000000,1012.056874,9.936572,25.500000,992.000000,1500.000000,1500.000000,1500.000000,1500.000000
0.302001,23.062354,0.009999,-9.857488,8.303434,-4.031091,-6.221295,10.213103,1.207177,0.066350,0.131590,-0.346689,-0.119530,0.000000,0.000000,0.000000,30.491892,-88.211944,9.857488,0.423098,-6.221295,0.000000,0.000000,0.000000,0.000000,0.000000,0.000000,1012.066365,9.857488,25.500000,992.000000,1500.000000,1500.000000,1500.000000,1500.000000
0.402001,24.091832,0.019023,-9.743926,8.816652,-6.000074,-6.194056,10.362826,1.243995,0.042732,0.062922,-0.331136,0.225184,0.000000,0.000000,0.000000,30.491901,-88.211944,9.743926,0.586997,-6.194056,0.000000,0.000000,0.000000,0.000000,0.000000,0.000000,1012.079995,9.743926,25.500000,992.000000,1500.000000,1500.000000,1500.000000,1500.000000
0.503001,25.144328,0.031907,-9.592790,8.906123,-8.178184,-4.412173,10.581507,0.974488,0.023992,0.052281,-0.318641,0.468030,0.000000,0.000000,0.000000,30.491910,-88.211944,9.592790,0.830312,-4.412173,0.000000,0.000000,0.000000,0.000000,0.000000,0.000000,1012.098134,9.592790,25.500000,992.000000,1500.000000,1500.000000,1500.000000,1500.000000
0.604001,26.211968,0.050604,-9.404900,8.806927,-10.426020,-1.707206,10.835788,0.545953,-0.000041,0.066664,-0.306601,0.532333,0.000000,0.000000,0.000000,30.491920,-88.211944,9.404900,1.193014,-1.707206,0.000000,0.000000,0.000000,0.000000,0.000000,0.000000,1012.120685,9.404900,25.500000,992.000000,1500.000000,1500.000000,1500.000000,1500.000000
0.704001,27.286100,0.077341,-9.182385,8.715490,-12.556249,0.888419,11.100437,0.145775,-0.028010,0.079892,-0.292873,0.437280,0.000000,0.000000,0.000000,30.491930,-88.211944,9.182385,1.670059,0.888419,0.000000,0.000000,0.000000,0.000000,0.000000,0.000000,1012.147393,9.182385,25.500000,992.000000,1500.000000,1500.000000,1500.000000,1500.000000
0.805001,28.390085,0.114951,-8.920496,8.762683,-14.495993,2.694818,11.383464,-0.098294,-0.059047,0.078850,-0.277465,0.258709,0.000000,0.000000,0.000000,30.491939,-88.211943,8.920496,2.234402,2.694818,0.000000,0.000000,0.000000,0.000000,0.000000,0.000000,1012.178826,8.920496,25.500000,992.000000,1500.000000,1500.000000,1500.000000,1500.000000
0.906000,29.514997,0.164740,-8.621111,8.978944,-16.186359,3.455212,11.691708,-0.139257,-0.093075,0.062668,-0.260545,0.090425,0.000000,0.000000,0.000000,30.491950,-88.211943,8.621111,2.826325,3.455212,0.000000,0.000000,0.000000,0.000000,0.000000,0.000000,1012.214762,8.621111,25.500000,992.000000,1500.000000,1500.000000,1500.000000,1500.000000
1.006000,30.651035,0.226579,-8.287715,9.279733,-17.642477,3.434910,12.022141,-0.029424,-0.129058,0.039585,-0.242208,-0.001027,0.000000,0.000000,0.000000,30.491960,-88.211942,8.287715,3.391189,3.434910,0.000000,0.000000,0.000000,0.000000,0.000000,0.000000,1012.254780,8.287715,25.500000,992.000000,1500.000000,1500.000000,1500.000000,1500.000000
1.106001,31.810846,0.300741,-7.917626,9.533447,-18.949383,3.154965,12.373052,0.129909,-0.165847,0.019515,-0.222950,-0.002216,0.000000,0.000000,0.000000,30.491970,-88.211941,7.917626,3.911184,3.154965,0.000000,0.000000,0.000000,0.000000,0.000000,0.000000,1012.299205,7.917626,25.500000,992.000000,1500.000000,1500.000000,1500.000000,1500.000000
1.207001,33.007987,0.387792,-7.506864,9.632916,-20.189675,3.086676,12.746504,0.244357,-0.203107,0.009079,-0.203449,0.057757,0.000000,0.000000,0.000000,30.491981,-88.211941,7.506864,4.394673,3.086676,0.000000,0.000000,0.000000,0.000000,0.000000,0.000000,1012.348514,7.506864,25.500000,992.000000,1500.000000,1500.000000,1500.000000,1500.000000
1.308001,34.232528,0.486961,-7.059354,9.548508,-21.385988,3.459018,13.139416,0.264636,-0.240666,0.009168,-0.184216,0.127033,0.000000,0.000000,0.000000,30.491992,-88.211939,7.059354,4.857473,3.459018,0.000000,0.000000,0.000000,0.000000,0.000000,0.000000,1012.402237,7.059354,25.500000,992.000000,1500.000000,1500.000000,1500.000000,1500.000000
1.408001,35.473353,0.597478,-6.580545,9.343784,-22.513704,4.188273,13.545889,0.206467,-0.278244,0.015135,-0.165376,0.163017,0.000000,0.000000,0.000000,30.492003,-88.211938,6.580545,5.317110,4.188273,0.000000,0.000000,0.000000,0.000000,0.000000,0.000000,1012.459719,6.580545,25.500000,992.000000,1500.000000,1500.000000,1500.000000,1500.000000
1.509000,36.756593,0.722340,-6.061413,9.117502,-23.554914,5.036715,13.970710,0.122621,-0.316308,0.020948,-0.146596,0.154218,0.000000,0.000000,0.000000,30.492015,-88.211937,6.061413,5.793256,5.036715,0.000000,0.000000,0.000000,0.000000,0.000000,0.000000,1012.522045,6.061413,25.500000,992.000000,1500.000000,1500.000000,1500.000000,1500.000000
1.609001,38.058049,0.859958,-5.512908,8.954061,-24.456083,5.750704,14.403022,0.067021,-0.353859,0.022530,-0.128400,0.117797,0.000000,0.000000,0.000000,30.492026,-88.211936,5.512908,6.272684,5.750704,0.000000,0.000000,0.000000,0.000000,0.000000,0.000000,1012.587901,5.512908,25.500000,992.000000,1500.000000,1500.000000,1500.000000,1500.000000
1.709001,39.391441,1.012227,-4.930905,8.867069,-25.220223,6.250466,14.845461,0.059110,-0.391166,0.019789,-0.110684,0.082179,0.000000,0.000000,0.000000,30.492038,-88.211934,4.930905,6.748498,6.250466,0.000000,0.000000,0.000000,0.000000,0.000000,0.000000,1012.657783,4.930905,25.500000,992.000000,1500.000000,1500.000000,1500.000000,1500.000000
1.810001,40.771750,1.181382,-4.310132,8.814364,-25.867534,6.608272,15.301034,0.083695,-0.428471,0.015305,-0.093319,0.066448,0.000000,0.000000,0.000000,30.492051,-88.211932,4.310132,7.215465,6.608272,0.000000,0.000000,0.000000,0.000000,0.000000,0.000000,1012.732325,4.310132,25.500000,992.000000,1500.000000,1500.000000,1500.000000,1500.000000
1.910001,42.172777,1.364417,-3.664095,8.740662,-26.407642,6.951168,15.759135,0.108771,-0.464905,0.012090,-0.076704,0.070927,0.000000,0.000000,0.000000,30.492063,-88.211930,3.664095,7.662163,6.951168,0.000000,0.000000,0.000000,0.000000,0.000000,0.000000,1012.809904,3.664095,25.500000,992.000000,1500.000000,1500.000000,1500.000000,1500.000000
2.010001,43.609088,1.563306,-2.988170,8.618766,-26.862643,7.369501,16.222791,0.113488,-0.500777,0.011223,-0.060702,0.081823,0.000000,0.000000,0.000000,30.492076,-88.211928,2.988170,8.097732,7.369501,0.000000,0.000000,0.000000,0.000000,0.000000,0.000000,1012.891078,2.988170,25.500000,992.000000,1500.000000,1500.000000,1500.000000,1500.000000
2.111001,45.096590,1.780795,-2.276677,8.460581,-27.238097,7.863108,16.695170,0.098802,-0.536406,0.011821,-0.045161,0.085891,0.000000,0.000000,0.000000,30.492090,-88.211926,2.276677,8.532098,7.863108,0.000000,0.000000,0.000000,0.000000,0.000000,0.000000,1012.976529,2.276677,25.500000,992.000000,1500.000000,1500.000000,1500.000000,1500.000000
2.212001,46.622040,2.015612,-1.537916,8.299379,-27.524067,8.365892,17.170022,0.080358,-0.571385,0.012265,-0.030233,0.079811,0.000000,0.000000,0.000000,30.492104,-88.211924,1.537916,8.963227,8.365892,0.000000,0.000000,0.000000,0.000000,0.000000,0.000000,1013.065262,1.537916,25.500000,992.000000,1500.000000,1500.000000,1500.000000,1500.000000
2.313000,48.186314,2.268408,-0.773729,8.155060,-27.717850,8.827795,17.645826,0.071240,-0.605670,0.011717,-0.015911,0.069820,0.000000,0.000000,0.000000,30.492118,-88.211921,0.773729,9.389575,8.827795,0.000000,0.000000,0.000000,0.000000,0.000000,0.000000,1013.157054,0.773729,25.500000,992.000000,1500.000000,1500.000000,1500.000000,1500.000000
2.414001,49.790221,2.539764,0.013363,8.024126,-27.823191,9.247111,17.854832,0.000762,-1.117723,0.010553,-0.002426,0.063223,0.000000,0.000000,0.000000,30.492132,-88.211918,-0.013363,9.799148,9.247111,0.000000,0.000000,0.000000,0.000000,0.000000,0.000000,1013.251605,-0.013363,25.500000,992.000000,1500.000000,1500.000000,1500.000000,1500.000000
2.515001,51.408297,2.815055,0.186475,7.894760,-27.887710,9.654739,14.297291,-1.084369,-7.526454,0.010562,-0.002409,0.063221,0.000000,0.000000,0.000000,30.492147,-88.211915,-0.186475,9.513564,9.654739,0.000000,0.000000,0.000000,0.000000,0.000000,0.000000,1013.272402,-0.186475,25.500000,992.000000,1500.000000,1500.000000,1500.000000,1500.000000
2.615001,53.000493,3.077761,0.173185,7.766139,-27.950689,10.058739,14.132745,-1.268246,-7.568050,0.010571,-0.002393,0.063220,0.000000,0.000000,0.000000,30.492161,-88.211912,-0.173185,9.226623,10.058739,0.000000,0.000000,0.000000,0.000000,0.000000,0.000000,1013.270805,-0.173185,25.500000,992.000000,1500.000000,1500.000000,1500.000000,1500.000000
2.716000,54.598654,3.333136,0.159384,7.635698,-28.013385,10.467186,14.034469,-1.434600,-7.479920,0.010580,-0.002376,0.063219,0.000000,0.000000,0.000000,30.492175,-88.211910,-0.159384,8.932707,10.467186,0.000000,0.000000,0.000000,0.000000,0.000000,0.000000,1013.269147,-0.159384,25.500000,992.000000,1500.000000,1500.000000,1500.000000,1500.000000
2.817001,56.186807,3.578505,0.148461,7.504729,-28.075160,10.876039,13.933064,-1.599988,-7.394618,0.010590,-0.002359,0.063218,0.000000,0.000000,0.000000,30.492190,-88.211907,-0.148461,8.634591,10.876039,0.000000,0.000000,0.000000,0.000000,0.000000,0.000000,1013.267835,-0.148461,25.500000,992.000000,1500.000000,1500.000000,1500.000000,1500.000000
2.918001,57.764953,3.813866,0.139871,7.373236,-28.136010,11.285291,13.827643,-1.764590,-7.313791,0.010599,-0.002342,0.063217,0.000000,0.000000,0.000000,30.492204,-88.211905,-0.139871,8.332201,11.285291,0.000000,0.000000,0.000000,0.000000,0.000000,0.000000,1013.266803,-0.139871,25.500000,992.000000,1500.000000,1500.000000,1500.000000,1500.000000
3.018001,59.317615,4.037037,0.133175,7.242538,-28.195342,11.690882,13.719824,-1.926621,-7.237212,0.010607,-0.002325,0.063216,0.000000,0.000000,0.000000,30.492218,-88.211902,-0.133175,8.028522,11.690882,0.000000,0.000000,0.000000,0.000000,0.000000,0.000000,1013.265999,-0.133175,25.500000,992.000000,1500.000000,1500.000000,1500.000000,1500.000000
3.119001,60.875846,4.252483,0.127851,7.110028,-28.254340,12.100918,13.607892,-2.089179,-7.162542,0.010616,-0.002308,0.063215,0.000000,0.000000,0.000000,30.492232,-88.211900,-0.127851,7.717402,12.100918,0.000000,0.000000,0.000000,0.000000,0.000000,0.000000,1013.265359,-0.127851,25.500000,992.000000,1500.000000,1500.000000,1500.000000,1500.000000
3.220000,62.424070,4.457921,0.123665,6.977016,-28.312402,12.511340,13.493260,-2.250528,-7.089917,0.010625,-0.002291,0.063214,0.000000,0.000000,0.000000,30.492246,-88.211898,-0.123665,7.401780,12.511340,0.000000,0.000000,0.000000,0.000000,0.000000,0.000000,1013.264856,-0.123665,25.500000,992.000000,1500.000000,1500.000000,1500.000000,1500.000000
3.320001,63.947105,4.651467,0.120402,6.844835,-28.368964,12.918075,13.377381,-2.409000,-7.019532,0.010634,-0.002274,0.063213,0.000000,0.000000,0.000000,30.492259,-88.211896,-0.120402,7.084771,12.918075,0.000000,0.000000,0.000000,0.000000,0.000000,0.000000,1013.264464,-0.120402,25.500000,992.000000,1500.000000,1500.000000,1500.000000,1500.000000
3.421001,65.475414,4.836990,0.117807,6.710849,-28.425153,13.329252,13.258161,-2.567692,-6.949583,0.010642,-0.002257,0.063212,0.000000,0.000000,0.000000,30.492273,-88.211894,-0.117807,6.759953,13.329252,0.000000,0.000000,0.000000,0.000000,0.000000,0.000000,1013.264152,-0.117807,25.500000,992.000000,1500.000000,1500.000000,1500.000000,1500.000000
