Time (sec) ,X(m) ,Y(m) ,Z(m) ,Roll (deg) ,Pitch (deg) ,Yaw (deg) ,U(m/s) ,V(m/s) ,W(m/s) ,P(rad/s) ,Q(rad/s) ,R(rad/s) ,Mx(Gauss) ,My(Gauss) ,Mz(Gauss) ,GPS Latitude (deg) ,GPS Longitude (deg) ,GPS Altitude (m) ,GPS Heading (deg) ,Yaw (deg) ,Analog 1 (V) ,Analog 2 (V) ,Analog 3 (V) ,Analog 4 (V) ,Analog 5 (V) ,Analog 6 (V) ,Pressure (Pa) ,Pressure Altitude (m) ,Temperature (C) ,RC In Channel #5 ,PWM Model 1 ,PWM Model 2 ,PWM Model 3 ,PWM Model 4 
 0.000041,20.010000,-0.000000,-9.999998,0.057153,-0.000084,-0.000197,9.999710,0.000006,0.003986,0.995018,-0.002948,-0.006888,0.000000,0.000000,0.000000,30.491864,-88.211945,9.999998,-0.000095,-0.000197,0.000000,0.000000,0.000000,0.000000,0.000000,0.000000,1012.049262,9.999998,25.500000,992.000000,992.000000,1500.000000,1500.000000,1500.000000
0.101001,21.018885,0.000559,-9.982660,4.534594,-0.726629,-1.570147,9.980814,0.304999,0.170914,0.574958,-0.254475,-0.434709,0.000000,0.000000,0.000000,30.491873,-88.211945,9.982660,0.096848,-1.570147,0.000000,0.000000,0.000000,0.000000,0.000000,0.000000,1012.051343,9.982660,25.500000,992.000000,992.000000,1500.000000,1500.000000,1500.000000
0.201001,22.017302,0.003923,-9.935392,7.008654,-2.056270,-4.329680,9.990240,0.832560,0.190404,0.260336,-0.151461,-0.417175,0.000000,0.000000,0.000000,30.491882,-88.211945,9.935392,0.273431,-4.329680,0.000000,0.000000,0.000000,0.000000,0.000000,0.000000,1012.057016,9.935392,25.500000,2458.000000,1500.000000,1465.000000,1332.000000,1503.000000
0.302000,23.033735,0.010414,-9.855150,7.748337,-1.860158,-5.911262,10.096322,1.194741,0.415072,-0.001335,0.081665,-0.098195,0.000000,0.000000,0.000000,30.491891,-88.211944,9.855150,0.476563,-5.911262,0.000000,0.000000,0.000000,0.000000,0.000000,0.000000,1012.066646,9.855150,25.500000,2458.000000,1599.000000,1461.000000,1321.000000,1504.000000
0.402001,24.055195,0.021660,-9.761076,7.287813,-1.204369,-5.213125,10.259346,1.164469,0.593852,-0.135044,0.156794,0.304382,0.000000,0.000000,0.000000,30.491900,-88.211944,9.761076,0.803121,-5.213125,0.000000,0.000000,0.000000,0.000000,0.000000,0.000000,1012.077937,9.761076,25.500000,2469.000000,1599.000000,1464.000000,1296.000000,1504.000000
0.503001,25.103954,0.040451,-9.668517,6.310724,-0.707571,-2.450258,10.460275,0.755652,0.659025,-0.175003,0.121598,0.590577,0.000000,0.000000,0.000000,30.491910,-88.211944,9.668517,1.262700,-2.450258,0.000000,0.000000,0.000000,0.000000,0.000000,0.000000,1012.089046,9.668517,25.500000,2469.000000,1599.000000,1468.000000,1301.000000,1503.000000
0.604001,26.170174,0.069070,-9.587073,5.288030,-0.436611,1.305692,10.657158,0.156765,0.651192,-0.160165,0.113316,0.651715,0.000000,0.000000,0.000000,30.491919,-88.211944,9.587073,1.819528,1.305692,0.000000,0.000000,0.000000,0.000000,0.000000,0.000000,1012.098820,9.587073,25.500000,2458.000000,1664.000000,1474.000000,1298.000000,1503.000000
0.704001,27.243805,0.109069,-9.519301,4.439685,-0.048535,4.745328,10.824911,-0.385513,0.631721,-0.130470,0.123305,0.505355,0.000000,0.000000,0.000000,30.491929,-88.211943,9.519301,2.449947,4.745328,0.000000,0.000000,0.000000,0.000000,0.000000,0.000000,1012.106955,9.519301,25.500000,2469.000000,1664.000000,1478.000000,1301.000000,1502.000000
0.805001,28.345232,0.162686,-9.465152,3.760266,0.541076,6.993121,10.972303,-0.705040,0.612918,-0.109497,0.140756,0.246854,0.000000,0.000000,0.000000,30.491939,-88.211943,9.465152,3.113901,6.993121,0.000000,0.000000,0.000000,0.000000,0.000000,0.000000,1012.113454,9.465152,25.500000,2469.000000,1718.000000,1481.000000,1301.000000,1502.000000
0.906000,29.463751,0.229847,-9.426578,3.159112,1.499669,7.729208,11.151332,-0.744647,0.628436,-0.104180,0.204523,-0.002393,0.000000,0.000000,0.000000,30.491949,-88.211942,9.426578,3.738767,7.729208,0.000000,0.000000,0.000000,0.000000,0.000000,0.000000,1012.118083,9.426578,25.500000,2469.000000,1762.000000,1484.000000,1278.000000,1502.000000
1.006000,30.589257,0.308717,-9.407646,2.535862,2.909585,7.291067,11.337705,-0.573846,0.675048,-0.107367,0.280366,-0.154954,0.000000,0.000000,0.000000,30.491959,-88.211941,9.407646,4.248588,7.291067,0.000000,0.000000,0.000000,0.000000,0.000000,0.000000,1012.120356,9.407646,25.500000,2458.000000,1762.000000,1487.000000,1261.000000,1501.000000
1.107000,31.742566,0.398401,-9.415230,1.844878,4.582901,6.301885,11.506139,-0.317171,0.698145,-0.107613,0.270643,-0.189220,0.000000,0.000000,0.000000,30.491970,-88.211940,9.415230,4.613150,6.301885,0.000000,0.000000,0.000000,0.000000,0.000000,0.000000,1012.119445,9.415230,25.500000,2458.000000,1762.000000,1491.000000,1277.000000,1501.000000
1.207001,32.898139,0.494027,-9.455335,1.164806,6.038164,5.378411,11.650705,-0.099478,0.663439,-0.098052,0.229840,-0.134800,0.000000,0.000000,0.000000,30.491980,-88.211939,9.455335,4.822511,5.378411,0.000000,0.000000,0.000000,0.000000,0.000000,0.000000,1012.114632,9.455335,25.500000,2458.000000,1773.000000,1494.000000,1292.000000,1501.000000
1.307001,34.064398,0.593557,-9.528213,0.597770,7.280229,4.866443,11.764849,0.016878,0.610568,-0.077819,0.203382,-0.048838,0.000000,0.000000,0.000000,30.491991,-88.211938,9.528213,4.917413,4.866443,0.000000,0.000000,0.000000,0.000000,0.000000,0.000000,1012.105885,9.528213,25.500000,2469.000000,1762.000000,1497.000000,1304.000000,1500.000000
1.408001,35.249810,0.695965,-9.632604,0.213491,8.405443,4.804687,11.854366,0.032265,0.561284,-0.051740,0.186013,0.018895,0.000000,0.000000,0.000000,30.492001,-88.211937,9.632604,4.950994,4.804687,0.000000,0.000000,0.000000,0.000000,0.000000,0.000000,1012.093356,9.632604,25.500000,2469.000000,1762.000000,1499.000000,1316.000000,1500.000000
1.509001,36.440125,0.799223,-9.765204,0.018038,9.420947,5.011920,11.922766,-0.009825,0.513878,-0.027391,0.158096,0.043849,0.000000,0.000000,0.000000,30.492012,-88.211936,9.765204,4.963565,5.011920,0.000000,0.000000,0.000000,0.000000,0.000000,0.000000,1012.077441,9.765204,25.500000,2458.000000,1762.000000,1500.000000,1332.000000,1500.000000
1.610001,37.633091,0.902949,-9.923168,-0.048510,10.262264,5.245715,11.972185,-0.056387,0.463601,-0.011049,0.136795,0.031266,0.000000,0.000000,0.000000,30.492023,-88.211935,9.923168,4.975217,5.245715,0.000000,0.000000,0.000000,0.000000,0.000000,0.000000,1012.058483,9.923168,25.500000,2469.000000,1762.000000,1500.000000,1341.000000,1500.000000
1.711001,38.826985,1.007020,-10.102781,-0.067843,11.023503,5.348166,12.004780,-0.075060,0.427676,-0.003320,0.126324,0.003180,0.000000,0.000000,0.000000,30.492033,-88.211934,10.102781,4.988098,5.348166,0.000000,0.000000,0.000000,0.000000,0.000000,0.000000,1012.036926,10.102781,25.500000,2458.000000,1762.000000,1500.000000,1348.000000,1500.000000
1.811001,40.008530,1.110240,-10.299260,-0.090172,11.650780,5.292797,12.023155,-0.062031,0.387843,-0.001311,0.096272,-0.019863,0.000000,0.000000,0.000000,30.492044,-88.211933,10.299260,4.995906,5.292797,0.000000,0.000000,0.000000,0.000000,0.000000,0.000000,1012.013346,10.299260,25.500000,2458.000000,1762.000000,1500.000000,1361.000000,1500.000000
1.912001,41.200294,1.214415,-10.513432,-0.123124,12.176622,5.141182,12.029322,-0.031271,0.357088,0.001307,0.087674,-0.028696,0.000000,0.000000,0.000000,30.492055,-88.211932,10.513432,4.993537,5.141182,0.000000,0.000000,0.000000,0.000000,0.000000,0.000000,1011.987643,10.513432,25.500000,2469.000000,1762.000000,1501.000000,1360.000000,1500.000000
2.012001,42.377925,1.317195,-10.738207,-0.146039,12.727461,4.975765,12.024466,0.000161,0.350473,0.002902,0.097525,-0.025553,0.000000,0.000000,0.000000,30.492065,-88.211931,10.738207,4.980968,4.975765,0.000000,0.000000,0.000000,0.000000,0.000000,0.000000,1011.960668,10.738207,25.500000,2469.000000,1762.000000,1501.000000,1365.000000,1500.000000
2.112001,43.552279,1.419351,-10.974759,-0.154297,13.250049,4.852459,12.009874,0.021516,0.339776,0.003879,0.084006,-0.015244,0.000000,0.000000,0.000000,30.492076,-88.211930,10.974759,4.961776,4.852459,0.000000,0.000000,0.000000,0.000000,0.000000,0.000000,1011.932280,10.974759,25.500000,2469.000000,1762.000000,1501.000000,1371.000000,1500.000000
2.213001,44.734147,1.521736,-11.224684,-0.141825,13.667990,4.795139,11.986726,0.029023,0.317246,0.005088,0.055344,-0.003995,0.000000,0.000000,0.000000,30.492087,-88.211929,11.224684,4.940933,4.795139,0.000000,0.000000,0.000000,0.000000,0.000000,0.000000,1011.902288,11.224684,25.500000,2469.000000,1762.000000,1501.000000,1381.000000,1500.000000
2.313005,45.899630,1.622304,-11.480953,-0.108676,13.939195,4.794959,11.955510,0.025624,0.292404,0.006501,0.042818,0.003286,0.000000,0.000000,0.000000,30.492097,-88.211928,11.480953,4.923517,4.794959,0.000000,0.000000,0.000000,0.000000,0.000000,0.000000,1011.871536,11.480953,25.500000,2458.000000,1762.000000,1501.000000,1384.000000,1500.000000
2.414000,47.071843,1.723148,-11.745849,-0.069361,14.176532,4.822955,11.917810,0.017617,0.280782,0.004208,0.039096,0.005776,0.000000,0.000000,0.000000,30.492108,-88.211927,11.745849,4.911514,4.822955,0.000000,0.000000,0.000000,0.000000,0.000000,0.000000,1011.839749,11.745849,25.500000,2469.000000,1762.000000,1500.000000,1386.000000,1500.000000
2.514001,48.227375,1.822368,-12.012460,-0.041548,14.385189,4.859000,11.875646,0.009013,0.275173,0.002599,0.033561,0.006121,0.000000,0.000000,0.000000,30.492118,-88.211926,12.012460,4.904637,4.859000,0.000000,0.000000,0.000000,0.000000,0.000000,0.000000,1011.807757,12.012460,25.500000,2458.000000,1762.000000,1500.000000,1388.000000,1500.000000
2.615001,49.389116,1.922021,-12.284994,-0.020962,14.559540,4.891405,11.829011,0.001927,0.271168,0.001797,0.026708,0.004496,0.000000,0.000000,0.000000,30.492128,-88.211925,12.284994,4.901495,4.891405,0.000000,0.000000,0.000000,0.000000,0.000000,0.000000,1011.775055,12.284994,25.500000,2458.000000,1762.000000,1500.000000,1390.000000,1500.000000
2.715001,50.533903,2.020184,-12.557055,-0.007345,14.695365,4.910705,11.779516,-0.002018,0.268571,0.001277,0.021054,0.001996,0.000000,0.000000,0.000000,30.492139,-88.211923,12.557055,4.900791,4.910705,0.000000,0.000000,0.000000,0.000000,0.000000,0.000000,1011.742411,12.557055,25.500000,2469.000000,1762.000000,1500.000000,1391.000000,1500.000000
2.816000,51.684525,2.118846,-12.833190,-0.000029,14.768837,4.915676,11.726972,-0.002885,0.259976,0.000822,-0.000556,-0.000197,0.000000,0.000000,0.000000,30.492149,-88.211922,12.833190,4.901182,4.915676,0.000000,0.000000,0.000000,0.000000,0.000000,0.000000,1011.709279,12.833190,25.500000,2458.000000,1762.000000,1500.000000,1399.000000,1500.000000
2.916001,52.818264,2.216071,-13.106662,0.002206,14.738130,4.910569,11.673367,-0.001748,0.249884,0.000425,-0.006079,-0.001333,0.000000,0.000000,0.000000,30.492159,-88.211921,13.106662,4.901698,4.910569,0.000000,0.000000,0.000000,0.000000,0.000000,0.000000,1011.676467,13.106662,25.500000,2469.000000,1762.000000,1500.000000,1398.000000,1500.000000
3.017001,53.958137,2.313829,-13.381141,0.001548,14.707053,4.901952,11.618732,-0.000010,0.251728,0.000126,-0.005346,-0.001390,0.000000,0.000000,0.000000,30.492170,-88.211920,13.381141,4.901867,4.901952,0.000000,0.000000,0.000000,0.000000,0.000000,0.000000,1011.643536,13.381141,25.500000,2469.000000,1762.000000,1500.000000,1398.000000,1500.000000
3.118000,55.092927,2.411151,-13.653292,0.000047,14.602647,4.895289,11.564586,0.001247,0.242234,-0.000039,-0.035018,-0.000770,0.000000,0.000000,0.000000,30.492180,-88.211919,13.653292,4.901638,4.895289,0.000000,0.000000,0.000000,0.000000,0.000000,0.000000,1011.610884,13.653292,25.500000,2458.000000,1762.000000,1500.000000,1409.000000,1500.000000
3.218001,56.211728,2.507094,-13.919681,-0.000917,14.069025,4.893014,11.514437,0.001602,0.166243,-0.000082,-0.162811,-0.000016,0.000000,0.000000,0.000000,30.492190,-88.211918,13.919681,4.901219,4.893014,0.000000,0.000000,0.000000,0.000000,0.000000,0.000000,1011.578925,13.919681,25.500000,2458.000000,1773.000000,1500.000000,1461.000000,1500.000000
3.319001,57.338901,2.603747,-14.179869,-0.000932,12.949700,4.894656,11.473258,0.001207,0.074560,-0.000045,-0.208423,0.000501,0.000000,0.000000,0.000000,30.492200,-88.211917,14.179869,4.900840,4.894656,0.000000,0.000000,0.000000,0.000000,0.000000,0.000000,1011.547710,14.179869,25.500000,2458.000000,1773.000000,1500.000000,1476.000000,1500.000000
3.420001,58.466130,2.700399,-14.422287,-0.000256,11.623286,4.898214,11.441327,0.000479,0.012559,0.000017,-0.250461,0.000633,0.000000,0.000000,0.000000,30.492210,-88.211916,14.422287,4.900666,4.898214,0.000000,0.000000,0.000000,0.000000,0.000000,0.000000,1011.518628,14.422287,25.500000,2469.000000,1762.000000,1500.000000,1489.000000,1500.000000
3.520001,59.584588,2.796298,-14.639049,0.000611,10.237786,4.901516,11.428728,-0.000158,-0.006228,0.000061,-0.222462,0.000463,0.000000,0.000000,0.000000,30.492220,-88.211915,14.639049,4.900713,4.901516,0.000000,0.000000,0.000000,0.000000,0.000000,0.000000,1011.492625,14.639049,25.500000,2469.000000,1762.000000,1500.000000,1475.000000,1500.000000
3.620001,60.707721,2.892600,-14.829938,0.001314,9.090886,4.903351,11.441940,-0.000482,0.022559,0.000070,-0.185237,0.000170,0.000000,0.000000,0.000000,30.492230,-88.211914,14.829938,4.900905,4.903351,0.000000,0.000000,0.000000,0.000000,0.000000,0.000000,1011.469725,14.829938,25.500000,2469.000000,1773.000000,1500.000000,1469.000000,1500.000000
3.721001,61.848043,2.990381,-14.999426,0.001702,7.591252,4.903514,11.472047,-0.000471,-0.053501,0.000051,-0.375568,-0.000083,0.000000,0.000000,0.000000,30.492241,-88.211913,14.999426,4.901144,4.903514,0.000000,0.000000,0.000000,0.000000,0.000000,0.000000,1011.449393,14.999426,25.500000,2469.000000,1762.000000,1500.000000,1563.000000,1500.000000
3.822000,62.996220,3.088839,-15.141940,0.001800,5.030996,4.902535,11.525284,-0.000249,-0.212314,0.000018,-0.452702,-0.000201,0.000000,0.000000,0.000000,30.492251,-88.211912,15.141940,4.901324,4.902535,0.000000,0.000000,0.000000,0.000000,0.000000,0.000000,1011.432298,15.141940,25.500000,2469.000000,1762.000000,1500.000000,1550.000000,1500.000000
3.922001,64.144510,3.187310,-15.241991,0.001741,2.711259,4.901316,11.615521,0.000013,-0.226923,-0.000008,-0.353090,-0.000180,0.000000,0.000000,0.000000,30.492261,-88.211911,15.241991,4.901413,4.901316,0.000000,0.000000,0.000000,0.000000,0.000000,0.000000,1011.420296,15.241991,25.500000,2469.000000,1773.000000,1500.000000,1527.000000,1500.000000
4.023002,65.318492,3.287978,-15.298694,0.181986,0.910943,4.917523,11.747236,-0.004201,-0.170430,0.174860,-0.276613,0.010746,0.000000,0.000000,0.000000,30.492272,-88.211910,15.298694,4.899682,4.917523,0.000000,0.000000,0.000000,0.000000,0.000000,0.000000,1011.413494,15.298694,25.500000,2469.000000,1762.000000,1643.000000,1509.000000,1486.000000
4.124001,66.508576,3.390205,-15.316363,3.237051,-0.540433,4.529939,11.912272,0.077854,-0.119747,0.868432,-0.233725,-0.204287,0.000000,0.000000,0.000000,30.492282,-88.211909,15.316363,4.935825,4.529939,0.000000,0.000000,0.000000,0.000000,0.000000,0.000000,1011.411375,15.316363,25.500000,2458.000000,1762.000000,1696.000000,1495.000000,1480.000000
4.224001,67.704533,3.494985,-15.301039,9.378056,-1.500506,2.007091,12.086687,0.641914,-0.116530,1.188690,-0.201584,-0.624176,0.000000,0.000000,0.000000,30.492293,-88.211908,15.301039,5.096291,2.007091,0.000000,0.000000,0.000000,0.000000,0.000000,0.000000,1011.413213,15.301039,25.500000,2469.000000,1762.000000,1666.000000,1485.000000,1483.000000
4.324001,68.919403,3.605781,-15.254765,16.415634,-1.574568,-2.307524,12.202184,1.649067,-0.183042,1.186799,-0.160736,-0.767901,0.000000,0.000000,0.000000,30.492304,-88.211907,15.254765,5.324304,-2.307524,0.000000,0.000000,0.000000,0.000000,0.000000,0.000000,1011.418764,15.254765,25.500000,2469.000000,1762.000000,1631.000000,1484.000000,1487.000000
4.424001,70.153588,3.723133,-15.174202,22.941815,-1.059588,-6.101465,12.255379,2.620061,-0.274687,1.049189,-0.111551,-0.475044,0.000000,0.000000,0.000000,30.492315,-88.211906,15.174202,5.531537,-6.101465,0.000000,0.000000,0.000000,0.000000,0.000000,0.000000,1011.428428,15.174202,25.500000,2469.000000,1762.000000,1598.000000,1489.000000,1490.000000
4.525001,71.419508,3.848230,-15.052836,28.510350,-1.028797,-7.379403,12.385710,3.107194,-0.331467,0.876075,-0.061656,0.094642,0.000000,0.000000,0.000000,30.492327,-88.211904,15.052836,5.770928,-7.379403,0.000000,0.000000,0.000000,0.000000,0.000000,0.000000,1011.442986,15.052836,25.500000,2469.000000,1762.000000,1575.000000,1490.000000,1492.000000
4.626000,72.705474,3.982876,-14.887943,33.092988,-2.343792,-5.595654,12.704305,2.946647,-0.329035,0.730478,-0.002008,0.639295,0.000000,0.000000,0.000000,30.492338,-88.211903,14.887943,6.235202,-5.595654,0.000000,0.000000,0.000000,0.000000,0.000000,0.000000,1011.462767,14.887943,25.500000,2469.000000,1762.000000,1552.000000,1477.000000,1495.000000
4.726000,74.000362,4.133836,-14.681491,36.671365,-4.850872,-1.662240,13.157126,2.313193,-0.270373,0.607706,0.076191,0.934589,0.000000,0.000000,0.000000,30.492350,-88.211901,14.681491,7.142699,-1.662240,0.000000,0.000000,0.000000,0.000000,0.000000,0.000000,1011.487533,14.681491,25.500000,2458.000000,1762.000000,1535.000000,1452.000000,1497.000000
4.826001,75.318994,4.315748,-14.434634,39.301928,-7.693907,3.116507,13.635266,1.537308,-0.175961,0.494116,0.164578,0.938358,0.000000,0.000000,0.000000,30.492362,-88.211900,14.434634,8.652861,3.116507,0.000000,0.000000,0.000000,0.000000,0.000000,0.000000,1011.517147,14.434634,25.500000,2469.000000,1762.000000,1521.000000,1423.000000,1498.000000
4.926001,76.662337,4.545032,-14.152390,41.110370,-9.959949,7.665519,14.086567,0.930016,-0.081313,0.382346,0.241268,0.750832,0.000000,0.000000,0.000000,30.492374,-88.211897,14.152390,10.786322,7.665519,0.000000,0.000000,0.000000,0.000000,0.000000,0.000000,1011.551007,14.152390,25.500000,2469.000000,1762.000000,1512.000000,1401.000000,1499.000000
5.027001,78.043206,4.841090,-13.837964,42.291438,-11.247537,11.522419,14.524395,0.631508,-0.017843,0.271266,0.293679,0.529716,0.000000,0.000000,0.000000,30.492386,-88.211894,13.837964,13.445683,11.522419,0.000000,0.000000,0.000000,0.000000,0.000000,0.000000,1011.588729,13.837964,25.500000,2458.000000,1762.000000,1501.000000,1388.000000,1500.000000
5.127002,79.431579,5.210952,-13.504071,42.910500,-11.714472,14.717289,14.956886,0.587113,0.005246,0.167896,0.324074,0.404015,0.000000,0.000000,0.000000,30.492399,-88.211890,13.504071,16.379415,14.717289,0.000000,0.000000,0.000000,0.000000,0.000000,0.000000,1011.628787,13.504071,25.500000,2469.000000,1762.000000,1498.000000,1383.000000,1500.000000
5.228001,80.851446,5.670646,-13.149497,43.055833,-11.746437,17.861207,15.399333,0.621852,0.043166,0.112601,0.430038,0.394342,0.000000,0.000000,0.000000,30.492412,-88.211885,13.149497,19.469796,17.861207,0.000000,0.000000,0.000000,0.000000,0.000000,0.000000,1011.671328,13.149497,25.500000,2458.000000,1762.000000,1502.000000,1350.000000,1500.000000
5.329001,82.284097,6.225360,-12.784817,42.882013,-11.383085,21.516125,15.847222,0.611413,0.113587,0.079894,0.476196,0.426957,0.000000,0.000000,0.000000,30.492424,-88.211880,12.784817,22.874242,21.516125,0.000000,0.000000,0.000000,0.000000,0.000000,0.000000,1011.715083,12.784817,25.500000,2458.000000,1762.000000,1498.000000,1354.000000,1500.000000
5.429001,83.708051,6.879412,-12.425076,42.591315,-11.130645,25.258866,16.290641,0.534240,0.101235,0.085014,0.481913,0.446246,0.000000,0.000000,0.000000,30.492437,-88.211873,12.425076,26.411423,25.258866,0.000000,0.000000,0.000000,0.000000,0.000000,0.000000,1011.758247,12.425076,25.500000,2469.000000,1762.000000,1505.000000,1350.000000,1500.000000
5.529001,85.129517,7.642468,-12.072033,42.386228,-10.749669,29.032970,16.728150,0.454276,0.083106,0.097202,0.491441,0.412703,0.000000,0.000000,0.000000,30.492450,-88.211865,12.072033,29.993566,29.032970,0.000000,0.000000,0.000000,0.000000,0.000000,0.000000,1011.800609,12.072033,25.500000,2469.000000,1762.000000,1506.000000,1354.000000,1499.000000
5.630002,86.553906,8.526797,-11.726818,42.331014,-10.108740,32.691279,17.160070,0.435877,0.063469,0.105479,0.508683,0.356489,0.000000,0.000000,0.000000,30.492463,-88.211856,11.726818,33.624422,32.691279,0.000000,0.000000,0.000000,0.000000,0.000000,0.000000,1011.842033,11.726818,25.500000,2458.000000,1762.000000,1501.000000,1360.000000,1500.000000
5.731000,87.957748,9.527021,-11.397439,42.358299,-9.156854,36.277247,17.584761,0.476073,0.065872,0.118100,0.551880,0.329051,0.000000,0.000000,0.000000,30.492476,-88.211845,11.397439,37.276743,36.277247,0.000000,0.000000,0.000000,0.000000,0.000000,0.000000,1011.881557,11.397439,25.500000,2469.000000,1762.000000,1506.000000,1357.000000,1499.000000
5.831001,89.317326,10.633662,-11.093108,42.575665,-8.098376,39.799258,17.990037,0.530468,0.042157,0.144511,0.564053,0.320315,0.000000,0.000000,0.000000,30.492488,-88.211834,11.093108,40.949428,39.799258,0.000000,0.000000,0.000000,0.000000,0.000000,0.000000,1011.918078,11.093108,25.500000,2469.000000,1762.000000,1510.000000,1349.000000,1499.000000
5.932001,90.648540,11.868684,-10.812782,42.866535,-6.530014,43.809357,18.380483,0.579252,0.156663,0.134513,0.721433,0.330193,0.000000,0.000000,0.000000,30.492500,-88.211821,10.812782,44.789689,43.809357,0.000000,0.000000,0.000000,0.000000,0.000000,0.000000,1011.951718,10.812782,25.500000,2458.000000,1762.000000,1509.000000,1332.000000,1499.000000
6.033010,91.919543,13.227505,-10.574257,43.115045,-4.994762,47.988341,18.750839,0.576034,0.133909,0.094713,0.652810,0.363148,0.000000,0.000000,0.000000,30.492511,-88.211806,10.574257,48.978900,47.988341,0.000000,0.000000,0.000000,0.000000,0.000000,0.000000,1011.980343,10.574257,25.500000,2469.000000,1762.000000,1502.000000,1348.000000,1500.000000
6.134001,93.115119,14.707349,-10.383645,43.304333,-3.908211,52.033433,19.099528,0.500590,0.024863,0.086400,0.578819,0.387451,0.000000,0.000000,0.000000,30.492522,-88.211791,10.383645,53.059210,52.033433,0.000000,0.000000,0.000000,0.000000,0.000000,0.000000,1012.003219,10.383645,25.500000,2469.000000,1762.000000,1501.000000,1365.000000,1500.000000
6.235002,94.227350,16.297214,-10.236008,43.532107,-3.011380,55.904805,19.426678,0.422869,-0.061539,0.072528,0.554829,0.364263,0.000000,0.000000,0.000000,30.492532,-88.211774,10.236008,56.917170,55.904805,0.000000,0.000000,0.000000,0.000000,0.000000,0.000000,1012.020937,10.236008,25.500000,2469.000000,1762.000000,1500.000000,1380.000000,1500.000000
6.336001,95.250147,17.986525,-10.126327,43.782545,-2.200529,59.473575,19.733958,0.397075,-0.165992,0.065200,0.480201,0.334632,0.000000,0.000000,0.000000,30.492541,-88.211757,10.126327,60.622607,59.473575,0.000000,0.000000,0.000000,0.000000,0.000000,0.000000,1012.034100,10.126327,25.500000,2458.000000,1762.000000,1499.000000,1401.000000,1500.000000
6.437001,96.180575,19.764412,-10.048273,43.995846,-1.761848,62.538271,20.023933,0.403417,-0.328037,0.039495,0.398436,0.327953,0.000000,0.000000,0.000000,30.492550,-88.211738,10.048273,64.005467,62.538271,0.000000,0.000000,0.000000,0.000000,0.000000,0.000000,1012.043468,10.048273,25.500000,2469.000000,1762.000000,1498.000000,1419.000000,1500.000000
6.538001,97.022469,21.618640,-9.990007,44.120367,-1.520632,65.486446,20.307293,0.386047,-0.423494,0.039373,0.360053,0.342389,0.000000,0.000000,0.000000,30.492557,-88.211719,9.990007,67.085598,65.486446,0.000000,0.000000,0.000000,0.000000,0.000000,0.000000,1012.050461,9.990007,25.500000,2458.000000,1762.000000,1503.000000,1433.000000,1500.000000
6.638001,97.770274,23.521540,-9.944737,44.185443,-1.379746,68.355029,20.581194,0.353590,-0.470237,0.011870,0.374666,0.343951,0.000000,0.000000,0.000000,30.492564,-88.211699,9.944737,69.958907,68.355029,0.000000,0.000000,0.000000,0.000000,0.000000,0.000000,1012.055894,9.944737,25.500000,2458.000000,1762.000000,1497.000000,1435.000000,1500.000000
6.739001,98.437211,25.505468,-9.908981,44.153646,-1.198997,71.311944,20.859272,0.309821,-0.490048,0.002017,0.379914,0.342610,0.000000,0.000000,0.000000,30.492570,-88.211678,9.908981,72.845591,71.311944,0.000000,0.000000,0.000000,0.000000,0.000000,0.000000,1012.060185,9.908981,25.500000,2458.000000,1773.000000,1497.000000,1437.000000,1500.000000
6.839001,99.005405,27.526876,-9.883848,52.605083,-0.287983,73.732324,21.120810,0.544721,-0.519988,3.799039,0.477615,-0.666263,0.000000,0.000000,0.000000,30.492575,-88.211657,9.883848,75.734987,73.732324,0.000000,0.000000,0.000000,0.000000,0.000000,0.000000,1012.063202,9.883848,25.500000,465.000000,1762.000000,1946.000000,1412.000000,1500.000000
6.939001,99.482026,29.597683,-9.855905,81.421194,12.567368,72.362648,20.647504,5.252351,-1.259472,5.877481,0.788698,-3.314702,0.000000,0.000000,0.000000,30.492579,-88.211635,9.855905,77.818888,72.362648,0.000000,0.000000,0.000000,0.000000,0.000000,0.000000,1012.066555,9.855905,25.500000,465.000000,1762.000000,1957.000000,1401.000000,1500.000000
7.040001,99.976018,31.690525,-9.818984,121.966348,29.017367,83.780409,18.249580,10.398627,-2.571566,6.418796,1.909720,-2.673390,0.000000,0.000000,0.000000,30.492584,-88.211614,9.818984,74.768719,83.780409,0.000000,0.000000,0.000000,0.000000,0.000000,0.000000,1012.070987,9.818984,25.500000,465.000000,1773.000000,1957.000000,1401.000000,1500.000000
7.141001,100.604000,33.700284,-9.916097,168.034144,23.646906,101.030413,17.159006,10.975333,-2.918399,6.600080,2.790893,-0.924474,0.000000,0.000000,0.000000,30.492589,-88.211593,9.916097,71.350929,101.030413,0.000000,0.000000,0.000000,0.000000,0.000000,0.000000,1012.059331,9.916097,25.500000,465.000000,1762.000000,1946.000000,1391.000000,1500.000000
7.241001,101.214213,35.605765,-10.241429,-153.379500,7.510118,102.569970,17.606121,9.139896,-2.615641,6.600035,2.725007,-0.604715,0.000000,0.000000,0.000000,30.492595,-88.211573,10.241429,74.069235,102.569970,0.000000,0.000000,0.000000,0.000000,0.000000,0.000000,1012.020287,10.241429,25.500000,465.000000,1762.000000,1946.000000,1412.000000,1500.000000
7.342001,101.654201,37.507900,-10.662982,-115.158031,-6.698883,96.207610,17.816826,7.806780,-2.250208,6.552756,2.296932,-1.454502,0.000000,0.000000,0.000000,30.492599,-88.211553,10.662982,79.956996,96.207610,0.000000,0.000000,0.000000,0.000000,0.000000,0.000000,1011.969696,10.662982,25.500000,465.000000,1762.000000,1946.000000,1401.000000,1500.000000
7.443001,101.902054,39.423098,-10.993661,-74.808205,-18.464221,84.814375,17.376603,8.005163,-2.116781,6.470365,1.936135,-2.177101,0.000000,0.000000,0.000000,30.492601,-88.211533,10.993661,84.959121,84.814375,0.000000,0.000000,0.000000,0.000000,0.000000,0.000000,1011.930012,10.993661,25.500000,465.000000,1762.000000,1957.000000,1412.000000,1500.000000
7.543001,102.017559,41.325036,-11.104327,-31.962541,-22.349054,67.815527,16.603933,8.905267,-2.161793,6.284211,1.787871,-2.155353,0.000000,0.000000,0.000000,30.492602,-88.211513,11.104327,87.569592,67.815527,0.000000,0.000000,0.000000,0.000000,0.000000,0.000000,1011.916731,11.104327,25.500000,465.000000,1762.000000,1946.000000,1445.000000,1500.000000
7.644000,102.101287,43.216364,-10.926163,8.286540,-14.684585,54.710566,15.975332,9.556482,-2.221654,6.118391,1.812265,-1.523080,0.000000,0.000000,0.000000,30.492603,-88.211493,10.926163,86.699668,54.710566,0.000000,0.000000,0.000000,0.000000,0.000000,0.000000,1011.938112,10.926163,25.500000,465.000000,1762.000000,1946.000000,1434.000000,1500.000000
7.744001,102.270303,45.019288,-10.471633,43.527739,-2.417893,53.311400,15.811898,9.634716,-2.251323,6.077219,1.906094,-0.864269,0.000000,0.000000,0.000000,30.492604,-88.211474,10.471633,82.049812,53.311400,0.000000,0.000000,0.000000,0.000000,0.000000,0.000000,1011.992659,10.471633,25.500000,465.000000,1762.000000,1946.000000,1445.000000,1500.000000
7.844001,102.617502,46.735068,-9.831532,78.701173,6.150737,60.942890,15.997813,9.328643,-2.377872,6.083202,1.970327,-0.551633,0.000000,0.000000,0.000000,30.492607,-88.211456,9.831532,74.858765,60.942890,0.000000,0.000000,0.000000,0.000000,0.000000,0.000000,1012.069481,9.831532,25.500000,465.000000,1762.000000,1957.000000,1456.000000,1500.000000
7.945001,103.185553,48.392571,-9.127336,115.574486,7.824413,72.791131,16.315213,8.883240,-2.522460,6.110023,2.059894,-0.603472,0.000000,0.000000,0.000000,30.492613,-88.211439,9.127336,67.699845,72.791131,0.000000,0.000000,0.000000,0.000000,0.000000,0.000000,1012.154000,9.127336,25.500000,465.000000,1762.000000,1946.000000,1445.000000,1500.000000
8.045001,103.921063,50.003433,-8.503525,151.750752,2.555279,84.235808,16.605180,8.442293,-2.609848,6.125063,2.133875,-0.873471,0.000000,0.000000,0.000000,30.492619,-88.211422,8.503525,64.056913,84.235808,0.000000,0.000000,0.000000,0.000000,0.000000,0.000000,1012.228876,8.503525,25.500000,465.000000,1762.000000,1946.000000,1445.000000,1500.000000
8.145001,104.708067,51.644241,-8.025384,-174.350598,-8.504036,92.483938,16.803262,8.126891,-2.434560,5.522043,2.260181,-1.181281,0.000000,0.000000,0.000000,30.492626,-88.211405,8.025384,65.515572,92.483938,0.000000,0.000000,0.000000,0.000000,0.000000,0.000000,1012.286270,8.025384,25.500000,2469.000000,1762.000000,2000.000000,1385.000000,1391.000000
8.246000,105.410076,53.368121,-7.640915,-139.358093,-24.329856,92.795206,17.102053,7.666401,-1.882581,6.394773,2.853460,-1.318403,0.000000,0.000000,0.000000,30.492633,-88.211387,7.640915,70.327218,92.795206,0.000000,0.000000,0.000000,0.000000,0.000000,0.000000,1012.332422,7.640915,25.500000,2458.000000,1762.000000,2000.000000,1234.000000,1408.000000
8.347001,105.973357,55.135395,-7.202153,-92.741746,-40.533665,78.140939,17.125157,8.005904,-1.069834,6.787117,3.481593,-1.868200,0.000000,0.000000,0.000000,30.492638,-88.211369,7.202153,73.571753,78.140939,0.000000,0.000000,0.000000,0.000000,0.000000,0.000000,1012.385094,7.202153,25.500000,2458.000000,1762.000000,2000.000000,1072.000000,1432.000000
8.447001,106.496183,56.863160,-6.610716,-32.797473,-40.846150,47.667458,16.653353,9.257329,-0.708802,6.663696,3.606705,-1.882252,0.000000,0.000000,0.000000,30.492642,-88.211351,6.610716,72.136602,47.667458,0.000000,0.000000,0.000000,0.000000,0.000000,0.000000,1012.456097,6.610716,25.500000,2458.000000,1762.000000,1884.000000,1073.000000,1462.000000
8.548001,107.094543,58.552332,-5.892456,8.195923,-24.422702,33.894752,16.258735,10.129799,-0.681756,4.568296,2.785249,-0.622250,0.000000,0.000000,0.000000,30.492648,-88.211333,5.892456,68.858148,33.894752,0.000000,0.000000,0.000000,0.000000,0.000000,0.000000,1012.542331,5.892456,25.500000,2469.000000,1762.000000,1672.000000,1236.000000,1483.000000
8.648001,107.770471,60.192416,-5.146177,26.463792,-13.562244,40.407806,17.319820,8.629780,-0.464868,2.555604,1.687296,1.504987,0.000000,0.000000,0.000000,30.492654,-88.211316,5.146177,66.737668,40.407806,0.000000,0.000000,0.000000,0.000000,0.000000,0.000000,1012.631935,5.146177,25.500000,2469.000000,1762.000000,1570.000000,1339.000000,1493.000000
8.749001,108.493960,61.881270,-4.423046,33.586599,-12.873565,55.578196,19.233997,4.628117,0.073924,1.149103,1.282624,2.486116,0.000000,0.000000,0.000000,30.492660,-88.211298,4.423046,67.424992,55.578196,0.000000,0.000000,0.000000,0.000000,0.000000,0.000000,1012.718766,4.423046,25.500000,2458.000000,1762.000000,1502.000000,1289.000000,1500.000000
8.849001,109.171082,63.657986,-3.788114,33.113281,-13.675968,71.197171,20.299385,0.555102,0.802847,-0.024720,1.558677,1.897522,0.000000,0.000000,0.000000,30.492666,-88.211280,3.788114,71.248752,71.197171,0.000000,0.000000,0.000000,0.000000,0.000000,0.000000,1012.795011,3.788114,25.500000,2458.000000,1762.000000,1425.000000,1159.000000,1508.000000
8.949001,109.715187,65.579461,-3.305393,27.774261,-9.466382,83.243989,20.667920,-1.735642,1.308921,-0.858310,1.742814,0.911950,0.000000,0.000000,0.000000,30.492671,-88.211260,3.305393,77.188013,83.243989,0.000000,0.000000,0.000000,0.000000,0.000000,0.000000,1012.852981,3.305393,25.500000,2458.000000,1762.000000,1409.000000,1131.000000,1509.000000
9.049002,110.070346,67.627709,-3.063365,20.913792,-2.121686,90.003215,20.935351,-2.360104,1.179478,-1.257331,1.458915,0.242077,0.000000,0.000000,0.000000,30.492675,-88.211238,3.063365,82.822646,90.003215,0.000000,0.000000,0.000000,0.000000,0.000000,0.000000,1012.882048,3.063365,25.500000,2469.000000,1762.000000,1400.000000,1198.000000,1510.000000
9.150000,110.261394,69.759869,-3.093158,13.455761,4.434299,92.861984,21.181258,-2.247772,0.653762,-1.246412,1.089784,0.074707,0.000000,0.000000,0.000000,30.492676,-88.211216,3.093158,86.533012,92.861984,0.000000,0.000000,0.000000,0.000000,0.000000,0.000000,1012.878469,3.093158,25.500000,2469.000000,1762.000000,1432.000000,1269.000000,1507.000000
9.250001,110.348180,71.878920,-3.352768,7.373367,9.922070,93.987542,21.334812,-1.972774,0.324512,-0.900365,0.845012,-0.055501,0.000000,0.000000,0.000000,30.492677,-88.211194,3.352768,88.552196,93.987542,0.000000,0.000000,0.000000,0.000000,0.000000,0.000000,1012.847292,3.352768,25.500000,2458.000000,1762.000000,1463.000000,1331.000000,1504.000000
9.351001,110.380339,73.997162,-3.806122,3.135261,14.127348,93.489942,21.425356,-1.424847,0.012038,-0.535816,0.597594,-0.234327,0.000000,0.000000,0.000000,30.492677,-88.211172,3.806122,89.564798,93.489942,0.000000,0.000000,0.000000,0.000000,0.000000,0.000000,1012.792848,3.806122,25.500000,2469.000000,1762.000000,1489.000000,1379.000000,1501.000000
9.451002,110.387850,76.059914,-4.400467,0.677327,16.970386,91.938345,21.445310,-0.716338,-0.267558,-0.162524,0.377005,-0.299456,0.000000,0.000000,0.000000,30.492677,-88.211150,4.400467,89.938449,91.938345,0.000000,0.000000,0.000000,0.000000,0.000000,0.000000,1012.721477,4.400467,25.500000,2469.000000,1762.000000,1512.000000,1427.000000,1499.000000
9.552001,110.388487,78.106904,-5.103978,0.295877,18.661029,90.063757,21.392393,-0.027588,-0.526245,0.250125,0.189988,-0.317450,0.000000,0.000000,0.000000,30.492677,-88.211129,5.103978,89.992992,90.063757,0.000000,0.000000,0.000000,0.000000,0.000000,0.000000,1012.637002,5.103978,25.500000,2458.000000,1762.000000,1546.000000,1469.000000,1495.000000
9.653001,110.389598,80.122983,-5.869886,2.110182,19.318410,87.984568,21.279007,0.646794,-0.783015,0.569448,0.034266,-0.353515,0.000000,0.000000,0.000000,30.492677,-88.211108,5.869886,89.935067,87.984568,0.000000,0.000000,0.000000,0.000000,0.000000,0.000000,1012.545040,5.869886,25.500000,2458.000000,1762.000000,1553.000000,1514.000000,1495.000000
9.754001,110.393601,82.118745,-6.658052,5.246182,19.449640,86.034670,21.128755,1.223932,-0.932515,0.717210,0.019589,-0.260594,0.000000,0.000000,0.000000,30.492677,-88.211087,6.658052,89.831836,86.034670,0.000000,0.000000,0.000000,0.000000,0.000000,0.000000,1012.450414,6.658052,25.500000,2458.000000,1762.000000,1553.000000,1509.000000,1495.000000
9.854001,110.400519,84.082612,-7.435687,8.923050,19.689887,85.025971,20.984570,1.494840,-0.954592,0.647666,0.015762,-0.060656,0.000000,0.000000,0.000000,30.492677,-88.211066,7.435687,89.784608,85.025971,0.000000,0.000000,0.000000,0.000000,0.000000,0.000000,1012.357059,7.435687,25.500000,2458.000000,1762.000000,1535.000000,1518.000000,1496.000000
9.955001,110.406481,86.055861,-8.212347,12.289733,19.693974,85.444478,20.868717,1.344913,-0.949723,0.461006,0.013929,0.186619,0.000000,0.000000,0.000000,30.492678,-88.211046,8.212347,89.904998,85.444478,0.000000,0.000000,0.000000,0.000000,0.000000,0.000000,1012.263827,8.212347,25.500000,2469.000000,1762.000000,1518.000000,1518.000000,1498.000000
10.056001,110.404062,88.020029,-8.978266,14.788301,19.422772,87.051426,20.775662,0.888213,-0.916098,0.173253,0.032421,0.325932,0.000000,0.000000,0.000000,30.492678,-88.211025,8.978266,90.276761,87.051426,0.000000,0.000000,0.000000,0.000000,0.000000,0.000000,1012.171892,8.978266,25.500000,2469.000000,1762.000000,1484.000000,1509.000000,1502.000000
10.156001,110.384417,89.955772,-9.727953,15.557322,19.385191,89.459050,20.688596,0.304388,-0.772313,-0.165811,0.158356,0.436464,0.000000,0.000000,0.000000,30.492677,-88.211005,9.727953,90.940238,89.459050,0.000000,0.000000,0.000000,0.000000,0.000000,0.000000,1012.081912,9.727953,25.500000,2469.000000,1762.000000,1475.000000,1483.000000,1503.000000
10.256001,110.336790,91.877349,-10.482810,15.170498,19.773334,92.354296,20.583117,-0.319019,-0.644756,-0.286989,0.233174,0.405193,0.000000,0.000000,0.000000,30.492677,-88.210985,10.482810,91.932064,92.354296,0.000000,0.000000,0.000000,0.000000,0.000000,0.000000,1011.991318,10.482810,25.500000,2458.000000,1762.000000,1472.000000,1455.000000,1503.000000
10.357000,110.252360,93.796005,-11.266011,14.299119,20.823407,94.627684,20.456402,-0.647884,-0.530717,-0.275539,0.304103,0.197155,0.000000,0.000000,0.000000,30.492676,-88.210965,11.266011,93.114582,94.627684,0.000000,0.000000,0.000000,0.000000,0.000000,0.000000,1011.897329,11.266011,25.500000,2469.000000,1762.000000,1476.000000,1446.000000,1502.000000
10.458000,110.129408,95.684016,-12.082928,13.106569,22.485486,95.707856,20.320778,-0.562993,-0.441428,-0.271464,0.357532,0.032039,0.000000,0.000000,0.000000,30.492675,-88.210945,12.082928,94.318790,95.707856,0.000000,0.000000,0.000000,0.000000,0.000000,0.000000,1011.799302,12.082928,25.500000,2469.000000,1762.000000,1482.000000,1431.000000,1502.000000
10.558001,109.972539,97.514751,-12.934960,11.925320,24.311875,96.264217,20.164061,-0.353801,-0.434083,-0.197005,0.277756,0.017943,0.000000,0.000000,0.000000,30.492674,-88.210926,12.934960,95.450289,96.264217,0.000000,0.000000,0.000000,0.000000,0.000000,0.000000,1011.697068,12.934960,25.500000,2469.000000,1762.000000,1493.000000,1449.000000,1501.000000
10.658002,109.786129,99.302334,-13.830260,11.068752,25.462043,96.674741,19.975149,-0.190384,-0.560035,-0.182198,0.148738,0.040326,0.000000,0.000000,0.000000,30.492672,-88.210908,13.830260,96.414904,96.674741,0.000000,0.000000,0.000000,0.000000,0.000000,0.000000,1011.589653,13.830260,25.500000,2469.000000,1762.000000,1487.000000,1473.000000,1501.000000
10.759001,109.574825,101.068912,-14.760855,10.101734,26.195291,97.339172,19.763220,-0.151159,-0.617030,-0.267853,0.143195,0.127553,0.000000,0.000000,0.000000,30.492670,-88.210889,14.760855,97.202281,97.339172,0.000000,0.000000,0.000000,0.000000,0.000000,0.000000,1011.478012,14.760855,25.500000,2469.000000,1762.000000,1476.000000,1474.000000,1502.000000
10.860001,109.344793,102.800395,-15.705678,8.818817,26.932945,98.659753,19.537207,-0.313603,-0.596965,-0.392215,0.158360,0.227368,0.000000,0.000000,0.000000,30.492668,-88.210871,15.705678,97.925802,98.659753,0.000000,0.000000,0.000000,0.000000,0.000000,0.000000,1011.364675,15.705678,25.500000,2469.000000,1762.000000,1461.000000,1475.000000,1504.000000
10.961000,109.098146,104.495869,-16.662668,7.179177,27.519940,100.430390,19.290404,-0.613535,-0.614685,-0.409983,0.121035,0.258781,0.000000,0.000000,0.000000,30.492666,-88.210853,16.662668,98.612690,100.430390,0.000000,0.000000,0.000000,0.000000,0.000000,0.000000,1011.249889,16.662668,25.500000,2469.000000,1762.000000,1474.000000,1481.000000,1503.000000
11.061001,108.839999,106.139851,-17.617455,5.772332,28.017080,101.754526,19.032823,-0.796966,-0.630474,-0.283815,0.098032,0.102471,0.000000,0.000000,0.000000,30.492663,-88.210836,17.617455,99.215597,101.754526,0.000000,0.000000,0.000000,0.000000,0.000000,0.000000,1011.135378,17.617455,25.500000,2458.000000,1762.000000,1487.000000,1486.000000,1501.000000
11.161001,108.571229,107.751094,-18.574210,4.466754,28.500145,101.785542,18.778613,-0.641173,-0.639640,-0.198264,0.062867,-0.092123,0.000000,0.000000,0.000000,30.492661,-88.210819,18.574210,99.696597,101.785542,0.000000,0.000000,0.000000,0.000000,0.000000,0.000000,1011.020641,18.574210,25.500000,2469.000000,1762.000000,1488.000000,1497.000000,1501.000000
11.261001,108.296255,109.331607,-19.528770,2.962430,28.485299,101.022071,18.515514,-0.320028,-0.755355,-0.212911,-0.133590,-0.104686,0.000000,0.000000,0.000000,30.492659,-88.210803,19.528770,100.010471,101.022071,0.000000,0.000000,0.000000,0.000000,0.000000,0.000000,1010.906178,19.528770,25.500000,2458.000000,1762.000000,1485.000000,1542.000000,1501.000000
11.362001,108.016027,110.905317,-20.475765,1.619512,26.187022,100.636568,18.212710,-0.167068,-1.244429,-0.176164,-0.728135,0.015398,0.000000,0.000000,0.000000,30.492656,-88.210786,20.475765,100.157875,100.636568,0.000000,0.000000,0.000000,0.000000,0.000000,0.000000,1010.792632,20.475765,25.500000,2458.000000,1762.000000,1492.000000,1698.000000,1501.000000
11.462002,107.734733,112.470671,-21.342878,0.871239,20.903816,100.799909,17.894574,-0.192567,-1.767564,-0.107898,-0.903749,0.055853,0.000000,0.000000,0.000000,30.492653,-88.210770,21.342878,100.209597,100.799909,0.000000,0.000000,0.000000,0.000000,0.000000,0.000000,1010.688674,21.342878,25.500000,2469.000000,1762.000000,1496.000000,1709.000000,1500.000000
11.563000,107.442158,114.090910,-22.080348,0.456662,16.661033,100.967817,17.693179,-0.215129,-1.590851,-0.059149,-0.599459,0.008377,0.000000,0.000000,0.000000,30.492651,-88.210753,22.080348,100.264314,100.967817,0.000000,0.000000,0.000000,0.000000,0.000000,0.000000,1010.600265,22.080348,25.500000,2469.000000,1762.000000,1498.000000,1667.000000,1500.000000
11.663001,107.144850,115.728157,-22.680480,0.164961,13.601035,100.838842,17.578906,-0.156832,-1.349790,-0.034039,-0.458626,-0.040664,0.000000,0.000000,0.000000,30.492648,-88.210736,22.680480,100.316061,100.838842,0.000000,0.000000,0.000000,0.000000,0.000000,0.000000,1010.528325,22.680480,25.500000,2458.000000,1762.000000,1499.000000,1617.000000,1500.000000
11.763001,106.842279,117.387960,-23.178695,-0.047637,12.696298,100.555970,17.548790,-0.062955,-0.794382,-0.018759,0.126286,-0.048130,0.000000,0.000000,0.000000,30.492645,-88.210719,23.178695,100.340827,100.555970,0.000000,0.000000,0.000000,0.000000,0.000000,0.000000,1010.468605,23.178695,25.500000,2469.000000,1762.000000,1500.000000,1480.000000,1500.000000
11.864001,106.534935,119.072423,-23.638314,-0.170824,13.764189,100.325463,17.536971,0.004226,-0.402818,-0.004997,0.171519,-0.026541,0.000000,0.000000,0.000000,30.492643,-88.210701,23.638314,100.335773,100.325463,0.000000,0.000000,0.000000,0.000000,0.000000,0.000000,1010.413514,23.638314,25.500000,2458.000000,1762.000000,1501.000000,1465.000000,1500.000000
11.965001,106.228975,120.751604,-24.108265,-0.193948,14.461401,100.232215,17.508930,0.026111,-0.380982,0.003961,0.095844,-0.005487,0.000000,0.000000,0.000000,30.492640,-88.210683,24.108265,100.316670,100.232215,0.000000,0.000000,0.000000,0.000000,0.000000,0.000000,1010.357188,24.108265,25.500000,2469.000000,1762.000000,1501.000000,1465.000000,1500.000000
12.066001,105.925069,122.422687,-24.595262,-0.155241,14.915096,100.230284,17.469156,0.021181,-0.413963,0.009088,0.050884,0.003036,0.000000,0.000000,0.000000,30.492637,-88.210666,24.595262,100.298875,100.230284,0.000000,0.000000,0.000000,0.000000,0.000000,0.000000,1010.298821,24.595262,25.500000,2458.000000,1762.000000,1501.000000,1476.000000,1500.000000
12.167000,105.623074,124.085697,-25.094942,-0.091166,15.175874,100.244663,17.420586,0.013098,-0.445565,0.010039,0.041429,0.000703,0.000000,0.000000,0.000000,30.492634,-88.210649,25.094942,100.287221,100.244663,0.000000,0.000000,0.000000,0.000000,0.000000,0.000000,1010.238936,25.094942,25.500000,2469.000000,1762.000000,1500.000000,1479.000000,1500.000000
12.267001,105.325677,125.724873,-25.597236,-0.054325,15.377304,100.242757,17.367021,0.011238,-0.461729,0.003875,0.031001,-0.000134,0.000000,0.000000,0.000000,30.492632,-88.210632,25.597236,100.280012,100.242757,0.000000,0.000000,0.000000,0.000000,0.000000,0.000000,1010.178742,25.597236,25.500000,2458.000000,1762.000000,1500.000000,1481.000000,1500.000000
12.368001,105.026791,127.373243,-26.109408,-0.038475,15.542781,100.248511,17.308872,0.007967,-0.467928,0.001499,0.025992,0.002057,0.000000,0.000000,0.000000,30.492629,-88.210614,26.109408,100.275023,100.248511,0.000000,0.000000,0.000000,0.000000,0.000000,0.000000,1010.117366,26.109408,25.500000,2458.000000,1762.000000,1500.000000,1483.000000,1500.000000
12.469000,104.729786,129.011880,-26.623895,-0.028246,15.672864,100.263532,17.181389,0.002699,-0.468716,0.000788,0.018783,0.002555,0.000000,0.000000,0.000000,30.492626,-88.210597,26.623895,100.272155,100.263532,0.000000,0.000000,0.000000,0.000000,0.000000,0.000000,1010.055717,26.623895,25.500000,2458.000000,1653.000000,1500.000000,1484.000000,1500.000000
12.569001,104.438398,130.619848,-27.132363,-0.021400,15.763774,100.275051,17.034272,-0.001032,-0.464154,0.000532,0.011601,0.001149,0.000000,0.000000,0.000000,30.492624,-88.210580,27.132363,100.270811,100.275051,0.000000,0.000000,0.000000,0.000000,0.000000,0.000000,1009.994791,27.132363,25.500000,2458.000000,1653.000000,1500.000000,1485.000000,1500.000000
12.669001,104.149752,132.212843,-27.638124,-0.018517,15.814574,100.276906,16.867180,-0.001788,-0.456701,0.000293,0.006824,-0.000408,0.000000,0.000000,0.000000,30.492621,-88.210564,27.638124,100.270023,100.276906,0.000000,0.000000,0.000000,0.000000,0.000000,0.000000,1009.934193,27.638124,25.500000,2469.000000,1609.000000,1500.000000,1485.000000,1500.000000
12.770000,103.861388,133.804409,-28.144173,-0.018787,15.776793,100.272217,16.681412,-0.000719,-0.467690,0.000065,-0.054285,-0.000962,0.000000,0.000000,0.000000,30.492619,-88.210547,28.144173,100.269084,100.272217,0.000000,0.000000,0.000000,0.000000,0.000000,0.000000,1009.873563,28.144173,25.500000,2469.000000,1609.000000,1500.000000,1504.000000,1500.000000
12.870001,103.578980,135.363270,-28.637277,-0.020136,15.367192,100.267382,16.485545,0.000328,-0.515217,-0.000062,-0.101580,-0.000621,0.000000,0.000000,0.000000,30.492616,-88.210531,28.637277,100.267924,100.267382,0.000000,0.000000,0.000000,0.000000,0.000000,0.000000,1009.814487,28.637277,25.500000,2458.000000,1577.000000,1500.000000,1513.000000,1500.000000
12.971000,103.296669,136.921781,-29.118950,-0.021057,14.755597,100.265539,16.275530,0.000515,-0.532947,-0.000075,-0.094243,-0.000096,0.000000,0.000000,0.000000,30.492614,-88.210515,29.118950,100.266716,100.265539,0.000000,0.000000,0.000000,0.000000,0.000000,0.000000,1009.756783,29.118950,25.500000,2458.000000,1533.000000,1500.000000,1507.000000,1500.000000
13.071001,103.019968,138.449498,-29.573986,-0.021276,14.366735,100.265946,16.067279,0.000077,-0.475918,-0.000034,-0.049074,0.000118,0.000000,0.000000,0.000000,30.492611,-88.210499,29.573986,100.265580,100.265946,0.000000,0.000000,0.000000,0.000000,0.000000,0.000000,1009.702273,29.573986,25.500000,2469.000000,1522.000000,1500.000000,1497.000000,1500.000000
13.172001,102.743448,139.976390,-30.014353,-0.021228,14.140233,100.266513,15.863620,-0.000394,-0.418717,-0.000002,-0.039992,0.000004,0.000000,0.000000,0.000000,30.492609,-88.210483,30.014353,100.264459,100.266513,0.000000,0.000000,0.000000,0.000000,0.000000,0.000000,1009.649522,30.014353,25.500000,2469.000000,1522.000000,1500.000000,1494.000000,1500.000000
13.273001,102.469980,141.486596,-30.439598,-0.021355,13.899082,100.265979,15.663463,-0.000555,-0.389375,-0.000002,-0.042719,-0.000211,0.000000,0.000000,0.000000,30.492606,-88.210467,30.439598,100.263329,100.265979,0.000000,0.000000,0.000000,0.000000,0.000000,0.000000,1009.598585,30.439598,25.500000,2469.000000,1522.000000,1500.000000,1485.000000,1500.000000
13.374001,102.199551,142.980193,-30.850858,-0.021807,13.775025,100.264332,15.469814,-0.000446,-0.337085,-0.000020,-0.012212,-0.000335,0.000000,0.000000,0.000000,30.492604,-88.210451,30.850858,100.262134,100.264332,0.000000,0.000000,0.000000,0.000000,0.000000,0.000000,1009.549325,30.850858,25.500000,2458.000000,1522.000000,1500.000000,1484.000000,1500.000000
13.474001,101.934827,144.442464,-31.246841,-0.022439,13.634395,100.262371,15.281849,-0.000277,-0.313041,-0.000037,-0.021405,-0.000331,0.000000,0.000000,0.000000,30.492601,-88.210436,31.246841,100.260829,100.262371,0.000000,0.000000,0.000000,0.000000,0.000000,0.000000,1009.501896,31.246841,25.500000,2458.000000,1522.000000,1500.000000,1476.000000,1500.000000
13.574001,101.673148,145.888107,-31.632347,-0.023075,13.466955,100.260669,15.088649,-0.000194,-0.295306,-0.000043,-0.031659,-0.000267,0.000000,0.000000,0.000000,30.492599,-88.210421,31.632347,100.259448,100.260669,0.000000,0.000000,0.000000,0.000000,0.000000,0.000000,1009.455724,31.632347,25.500000,2469.000000,1500.000000,1500.000000,1475.000000,1500.000000
13.674001,101.414551,147.316921,-32.006926,-0.023625,13.289986,100.259340,14.897920,-0.000220,-0.275207,-0.000040,-0.043910,-0.000216,0.000000,0.000000,0.000000,30.492597,-88.210406,32.006926,100.258024,100.259340,0.000000,0.000000,0.000000,0.000000,0.000000,0.000000,1009.410863,32.006926,25.500000,2458.000000,1500.000000,1500.000000,1479.000000,1500.000000
13.775000,101.156405,148.743448,-32.373774,-0.024110,13.102587,100.258171,14.710172,-0.000298,-0.244349,-0.000035,-0.017785,-0.000212,0.000000,0.000000,0.000000,30.492594,-88.210391,32.373774,100.256571,100.258171,0.000000,0.000000,0.000000,0.000000,0.000000,0.000000,1009.366929,32.373774,25.500000,2469.000000,1500.000000,1500.000000,1465.000000,1500.000000
13.875001,100.903753,150.139825,-32.725986,-0.024595,13.055621,100.256869,14.529223,-0.000361,-0.199983,-0.000032,-0.008400,-0.000241,0.000000,0.000000,0.000000,30.492592,-88.210377,32.725986,100.255060,100.256869,0.000000,0.000000,0.000000,0.000000,0.000000,0.000000,1009.324749,32.725986,25.500000,2469.000000,1500.000000,1500.000000,1464.000000,1500.000000
13.975001,100.654060,151.520060,-33.069607,-0.025118,12.967829,100.255378,14.351070,-0.000386,-0.179141,-0.000034,-0.020763,-0.000278,0.000000,0.000000,0.000000,30.492590,-88.210362,33.069607,100.253478,100.255378,0.000000,0.000000,0.000000,0.000000,0.000000,0.000000,1009.283600,33.069607,25.500000,2469.000000,1500.000000,1500.000000,1463.000000,1500.000000
14.076001,100.404834,152.897933,-33.408230,-0.025682,12.710866,100.253768,14.173646,-0.000381,-0.193178,-0.000038,-0.083156,-0.000302,0.000000,0.000000,0.000000,30.492588,-88.210348,33.408230,100.251834,100.253768,0.000000,0.000000,0.000000,0.000000,0.000000,0.000000,1009.243050,33.408230,25.500000,2458.000000,1500.000000,1500.000000,1486.000000,1500.000000
14.177001,100.158408,154.260533,-33.735667,-0.081096,11.866495,100.248827,13.999331,0.000829,-0.286938,-0.047092,-0.215987,-0.001285,0.000000,0.000000,0.000000,30.492585,-88.210334,33.735667,100.250608,100.248827,0.000000,0.000000,0.000000,0.000000,0.000000,0.000000,1009.203841,33.735667,25.500000,2458.000000,1500.000000,1474.000000,1523.000000,1503.000000
14.278001,99.914274,155.610902,-34.041483,-0.844960,10.461580,100.390743,13.836090,-0.029625,-0.369326,-0.232322,-0.242074,0.064283,0.000000,0.000000,0.000000,30.492583,-88.210319,34.041483,100.242423,100.390743,0.000000,0.000000,0.000000,0.000000,0.000000,0.000000,1009.167223,34.041483,25.500000,2469.000000,1500.000000,1451.000000,1521.000000,1505.000000
14.378001,99.674487,156.939500,-34.312059,-2.568533,9.115520,101.172506,13.694701,-0.208144,-0.376464,-0.408612,-0.229930,0.194293,0.000000,0.000000,0.000000,30.492581,-88.210306,34.312059,100.216091,101.172506,0.000000,0.000000,0.000000,0.000000,0.000000,0.000000,1009.134824,34.312059,25.500000,2469.000000,1500.000000,1443.000000,1521.000000,1506.000000
14.479001,99.434330,158.275073,-34.549803,-4.939093,8.007870,102.676208,13.567698,-0.559698,-0.341284,-0.484730,-0.183173,0.272122,0.000000,0.000000,0.000000,30.492579,-88.210292,34.549803,100.167229,102.676208,0.000000,0.000000,0.000000,0.000000,0.000000,0.000000,1009.106358,34.549803,25.500000,2469.000000,1500.000000,1439.000000,1503.000000,1506.000000
14.579002,99.199061,159.592530,-34.751404,-7.609325,7.366628,104.242567,13.452526,-0.945143,-0.268384,-0.523859,-0.108575,0.220319,0.000000,0.000000,0.000000,30.492577,-88.210278,34.751404,100.069210,104.242567,0.000000,0.000000,0.000000,0.000000,0.000000,0.000000,1009.082220,34.751404,25.500000,2469.000000,1500.000000,1432.000000,1490.000000,1507.000000
14.680001,98.965866,160.919081,-34.926401,-10.746871,6.977921,105.247776,13.351285,-1.234013,-0.219841,-0.586701,-0.085221,0.098310,0.000000,0.000000,0.000000,30.492575,-88.210264,34.926401,99.847216,105.247776,0.000000,0.000000,0.000000,0.000000,0.000000,0.000000,1009.061268,34.926401,25.500000,2458.000000,1500.000000,1436.000000,1480.000000,1506.000000
14.781001,98.740410,162.242718,-35.076715,-14.011155,6.680723,105.490646,13.272938,-1.396504,-0.169586,-0.537186,-0.017410,-0.045207,0.000000,0.000000,0.000000,30.492573,-88.210250,35.076715,99.457381,105.490646,0.000000,0.000000,0.000000,0.000000,0.000000,0.000000,1009.043271,35.076715,25.500000,2469.000000,1500.000000,1453.000000,1451.000000,1505.000000
14.882001,98.527239,163.565027,-35.205429,-16.899972,6.620321,104.713458,13.225691,-1.401538,-0.076642,-0.439185,0.047531,-0.220214,0.000000,0.000000,0.000000,30.492571,-88.210236,35.205429,98.810244,104.713458,0.000000,0.000000,0.000000,0.000000,0.000000,0.000000,1009.027860,35.205429,25.500000,2458.000000,1500.000000,1467.000000,1439.000000,1503.000000
14.983001,98.333092,164.887378,-35.319723,-19.396283,6.382415,102.975952,13.206116,-1.245050,-0.019929,-0.354222,0.063851,-0.361525,0.000000,0.000000,0.000000,30.492569,-88.210223,35.319723,97.856395,102.975952,0.000000,0.000000,0.000000,0.000000,0.000000,0.000000,1009.014176,35.319723,25.500000,2458.000000,1500.000000,1480.000000,1423.000000,1502.000000
15.084001,98.164486,166.210999,-35.423557,-21.424880,6.010347,100.608935,13.201478,-1.000437,0.038406,-0.254491,0.114755,-0.434288,0.000000,0.000000,0.000000,30.492567,-88.210209,35.423557,96.631777,100.608935,0.000000,0.000000,0.000000,0.000000,0.000000,0.000000,1009.001745,35.423557,25.500000,2458.000000,1500.000000,1495.000000,1400.000000,1500.000000
15.185001,98.027622,167.536665,-35.519938,-22.812763,5.847028,97.856350,13.200017,-0.741056,0.133866,-0.117749,0.191441,-0.458365,0.000000,0.000000,0.000000,30.492566,-88.210195,35.519938,95.121434,97.856350,0.000000,0.000000,0.000000,0.000000,0.000000,0.000000,1008.990206,35.519938,25.500000,2469.000000,1500.000000,1523.000000,1379.000000,1498.000000
15.285002,97.930205,168.850972,-35.614504,-23.285028,5.813490,94.935466,13.194886,-0.487115,0.197584,0.042347,0.185928,-0.481662,0.000000,0.000000,0.000000,30.492565,-88.210181,35.614504,93.337861,94.935466,0.000000,0.000000,0.000000,0.000000,0.000000,0.000000,1008.978884,35.614504,25.500000,2469.000000,1500.000000,1531.000000,1379.000000,1497.000000
15.386001,97.875281,170.178816,-35.714558,-23.061893,5.637636,91.915173,13.182712,-0.218396,0.210519,0.134515,0.171437,-0.488489,0.000000,0.000000,0.000000,30.492565,-88.210167,35.714558,91.408488,91.915173,0.000000,0.000000,0.000000,0.000000,0.000000,0.000000,1008.966906,35.714558,25.500000,2469.000000,1500.000000,1535.000000,1377.000000,1496.000000
15.487001,97.865481,171.505215,-35.819900,-22.355925,5.525930,88.970267,13.161161,0.025357,0.224912,0.196761,0.187822,-0.455216,0.000000,0.000000,0.000000,30.492565,-88.210153,35.819900,89.455982,88.970267,0.000000,0.000000,0.000000,0.000000,0.000000,0.000000,1008.954294,35.819900,25.500000,2469.000000,1500.000000,1532.000000,1370.000000,1497.000000
15.587001,97.900280,172.815022,-35.930174,-21.503325,5.650576,86.295969,13.131408,0.201331,0.244228,0.184535,0.189322,-0.381894,0.000000,0.000000,0.000000,30.492565,-88.210140,35.930174,87.517879,86.295969,0.000000,0.000000,0.000000,0.000000,0.000000,0.000000,1008.941092,35.930174,25.500000,2469.000000,1500.000000,1522.000000,1371.000000,1498.000000
15.688001,97.979834,174.132143,-36.049445,-20.717420,5.967858,84.116139,13.095581,0.263851,0.248947,0.169406,0.181925,-0.276952,0.000000,0.000000,0.000000,30.492566,-88.210126,36.049445,85.596631,84.116139,0.000000,0.000000,0.000000,0.000000,0.000000,0.000000,1008.926814,36.049445,25.500000,2458.000000,1500.000000,1524.000000,1375.000000,1498.000000
15.789002,98.102285,175.441295,-36.177342,-19.911944,6.427704,82.480626,13.055277,0.216434,0.240407,0.167406,0.155823,-0.203647,0.000000,0.000000,0.000000,30.492567,-88.210112,36.177342,83.748005,82.480626,0.000000,0.000000,0.000000,0.000000,0.000000,0.000000,1008.911502,36.177342,25.500000,2458.000000,1500.000000,1520.000000,1379.000000,1498.000000
15.890001,98.265013,176.740651,-36.313622,-19.134508,6.820740,81.178721,13.009330,0.123055,0.213134,0.151642,0.118474,-0.178995,0.000000,0.000000,0.000000,30.492568,-88.210099,36.313622,82.011265,81.178721,0.000000,0.000000,0.000000,0.000000,0.000000,0.000000,1008.895188,36.313622,25.500000,2469.000000,1500.000000,1516.000000,1389.000000,1498.000000
15.990002,98.462553,178.016331,-36.454634,-18.474715,7.081510,79.990242,12.958423,0.036170,0.189361,0.128108,0.104308,-0.184582,0.000000,0.000000,0.000000,30.492570,-88.210085,36.454634,80.417479,79.990242,0.000000,0.000000,0.000000,0.000000,0.000000,0.000000,1008.878307,36.454634,25.500000,2469.000000,1500.000000,1512.000000,1392.000000,1499.000000
16.091000,98.695875,179.293134,-36.600648,-17.965408,7.291402,78.743259,12.903205,-0.024718,0.181449,0.101900,0.098218,-0.198940,0.000000,0.000000,0.000000,30.492572,-88.210072,36.600648,78.895668,78.743259,0.000000,0.000000,0.000000,0.000000,0.000000,0.000000,1008.860827,36.600648,25.500000,2469.000000,1500.000000,1510.000000,1394.000000,1499.000000
16.191001,98.958373,180.545082,-36.747564,-17.586725,7.450176,77.453695,12.846057,-0.061310,0.178902,0.102341,0.090849,-0.208245,0.000000,0.000000,0.000000,30.492575,-88.210059,36.747564,77.441159,77.453695,0.000000,0.000000,0.000000,0.000000,0.000000,0.000000,1008.843240,36.747564,25.500000,2469.000000,1500.000000,1519.000000,1395.000000,1498.000000
16.291002,99.250732,181.784214,-36.896063,-17.152317,7.552961,76.097092,12.787206,-0.072828,0.178255,0.115485,0.083958,-0.228904,0.000000,0.000000,0.000000,30.492577,-88.210046,36.896063,76.027291,76.097092,0.000000,0.000000,0.000000,0.000000,0.000000,0.000000,1008.825464,36.896063,25.500000,2469.000000,1500.000000,1522.000000,1396.000000,1498.000000
16.392001,99.574972,183.022152,-37.047009,-16.601909,7.595601,74.612805,12.726600,-0.049453,0.179507,0.136317,0.077260,-0.253765,0.000000,0.000000,0.000000,30.492580,-88.210033,37.047009,74.637257,74.612805,0.000000,0.000000,0.000000,0.000000,0.000000,0.000000,1008.807395,37.047009,25.500000,2458.000000,1500.000000,1519.000000,1397.000000,1498.000000
16.492001,99.923383,184.233898,-37.196926,-15.993120,7.586595,73.045099,12.665602,0.004180,0.181277,0.149939,0.068263,-0.265020,0.000000,0.000000,0.000000,30.492583,-88.210021,37.196926,73.297558,73.045099,0.000000,0.000000,0.000000,0.000000,0.000000,0.000000,1008.789449,37.196926,25.500000,2458.000000,1500.000000,1521.000000,1403.000000,1498.000000
16.593001,100.301639,185.443286,-37.348403,-15.334422,7.487055,71.474606,12.603192,0.067882,0.172067,0.145636,0.051048,-0.258324,0.000000,0.000000,0.000000,30.492587,-88.210008,37.348403,71.988957,71.474606,0.000000,0.000000,0.000000,0.000000,0.000000,0.000000,1008.771317,37.348403,25.500000,2458.000000,1500.000000,1518.000000,1402.000000,1498.000000
16.693001,100.700734,186.626308,-37.497131,-14.731147,7.404927,70.030206,12.541412,0.113806,0.173982,0.129065,0.051968,-0.228845,0.000000,0.000000,0.000000,30.492590,-88.209996,37.497131,70.746131,70.030206,0.000000,0.000000,0.000000,0.000000,0.000000,0.000000,1008.753514,37.497131,25.500000,2469.000000,1500.000000,1515.000000,1401.000000,1498.000000
16.794002,101.127275,187.806590,-37.645512,-14.201217,7.390176,68.775333,12.479942,0.121865,0.181513,0.109915,0.049592,-0.188605,0.000000,0.000000,0.000000,30.492594,-88.209983,37.645512,69.533132,68.775333,0.000000,0.000000,0.000000,0.000000,0.000000,0.000000,1008.735753,37.645512,25.500000,2458.000000,1500.000000,1512.000000,1401.000000,1499.000000
16.895001,101.576119,188.972157,-37.792163,-13.746261,7.416392,67.744107,12.419565,0.089962,0.187625,0.099460,0.044476,-0.153817,0.000000,0.000000,0.000000,30.492598,-88.209971,37.792163,68.362689,67.744107,0.000000,0.000000,0.000000,0.000000,0.000000,0.000000,1008.718199,37.792163,25.500000,2458.000000,1500.000000,1516.000000,1401.000000,1498.000000
