FMT,128,89,FMT,BBnNZ,Type,Length,Name,Format,Columns
FMT,129,31,PARM,QNf,TimeMS,Name,Value
FMT,130,53,GPS,QBIHBcLLeeEefI,TimeMS,Status,GPSTimeMS,Week,NSats,HDop,Lat,Lng,RelAlt,Alt,Spd,GCrs,VZ,T
FMT,131,31,IMU,Iffffff,TimeMS,GyrX,GyrY,GyrZ,AccX,AccY,AccZ
FMT,132,75,MSG,QZ,TimeMS,Message
FMT,133,35,RCIN,Ihhhhhhhhhhhhhh,TimeMS,C1,C2,C3,C4,C5,C6,C7,C8,C9,C10,C11,C12,C13,C14
FMT,134,23,RCOU,Ihhhhhhhh,TimeMS,Chan1,Chan2,Chan3,Chan4,Chan5,Chan6,Chan7,Chan8
FMT,136,21,BARO,Iffcf,TimeMS,Alt,Press,Temp,CRt
FMT,137,13,POWR,ICCH,TimeMS,Vcc,VServo,Flags
FMT,145,41,CMD,IHHHfffffff,TimeMS,CTot,CNum,CId,Prm1,Prm2,Prm3,Prm4,Lat,Lng,Alt
FMT,146,16,RAD,IBBBBBHH,TimeMS,RSSI,RemRSSI,TxBuf,Noise,RemNoise,RxErrors,Fixed
FMT,148,39,CAM,QIHLLeeccC,TimeMS,GPSTime,GPSWeek,Lat,Lng,Alt,RelAlt,Roll,Pitch,Yaw
FMT,144,46,GPS2,BIHBcLLeEefIBI,Status,TimeMS,Week,NSats,HDop,Lat,Lng,Alt,Spd,GCrs,VZ,T,DSc,DAg
FMT,135,31,IMU2,Iffffff,TimeMS,GyrX,GyrY,GyrZ,AccX,AccY,AccZ
FMT,149,31,IMU3,Iffffff,TimeMS,GyrX,GyrY,GyrZ,AccX,AccY,AccZ
FMT,138,25,AHR2,IccCfLL,TimeMS,Roll,Pitch,Yaw,Alt,Lat,Lng
FMT,139,25,SIM,IccCfLL,TimeMS,Roll,Pitch,Yaw,Alt,Lat,Lng
FMT,140,43,EKF1,IccCffffffccc,TimeMS,Roll,Pitch,Yaw,VN,VE,VD,PN,PE,PD,GX,GY,GZ
FMT,141,26,EKF2,Ibbbcchhhhhh,TimeMS,AX,AY,AZ,VWN,VWE,MN,ME,MD,MX,MY,MZ
FMT,142,27,EKF3,Icccccchhhc,TimeMS,IVN,IVE,IVD,IPN,IPE,IPD,IMX,IMY,IMZ,IVT
FMT,143,25,EKF4,IcccccccbbBB,TimeMS,SV,SP,SH,SMX,SMY,SMZ,SVT,OFN,EFE,FS,DS
FMT,150,30,TERR,IBLLHffHH,TimeMS,Status,Lat,Lng,Spacing,TerrH,CHeight,Pending,Loaded
FMT,151,12,UBX1,IBHBB,TimeMS,Instance,noisePerMS,jamInd,aPower
FMT,152,12,UBX2,IBbBbB,TimeMS,Instance,ofsI,magI,ofsQ,magQ
FMT,25,33,ATUN,QBBfffff,TimeMS,Axis,TuneStep,RateMin,RateMax,RPGain,RDGain,SPGain
FMT,26,17,ATDE,Qcf,TimeMS,Angle,Rate
FMT,9,23,CURR,IhIhhhf,TimeMS,ThrOut,ThrInt,Volt,Curr,Vcc,CurrTot
FMT,12,28,OF,QhhBccee,TimeMS,Dx,Dy,SQual,X,Y,Roll,Pitch
FMT,5,47,NTUN,Iffffffffff,TimeMS,DPosX,DPosY,PosX,PosY,DVelX,DVelY,VelX,VelY,DAccX,DAccY
FMT,4,33,CTUN,Ihhhffecchh,TimeMS,ThrIn,AngBst,ThrOut,DAlt,Alt,BarAlt,DSAlt,SAlt,DCRt,CRt
FMT,15,25,MAG,Ihhhhhhhhh,TimeMS,MagX,MagY,MagZ,OfsX,OfsY,OfsZ,MOfsX,MOfsY,MOfsZ
FMT,27,25,MAG2,Ihhhhhhhhh,TimeMS,MagX,MagY,MagZ,OfsX,OfsY,OfsZ,MOfsX,MOfsY,MOfsZ
FMT,28,25,MAG3,Ihhhhhhhhh,TimeMS,MagX,MagY,MagZ,OfsX,OfsY,OfsZ,MOfsX,MOfsY,MOfsZ
FMT,6,25,PM,QHHIhBHB,TimeMS,NLon,NLoop,MaxT,PMT,I2CErr,INSErr,INAVErr
FMT,1,23,ATT,IccccCCCC,TimeMS,DesRoll,Roll,DesPitch,Pitch,DesYaw,Yaw,ErrRP,ErrYaw
FMT,3,14,MODE,QMh,TimeMS,Mode,ThrCrs
FMT,10,11,STRT,Q,TimeMS
FMT,13,12,EV,QB,TimeMS,Id
FMT,20,14,D16,QBh,TimeMS,Id,Value
FMT,21,14,DU16,QBH,TimeMS,Id,Value
FMT,22,16,D32,QBi,TimeMS,Id,Value
FMT,23,16,DU32,QBI,TimeMS,Id,Value
FMT,24,16,DFLT,QBf,TimeMS,Id,Value
FMT,19,13,ERR,QBB,TimeMS,Subsys,ECode
MSG,0,ArduCopter V3.2.1 (36b405fb)
MSG,0,PX4: ce602658 NuttX: 475b8c15
MSG,0,PX4v2 004A002A 33345113 32353634
MSG,0,Frame: QUAD
MODE,0,2,532
EV,0,10
MODE,0,2,532
BARO,173978,0.02256205677986145,101209.6015625,34.48,0.024734603241086006
CTUN,173978,0,0,0,0,-0.9199999570846558,0.02,0,0,0,4
ATT,173979,0,0.71,0,-0.5,142,142,0,0.04
EKF1,173979,0.56,0.2,0,0,0,0,0,0,0,0,0,0
EKF2,173979,50,0,0,0,0,0,0,0,0,0,0
EKF3,173979,0,0,0,0,0,0,0,0,0,0
EKF4,173979,0,0,0,0,0,0,0,0,0,0,0
RCIN,173979,1522,1504,992,1514,1146,992,992,1504,0,0,0,0,0,0
RCOU,173979,1084,1084,1084,1084,0,0,0,0
IMU,173984,0.00038306182250380516,0.000504697673022747,0.0009964671917259693,-0.1126820296049118,-0.027866743505001068,-9.898290634155273
IMU2,173984,0.003928150050342083,-0.00018329359591007233,0.004907224327325821,0.03428316116333008,0.004140257835388184,-9.808055877685547
GPS,173984,1,0,0,0,99.99,10.9202562,-113.6088288,0,794.47,0,0,0,173996
IMU,174003,0.00023731263354420662,-0.0006150463595986366,0.0004953686147928238,-0.10061561316251755,-0.01573968678712845,-9.904589653015137
IMU2,174003,0.0042318860068917274,0.0015792343765497208,-0.004605468362569809,-0.04016989469528198,0.00031512975692749023,-9.691277503967285
GPS,174003,1,0,0,0,99.99,10.9244144,-113.6084325,0,795.05,0,0,0,174017
IMU,174023,0.00037532486021518707,0.0002238992601633072,3.141816705465317e-5,-0.12925302982330322,-0.02248377352952957,-9.903887748718262
IMU2,174023,0.003922757692635059,0.0019490737468004227,-0.0015668980777263641,-0.0423852801322937,-0.009841442108154297,-9.836310386657715
IMU,174043,-0.0004097074270248413,-0.0008639227598905563,0.0002202838659286499,-0.09806215763092041,-0.03699085861444473,-9.89928913116455
IMU2,174043,0.002110111527144909,0.0036769863218069077,-0.0012504272162914276,-0.036245107650756836,-0.02390819787979126,-9.781081199645996
RAD,174059,123,122,93,35,41,41,11
RAD,174059,123,122,93,35,41,41,11
IMU,174063,-0.004005183465778828,0.0032437583431601524,0.01101873628795147,-0.15490081906318665,-0.055064983665943146,-9.89107608795166
IMU2,174063,-0.006767641752958298,0.0011435579508543015,0.016632629558444023,-0.035800397396087646,-0.003320455551147461,-9.877935409545898
MAG,174076,-346,-302,69,-155,8,70,0,0,0
MAG2,174076,-297,277,75,156,-135,421,0,0,0
BARO,174078,-0.06204565241932869,101210.5625,34.48,0.16198033094406128
CTUN,174078,0,0,0,-0.0011803254019469023,0,-0.06,0,0,0,4
ATT,174078,0,0.71,0,-0.49,142,142,0,0.05
EKF1,174078,0.56,0.2,0,0,0,0,0,0,0,0,0,0
EKF2,174078,50,0,0,0,0,0,0,0,0,0,0
EKF3,174079,0,0,0,0,0,0,0,0,0,0
EKF4,174079,0,0,0,0,0,0,0,0,0,0,0
RCIN,174079,1521,1504,993,1514,1146,992,993,1503,0,0,0,0,0,0
RCOU,174079,1084,1084,1084,1084,0,0,0,0
IMU,174084,0.0003116684965789318,-0.000760209746658802,-0.018280532211065292,-0.1998099386692047,0.008167259395122528,-9.935601234436035
IMU2,174084,-0.004427917301654816,-0.0004161205142736435,-0.02212955430150032,-0.11488515138626099,0.041242897510528564,-9.816892623901367
IMU,174103,-0.0014310951810330153,-0.0015810048207640648,0.014117071405053139,-0.0864972174167633,-0.12032193690538406,-9.871624946594238
IMU2,174103,-0.002348361536860466,-0.011183532886207104,0.020915741100907326,0.008946120738983154,-0.04746216535568237,-9.788196563720703
IMU,174123,0.0031363843008875847,0.0008937353268265724,-0.008575311861932278,-0.09636848419904709,0.04628174751996994,-9.926459312438965
IMU2,174123,0.0016508186236023903,0.00484970398247242,-0.01721225678920746,-0.01657503843307495,0.07811278104782104,-9.755158424377441
UBX2,174136,0,8,123,44,123
IMU,174143,0.0018690256401896477,-0.0005138935521245003,0.004666885361075401,-0.07650291919708252,-0.09271705895662308,-9.890602111816406
IMU2,174143,-0.0030660200864076614,-0.0073413001373410225,0.012667777016758919,0.06910300254821777,-0.04294866323471069,-9.738765716552734
IMU,174164,-0.0013614622876048088,0.0017138011753559113,-9.285425767302513e-5,-0.19425281882286072,0.0778123140335083,-9.928915977478027
IMU2,174164,-0.005338557064533234,0.0053725820034742355,-0.00783020630478859,-0.15538150072097778,0.07172119617462158,-9.87360668182373
MAG,174176,-345,-304,68,-155,8,70,0,0,0
MAG2,174176,-298,277,71,156,-135,421,0,0,0
BARO,174178,-0.011281028389930725,101210,34.49,0.27128538489341736
CTUN,174178,0,0,0,-0.00025971949798986316,0,-0.01,0,0,0,4
ATT,174179,0,0.7,0,-0.49,141.97,141.97,0,0.05
EKF1,174179,0.56,0.2,0,0,0,0,0,0,0,0,0,0
EKF2,174179,50,0,0,0,0,0,0,0,0,0,0
EKF3,174179,0,0,0,0,0,0,0,0,0,0
EKF4,174179,0,0,0,0,0,0,0,0,0,0,0
RCIN,174179,1520,1504,992,1512,1146,992,993,1504,0,0,0,0,0,0
RCOU,174179,1084,1084,1084,1084,0,0,0,0
IMU,174184,-0.00026443973183631897,0.0003362717106938362,-0.00017310213297605515,-0.09454698860645294,-0.02388405054807663,-9.882699012756348
IMU2,174184,-0.0016100099310278893,-0.005346367135643959,0.00550663098692894,-0.00586313009262085,0.010959386825561523,-9.688444137573242
GPS,174184,1,0,0,0,99.99,11.2079659,-113.3685996,0,834.54,0,0,0,174196
IMU,174204,-0.0023583299480378628,0.0005123931914567947,0.005756143480539322,-0.1298886388540268,0.002219974994659424,-9.95227336883545
IMU2,174204,-0.0016599874943494797,-0.00028525665402412415,0.0004510246217250824,-0.15277713537216187,-0.0035368800163269043,-9.765157699584961
IMU,174223,0.000962662510573864,0.003393755294382572,-0.009588463231921196,-0.09808468818664551,-0.023203246295452118,-9.895185470581055
IMU2,174223,0.006906342692673206,0.0072824470698833466,-0.005840182304382324,0.00013309717178344727,-0.0030865073204040527,-9.748226165771484
IMU,174244,-0.0009009195491671562,-0.003958436660468578,0.011574100703001022,-0.19413381814956665,-0.03410150855779648,-9.929692268371582
IMU2,174244,-0.004482779651880264,-0.007702738977968693,0.008938761427998543,-0.10611516237258911,-0.02951204776763916,-9.765583038330078
IMU,174263,0.001451822929084301,0.0017637358978390694,-0.01298181340098381,0.019260995090007782,-0.02055373042821884,-9.926838874816895
IMU2,174263,-0.0022021951153874397,0.001435140147805214,-0.008296497166156769,0.08591926097869873,-0.033537089824676514,-9.798347473144531
MAG,174276,-344,-304,65,-155,8,70,0,0,0
MAG2,174276,-296,284,71,156,-135,421,0,0,0
BARO,174278,-0.08460771292448044,101210.8359375,34.5,0.2695651650428772
CTUN,174278,0,0,0,0.0037576721515506506,0,-0.08,0,0,0,4
ATT,174278,0,0.7,0,-0.5,141.95,141.95,0,0.05
EKF1,174278,0.56,0.2,0,0,0,0,0,0,0,0,0,0
EKF2,174278,50,0,0,0,0,0,0,0,0,0,0
EKF3,174279,0,0,0,0,0,0,0,0,0,0
EKF4,174279,0,0,0,0,0,0,0,0,0,0,0
RCIN,174279,1520,1504,992,1512,1146,993,992,1504,0,0,0,0,0,0
RCOU,174279,1084,1084,1084,1084,0,0,0,0
IMU,174284,0.0017221616581082344,0.002790173515677452,0.012284651398658752,-0.20759417116641998,0.012780338525772095,-9.87926959991455
IMU2,174284,-0.0013388963416218758,-0.007714380975812674,0.008259948343038559,-0.173092782497406,0.07686823606491089,-9.714585304260254
IMU,174303,-0.0014496955554932356,-0.006143475882709026,-0.012019441463053226,-0.08010409772396088,-0.12256681174039841,-9.981499671936035
IMU2,174303,0.0001510949805378914,0.003302028402686119,-0.008864961564540863,0.02422231435775757,-0.08517074584960938,-9.799910545349121
IMU,174323,0.0028122207149863243,0.007383505813777447,0.014411021023988724,-0.004600919783115387,0.024616852402687073,-9.829245567321777
IMU2,174323,0.00023562368005514145,0.00019760988652706146,0.019321799278259277,0.053216755390167236,0.05962902307510376,-9.708364486694336
IMU,174343,-0.00454575102776289,-0.00592439342290163,-0.011203357949852943,-0.31508439779281616,-0.03934279829263687,-9.925395965576172
IMU2,174343,-0.003971363417804241,-0.002756088972091675,-0.015382308512926102,-0.1659882664680481,-0.01709073781967163,-9.783293724060059
IMU,174363,0.0031006047502160072,-0.0009934119880199432,0.009188782423734665,0.13669469952583313,-0.03639278560876846,-9.883899688720703
IMU2,174363,-0.003868269734084606,-0.0006746202707290649,0.009107820689678192,0.24220138788223267,-0.06120783090591431,-9.758652687072754
MAG,174376,-347,-304,69,-155,8,70,0,0,0
MAG2,174376,-296,281,72,156,-135,421,0,0,0
BARO,174379,-0.06768616288900375,101210.6171875,34.5,0.12207730859518051
CTUN,174379,0,0,0,0.003217091551050544,0,-0.06,0,0,0,4
ATT,174379,0,0.7,0,-0.5,141.94,141.94,0,0.05
EKF1,174379,0.56,0.2,0,0,0,0,0,0,0,0,0,0
EKF2,174379,50,0,0,0,0,0,0,0,0,0,0
EKF3,174379,0,0,0,0,0,0,0,0,0,0
EKF4,174379,0,0,0,0,0,0,0,0,0,0,0
RCIN,174379,1518,1504,992,1512,1146,992,992,1504,0,0,0,0,0,0
RCOU,174379,1084,1084,1084,1084,0,0,0,0
IMU,174383,-0.0034553329460322857,0.006267857737839222,-0.005233032163232565,-0.263774037361145,0.06969985365867615,-9.900532722473145
IMU2,174383,-0.006381920538842678,0.007330814376473427,-0.014306627213954926,-0.12921595573425293,0.08190655708312988,-9.682539939880371
GPS,174383,1,0,0,0,99.99,11.0188944,-113.5377434,0,808.11,0,0,0,174396
IMU,174403,0.002955208532512188,-0.01434873417019844,-0.0002683526836335659,-0.024029511958360672,-0.12183598428964615,-9.916322708129883
IMU2,174403,0.0015240954235196114,-0.016670476645231247,0.005528699606657028,0.12104964256286621,-0.057975828647613525,-9.796733856201172
IMU,174423,-0.00275073922239244,0.01539612840861082,0.005512567237019539,-0.03705105930566788,0.12340176850557327,-9.933321952819824
IMU2,174423,-0.003226052038371563,0.01450992189347744,-0.004143973812460899,-0.09752368927001953,0.17943882942199707,-9.737174987792969
IMU,174443,0.0029477067291736603,-0.013351883739233017,-0.009551338851451874,-0.24416115880012512,-0.12110046297311783,-9.850760459899902
IMU2,174443,-0.0034693265333771706,-0.015295568853616714,-0.0072857290506362915,-0.1566135287284851,-0.13599437475204468,-9.748539924621582
IMU,174464,-0.002280740300193429,0.008031691424548626,0.012102222070097923,0.12249945104122162,0.14762789011001587,-9.97372055053711
IMU2,174464,-0.009017189964652061,0.006237247958779335,0.007823020219802856,0.23555320501327515,0.11299896240234375,-9.772640228271484
MAG,174476,-347,-305,69,-155,8,70,0,0,0
MAG2,174476,-297,281,73,156,-135,421,0,0,0
BARO,174479,-0.02256205677986145,101210.140625,34.5,-0.10156925767660141
CTUN,174479,0,0,0,0.0037001047749072313,0,-0.02,0,0,0,4
ATT,174479,0,0.68,0,-0.49,141.92,141.92,0,0.05
EKF1,174479,0.56,0.2,0,0,0,0,0,0,0,0,0,0
EKF2,174479,50,0,0,0,0,0,0,0,0,0,0
EKF3,174479,0,0,0,0,0,0,0,0,0,0
EKF4,174479,0,0,0,0,0,0,0,0,0,0,0
RCIN,174479,1517,1504,992,1510,1147,992,992,1504,0,0,0,0,0,0
RCOU,174479,1084,1084,1084,1084,0,0,0,0
IMU,174483,0.0030067749321460724,0.0014898460358381271,-0.01370833907276392,-0.36217543482780457,-0.12722903490066528,-9.857895851135254
IMU2,174483,-4.497542977333069e-5,0.0006091771647334099,-0.011712677776813507,-0.22082924842834473,-0.13024938106536865,-9.685341835021973
IMU,174503,-0.00365288439206779,-0.005828686058521271,0.01440863125026226,0.11085310578346252,0.12711986899375916,-9.900877952575684
IMU2,174503,-0.015649981796741486,-0.011122794821858406,0.021275801584124565,0.2066439986228943,0.16074490547180176,-9.708372116088867
IMU,174523,0.0049075772985816,0.006282093934714794,-0.01415028516203165,-0.22530564665794373,-0.1341891884803772,-9.946394920349121
IMU2,174523,0.008072243072092533,0.008805029094219208,-0.017537832260131836,-0.16858279705047607,-0.07021170854568481,-9.871585845947266
IMU,174543,-0.005841761361807585,-0.004342901520431042,0.012227935716509819,-0.05913691222667694,0.11266221851110458,-9.848137855529785
IMU2,174543,-0.013722133822739124,-0.014471023343503475,0.019905779510736465,-0.008687436580657959,0.1006966233253479,-9.747553825378418
EV,174543,15
IMU,174563,0.0071883900091052055,-0.00104429479688406,-0.009199894033372402,-0.08055306226015091,-0.10161934047937393,-9.967167854309082
IMU2,174563,0.011239084415137768,-0.0015307851135730743,-0.01661064475774765,-0.013682663440704346,-0.09364461898803711,-9.841084480285645
MAG,174577,-347,-304,68,-155,8,70,0,0,0
MAG2,174577,-297,281,74,156,-135,421,0,0,0
BARO,174579,0.0028202570974826813,101209.8359375,34.5,-0.04257166013121605
CTUN,174579,168,0,149,0.006903898436576128,0,0,0,0,-156,4
ATT,174579,0,0.68,0,-0.5,141.9,141.9,0,0.05
EKF1,174579,0.56,0.2,0,0,0,0,0,0,0,0,0,0
EKF2,174579,50,0,0,0,0,0,0,0,0,0,0
EKF3,174579,0,0,0,0,0,0,0,0,0,0
EKF4,174579,0,0,0,0,0,0,0,0,0,0,0
RCIN,174579,1519,1504,1068,1514,1146,992,993,1503,0,0,0,0,0,0
RCOU,174579,1128,1129,1135,1128,0,0,0,0
IMU,174583,-0.00896800309419632,0.003919824026525021,0.007587132044136524,-0.1157749816775322,0.09148848801851273,-9.864541053771973
IMU2,174583,-0.022710438817739487,-0.003751021809875965,0.008975951001048088,0.029746174812316895,0.05671191215515137,-9.782536506652832
GPS,174583,1,0,0,0,99.99,11.2107374,-113.3683327,0,834.94,0,0,0,174596
IMU,174603,0.009843200445175171,-0.007585480809211731,-0.004811404272913933,-0.11607453972101212,0.0031777992844581604,-9.934536933898926
IMU2,174603,0.00817991141229868,-0.0051087504252791405,-0.019012030214071274,-0.09466415643692017,-0.005672156810760498,-9.788616180419922
IMU,174623,-0.016418717801570892,0.010441928170621395,0.005406664684414864,-0.13479162752628326,0.012299664318561554,-9.911222457885742
IMU2,174623,-0.01545737124979496,0.008062256500124931,0.012337256222963333,-0.010945737361907959,-0.041431307792663574,-9.796867370605469
IMU,174644,0.014630471356213093,-0.007758475840091705,-0.0066796522587537766,-0.21670015156269073,0.15422175824642181,-9.886877059936523
IMU2,174644,0.010643440298736095,-0.008206656202673912,-0.02024359628558159,-0.1968439221382141,0.21105468273162842,-9.799891471862793
IMU,174664,-0.014344531111419201,0.00515687745064497,0.001953745260834694,-0.11313565075397491,-0.34104418754577637,-9.981308937072754
IMU2,174664,-0.0005768472328782082,0.005051039159297943,0.005944238975644112,0.0804029107093811,-0.46831825375556946,-9.929766654968262
MAG,174676,-346,-302,68,-155,8,70,0,0,0
MAG2,174676,-297,278,70,156,-135,421,0,0,0
BARO,174678,-0.19177746772766113,101212,34.5,0.06691712886095047
CTUN,174678,258,0,197,0.011583838611841202,0.009999999776482582,-0.19,0,0,-106,4
ATT,174678,0,0.68,0,-0.5,141.89,141.89,0,0.05
EKF1,174678,0.56,0.2,0,0,0,0,0,0,0,0,0,0
EKF2,174678,50,0,0,0,0,0,0,0,0,0,0
EKF3,174678,0,0,0,0,0,0,0,0,0,0
EKF4,174679,0,0,0,0,0,0,0,0,0,0,0
RCIN,174679,1520,1504,1171,1514,1146,992,992,1504,0,0,0,0,0,0
RCOU,174679,1195,1206,1200,1192,0,0,0,0
IMU,174683,0.00034022703766822815,0.004725511185824871,-0.0018527149222791195,-0.06549345701932907,0.4499274492263794,-9.83071231842041
IMU2,174683,-0.01620204746723175,0.0007307296618819237,-0.006541315466165543,-0.010045528411865234,0.4082472324371338,-9.566730499267578
IMU,174703,0.020951006561517715,-0.005886739585548639,-0.006417529191821814,0.0976693332195282,-0.6118966937065125,-10.01247501373291
IMU2,174703,0.03305482119321823,0.005324907600879669,0.002243123948574066,0.15926146507263184,-0.47825777530670166,-9.87513256072998
IMU,174723,-0.018725402653217316,0.006095397286117077,0.015435809269547462,-0.3049885034561157,-0.048901163041591644,-9.889908790588379
IMU2,174723,-0.020782746374607086,-0.0036041364073753357,0.014183588325977325,-0.24719297885894775,-0.055128395557403564,-9.714216232299805
IMU,174744,0.00436023622751236,0.0038399724289774895,-0.01080990955233574,-0.028164710849523544,0.24774596095085144,-9.893722534179688
IMU2,174744,7.864926010370255e-5,0.003999454900622368,-0.00812937319278717,0.12134450674057007,0.2356640100479126,-9.703364372253418
IMU,174763,0.00011050701141357422,0.005900257267057896,0.003943375311791897,-0.0760750025510788,-0.2182440459728241,-9.917543411254883
IMU2,174763,0.00546367559581995,0.010006120428442955,0.003014964982867241,0.025491654872894287,-0.22395431995391846,-9.737525939941406
MAG,174776,-346,-303,64,-155,8,70,0,0,0
MAG2,174776,-297,278,72,156,-135,421,0,0,0
BARO,174779,-0.06768616288900375,101210.625,34.5,-0.027433443814516068
CTUN,174779,303,0,220,0.004275672137737274,0,-0.06,0,0,-81,4
ATT,174779,0,0.67,0,-0.49,141.87,141.87,0,0.05
EKF1,174779,0.56,0.2,0,0,0,0,0,0,0,0,0,0
EKF2,174779,50,0,0,0,0,0,0,0,0,0,0
EKF3,174779,0,0,0,0,0,0,0,0,0,0
EKF4,174779,0,0,0,0,0,0,0,0,0,0,0
RCIN,174779,1522,1504,1226,1512,1147,992,992,1504,0,0,0,0,0,0
RCOU,174780,1223,1225,1223,1222,0,0,0,0
IMU,174783,0.0038889218121767044,-0.005109123885631561,-0.006165423430502415,-0.09915418922901154,0.14472809433937073,-9.993504524230957
IMU2,174783,-0.0016073472797870636,-0.006025361828505993,-0.008303333073854446,0.001890718936920166,0.1600785255432129,-9.813154220581055
GPS,174783,1,0,0,0,99.99,11.2121231,-113.3681992,0,835.13,0,0,0,174796
IMU,174803,0.006003552116453648,-0.003582274541258812,0.009934719651937485,0.0364382341504097,-0.298836886882782,-9.865595817565918
IMU2,174803,0.006957945413887501,-0.006002858281135559,0.0037045683711767197,0.11186468601226807,-0.2606504559516907,-9.735738754272461
IMU,174823,-0.007067355327308178,0.0022309375926852226,0.0037686508148908615,-0.143819659948349,-0.10865496844053268,-9.953902244567871
IMU2,174823,-0.0033091800287365913,0.000658813863992691,0.0044108424335718155,-0.04556387662887573,-0.12562453746795654,-9.813241004943848
IMU,174844,0.005027397535741329,0.0019415682181715965,0.005780317820608616,-0.1592523455619812,-0.054929740726947784,-9.823976516723633
IMU2,174844,0.008135099895298481,-0.007773600518703461,0.0072694700211286545,0.007618248462677002,-0.015550553798675537,-9.589052200317383
IMU,174863,-0.006868000607937574,0.009054993279278278,-0.00268930708989501,-0.19794945418834686,-0.12519392371177673,-10.010266304016113
IMU2,174863,-0.004422222264111042,0.00854441337287426,0.006418619304895401,-0.13674300909042358,-0.20250242948532104,-9.872491836547852
MAG,174877,-347,-303,70,-155,8,70,0,0,0
MAG2,174877,-296,284,70,156,-135,421,0,0,0
DU32,174877,7,150008
CURR,174877,225,775,0,0,5078,0
POWR,174877,5.07,0.03,1
BARO,174879,-0.16357490420341492,101211.6640625,34.51,-0.29846200346946716
CTUN,174879,329,0,234,0.0049909017980098724,0,-0.16,0,0,-67,4
ATT,174879,0,0.67,0,-0.48,141.86,141.86,0,0.04
EKF1,174879,0.56,0.2,0,0,0,0,0,0,0,0,0,0
EKF2,174879,50,0,0,0,0,0,0,0,0,0,0
EKF3,174879,0,0,0,0,0,0,0,0,0,0
EKF4,174879,0,0,0,0,0,0,0,0,0,0,0
RCIN,174879,1522,1504,1252,1515,1146,992,993,1503,0,0,0,0,0,0
RCOU,174880,1225,1235,1230,1226,0,0,0,0
IMU,174883,-0.005911349784582853,0.0032721655443310738,-0.004768982529640198,-0.3398868143558502,0.20170091092586517,-9.837288856506348
IMU2,174883,-0.003865925595164299,0.0035160277038812637,-0.0025448761880397797,-0.22988438606262207,0.1626873016357422,-9.80537223815918
IMU,174903,0.001359354704618454,0.004409513436257839,-0.004824334289878607,-0.2969678044319153,0.05319356918334961,-10.00814437866211
IMU2,174903,-0.0010415641590952873,0.009921835735440254,-0.0014610439538955688,-0.13289952278137207,0.06936055421829224,-9.910926818847656
IMU,174923,-0.006428347434848547,0.008193454705178738,-0.006295722909271717,-0.30089110136032104,0.16223469376564026,-9.864218711853027
IMU2,174923,-0.004227332770824432,0.012114329263567924,-0.0100356824696064,-0.32060182094573975,0.1273951530456543,-9.796899795532227
IMU,174944,0.00015491992235183716,0.0029462995007634163,-0.0011470383033156395,-0.31201663613319397,0.14814871549606323,-9.98600959777832
IMU2,174944,-0.0021409783512353897,0.007660754024982452,-0.0023835226893424988,-0.27269673347473145,0.19917750358581543,-9.94008731842041
IMU,174963,-0.005055174697190523,-0.006385747343301773,-0.012182435020804405,-0.2706831097602844,0.0005341246724128723,-9.771976470947266
IMU2,174963,-0.004145015962421894,0.005553374066948891,-0.016980081796646118,-0.21544313430786133,0.02741861343383789,-9.713658332824707
MAG,174976,-347,-303,68,-155,8,70,0,0,0
MAG2,174976,-297,278,73,156,-135,421,0,0,0
BARO,174978,-0.12409130483865738,101211.2890625,34.51,-0.30056092143058777
CTUN,174979,346,0,243,-0.00012362956476863474,0,-0.12,0,0,-57,4
ATT,174979,0,0.67,0,-0.49,141.83,141.83,0,0.05
EKF1,174979,0.56,0.2,0,0,0,0,0,0,0,0,0,0
EKF2,174979,50,0,0,0,0,0,0,0,0,0,0
EKF3,174979,0,0,0,0,0,0,0,0,0,0
EKF4,174979,0,0,0,0,0,0,0,0,0,0,0
RCIN,174979,1523,1504,1277,1514,1146,992,993,1504,0,0,0,0,0,0
RCOU,174979,1245,1251,1252,1243,0,0,0,0
IMU,174984,-0.008295055478811264,-0.003979742527008057,-0.001581497024744749,-0.5103836059570312,0.15907225012779236,-10.090633392333984
IMU2,174984,-0.01106118131428957,0.001776237040758133,0.0010229088366031647,-0.4240264892578125,0.1547597050666809,-9.986844062805176
GPS,174984,1,0,0,0,99.99,19.3325739,-124.0739477,0,2369.89,0,0,0,174996
IMU,175003,0.0018395455554127693,0.007013809867203236,0.0008055409416556358,-0.3453477919101715,0.07797007262706757,-9.991415977478027
IMU2,175003,0.004135944880545139,0.015640106052160263,0.004080919548869133,-0.29473721981048584,0.05034512281417847,-9.834714889526367
IMU,175023,-0.005290259141474962,0.012195571325719357,-0.0016843127086758614,-0.34759873151779175,-0.014337532222270966,-9.96957778930664
IMU2,175023,-0.006051064468920231,0.021942811086773872,0.00024145282804965973,-0.3362710773944855,-0.01418912410736084,-9.830574035644531
IMU,175043,-0.0032812822610139847,-0.005512753967195749,-0.0034260733518749475,-0.3879387378692627,0.0437694787979126,-9.864676475524902
IMU2,175043,-0.0033703139051795006,-0.0038780849426984787,-0.007766377180814743,-0.15592634677886963,0.02452141046524048,-9.756203651428223
IMU,175063,0.00014284485951066017,0.007351533509790897,-0.0014127995818853378,-0.43424391746520996,-0.04177377372980118,-10.122178077697754
IMU2,175063,-0.0013553295284509659,0.007816469296813011,0.005733940750360489,-0.3069063425064087,0.013402104377746582,-9.896690368652344
MAG,175076,-348,-302,68,-155,8,70,0,0,0
MAG2,175076,-297,276,71,156,-135,421,0,0,0
BARO,175078,-0.20305849611759186,101212.1484375,34.52,-0.16546383500099182
CTUN,175078,375,0,258,-0.0026662396267056465,0,-0.2,0,0,-41,4
ATT,175079,0,0.66,0,-0.49,141.82,141.82,0,0.04
EKF1,175079,0.56,0.2,0,0,0,0,0,0,0,0,0,0
EKF2,175079,50,0,0,0,0,0,0,0,0,0,0
EKF3,175079,0,0,0,0,0,0,0,0,0,0
EKF4,175079,0,0,0,0,0,0,0,0,0,0,0
RCIN,175079,1522,1504,1304,1513,1146,993,992,1504,0,0,0,0,0,0
RCOU,175079,1260,1260,1258,1262,0,0,0,0
IMU,175084,-0.0008174893446266651,0.004386466927826405,0.0017561307176947594,-0.3095555305480957,0.052480824291706085,-9.88443374633789
IMU2,175084,0.0021206578239798546,0.005695061758160591,0.0012384429574012756,-0.09818756580352783,0.09553813934326172,-9.680244445800781
IMU,175103,-0.0012684301473200321,0.009006821550428867,0.004738142713904381,-0.08921843767166138,0.01863665133714676,-9.992942810058594
IMU2,175103,0.0020011039450764656,0.011907735839486122,0.003209628164768219,0.17400842905044556,0.09843969345092773,-9.85039234161377
IMU,175123,0.0019188029691576958,0.0068522607907652855,-0.0009110691025853157,-0.15457069873809814,0.08372452855110168,-9.977262496948242
IMU2,175123,-0.0024567367509007454,0.003366975113749504,0.003322834149003029,0.00844419002532959,0.07030624151229858,-9.629616737365723
IMU,175143,2.536177635192871e-5,0.0012863585725426674,0.002030482515692711,0.1373438686132431,0.1881028711795807,-9.785815238952637
IMU2,175143,-0.004621515981853008,-0.0036796722561120987,-0.0027947984635829926,0.37584251165390015,0.20123231410980225,-9.649349212646484
IMU,175163,-0.0035913095343858004,-0.003545616753399372,-0.005597703158855438,0.18702849745750427,0.06641164422035217,-9.841978073120117
IMU2,175163,-0.00858334545046091,-0.009325871244072914,-0.009758144617080688,0.26422029733657837,0.042912185192108154,-9.74374008178711
MAG,175176,-346,-305,68,-155,8,70,0,0,0
MAG2,175176,-299,281,70,156,-135,421,0,0,0
BARO,175179,-0.38355493545532227,101214.1484375,34.52,-0.22327780723571777
CTUN,175179,398,0,270,-0.009790000505745411,0,-0.38,0,0,-28,4
ATT,175180,0,0.65,0,-0.5,141.79,141.79,0,0.05
EKF1,175180,0.56,0.2,0,0,0,0,0,0,0,0,0,0
EKF2,175180,50,0,0,0,0,0,0,0,0,0,0
EKF3,175180,0,0,0,0,0,0,0,0,0,0
EKF4,175180,0,0,0,0,0,0,0,0,0,0,0
RCIN,175180,1522,1504,1330,1514,1146,992,993,1503,0,0,0,0,0,0
RCOU,175180,1275,1279,1278,1276,0,0,0,0
IMU,175184,0.00010101776570081711,-0.00554653350263834,-0.006755711045116186,0.058166176080703735,0.0015836507081985474,-9.722660064697266
IMU2,175184,-0.0012451056391000748,-0.004431477747857571,-0.002047888934612274,0.20556026697158813,0.06959813833236694,-9.623831748962402
GPS,175184,1,0,0,0,99.99,19.3331775,-124.0738393,-0.01,2370.03,0,0,0,175196
IMU,175204,0.006822517141699791,0.008654660545289516,0.0013411613181233406,-0.23212884366512299,-0.26509377360343933,-10.017702102661133
IMU2,175204,0.009416540153324604,0.008686115965247154,-0.003165271133184433,-0.1211022138595581,-0.17017102241516113,-9.738340377807617
IMU,175224,0.006187213584780693,0.0020559383556246758,-0.003619858529418707,-0.34130752086639404,-0.24773916602134705,-9.91955852508545
IMU2,175224,0.008616405539214611,0.0032387766987085342,0.00510522723197937,-0.3332136273384094,-0.11545509099960327,-9.806275367736816
IMU,175244,0.014265916310250759,-0.000642603263258934,0.009250881150364876,-0.20977792143821716,-0.23570558428764343,-10.00877857208252
IMU2,175244,0.012557965703308582,0.0007741870358586311,0.010411906987428665,-0.13788068294525146,-0.09887278079986572,-9.849164962768555
IMU,175264,-0.0024059228599071503,-0.004480332136154175,-0.007104859221726656,-0.11306216567754745,0.31753331422805786,-10.019926071166992
IMU2,175264,-0.022386830300092697,-0.0003244886174798012,-0.015894994139671326,0.00961381196975708,0.4224555492401123,-9.78456974029541
MAG,175278,-345,-305,68,-155,8,70,0,0,0
MAG2,175278,-295,273,76,156,-135,421,0,0,0
BARO,175279,-0.3327903151512146,101213.578125,34.52,-0.5080535411834717
CTUN,175279,436,0,290,-0.027459625154733658,-0.019999999552965164,-0.33,0,0,-7,4
ATT,175279,0,0.64,0,-0.5,141.77,141.77,0,0.05
EKF1,175279,0.56,0.2,0,0,0,0,0,0,0,0,0,0
EKF2,175279,50,0,0,0,0,0,0,0,0,0,0
EKF3,175279,0,0,0,0,0,0,0,0,0,0
EKF4,175279,0,0,0,0,0,0,0,0,0,0,0
RCIN,175279,1523,1504,1374,1514,1147,992,992,1504,0,0,0,0,0,0
RCOU,175279,1288,1297,1298,1289,0,0,0,0
IMU,175285,-0.013419012539088726,-0.0013415450230240822,0.0057569826021790504,0.026222065091133118,0.3688946068286896,-9.97237777709961
IMU2,175285,-0.018175851553678513,0.002680046483874321,0.0035037510097026825,0.07669436931610107,0.3754754066467285,-9.714089393615723
IMU,175304,-0.009179672226309776,0.008414753712713718,-0.004134718794375658,-0.05785531550645828,0.1098179966211319,-9.85706901550293
IMU2,175304,0.004778659902513027,0.0044538769870996475,-0.01381925493478775,0.006588339805603027,0.05504584312438965,-9.828048706054688
RAD,175320,125,126,67,34,35,42,11
RAD,175320,125,126,67,34,35,42,11
IMU,175324,0.010418371297419071,-0.0028412118554115295,-0.003161124885082245,-0.15631023049354553,-0.48857393860816956,-9.796619415283203
IMU2,175324,0.026729922741651535,-0.009054791182279587,-0.0021355971693992615,-0.04545462131500244,-0.48426303267478943,-9.821703910827637
IMU,175344,0.017349153757095337,-0.0018290495499968529,0.0064572300761938095,-0.16547748446464539,-0.39591601490974426,-9.933789253234863
IMU2,175344,0.017443347722291946,-0.009157128632068634,0.009197497740387917,-0.06415712833404541,-0.40552836656570435,-9.839571952819824
IMU,175364,0.008013665676116943,-0.001473754644393921,-0.007628035265952349,-0.1164766177535057,0.2670985162258148,-9.996087074279785
IMU2,175364,-0.004730348475277424,-0.0022533154115080833,-0.012052439153194427,-0.02121192216873169,0.2647193670272827,-9.792621612548828
MAG,175377,-346,-303,68,-155,8,70,0,0,0
MAG2,175377,-295,269,72,156,-135,421,0,0,0
BARO,175379,-0.2256205677986145,101212.421875,34.52,-0.6729946732521057
CTUN,175379,446,0,295,-0.04118736833333969,-0.03999999910593033,-0.22,0,0,-2,4
ATT,175379,0,0.65,0,-0.52,141.75,141.75,0,0.05
EKF1,175379,0.56,0.2,0,0,0,0,0,0,0,0,0,0
EKF2,175379,50,0,0,0,0,0,0,0,0,0,0
EKF3,175379,0,0,0,0,0,0,0,0,0,0
EKF4,175379,0,0,0,0,0,0,0,0,0,0,0
RCIN,175379,1522,1504,1385,1514,1147,992,992,1504,0,0,0,0,0,0
RCOU,175380,1288,1316,1313,1297,0,0,0,0
IMU,175384,-0.0244152694940567,0.00472476240247488,0.013556448742747307,-0.01608855277299881,0.483142226934433,-9.87558364868164
IMU2,175384,-0.039557695388793945,-0.0010881125926971436,0.0031632371246814728,-0.0652397871017456,0.5242999792098999,-9.715667724609375
GPS,175384,1,0,0,0,99.99,19.2521587,-124.4143462,-0.04,2350.91,0,0,0,175396
IMU,175404,-0.008481742814183235,-0.004232452716678381,-0.011665879748761654,-0.21019533276557922,0.049888454377651215,-9.904897689819336
IMU2,175404,0.008224480785429478,-0.004985610954463482,-0.01516319066286087,-0.10395437479019165,0.14596271514892578,-9.994377136230469
IMU,175424,0.022746272385120392,-0.007352499756962061,-0.004939454607665539,-0.12244252860546112,-0.7268437743186951,-9.801387786865234
IMU2,175424,0.03694584593176842,-0.008279726840555668,-0.005740094929933548,0.0018174052238464355,-0.8730748295783997,-9.766490936279297
IMU,175444,0.0151049280539155,-0.0032707415521144867,0.0027518803253769875,0.10255566239356995,-0.06711936742067337,-10.088711738586426
IMU2,175444,-0.004667920060455799,0.004550987854599953,0.0038065314292907715,0.13660722970962524,0.14721423387527466,-9.920048713684082
IMU,175464,-0.02391652762889862,0.003684581257402897,-0.0021850462071597576,-0.3068317174911499,0.4460788667201996,-9.923760414123535
IMU2,175464,-0.03876221925020218,0.00911710038781166,-0.007496654987335205,-0.24765437841415405,0.529236912727356,-9.765396118164062
MAG,175477,-346,-303,67,-155,8,70,0,0,0
MAG2,175477,-298,275,68,156,-135,421,0,0,0
BARO,175479,-0.4794436991214752,101215.28125,34.52,-0.4222441613674164
CTUN,175479,463,0,304,-0.047863371670246124,-0.03999999910593033,-0.47,0,0,0,4
ATT,175479,0,0.65,0,-0.52,141.72,141.72,0,0.04
EKF1,175479,0.56,0.2,0,0,0,0,0,0,0,0,0,0
EKF2,175479,50,0,0,0,0,0,0,0,0,0,0
EKF3,175479,0,0,0,0,0,0,0,0,0,0
EKF4,175479,0,0,0,0,0,0,0,0,0,0,0
RCIN,175479,1521,1504,1405,1514,1146,993,992,1504,0,0,0,0,0,0
RCOU,175480,1294,1327,1328,1299,0,0,0,0
IMU,175484,-0.011967097409069538,-0.003835860639810562,0.0008636917918920517,-0.383987694978714,0.15112385153770447,-9.860503196716309
IMU2,175484,0.0038036396726965904,-0.007927651517093182,-0.0017557404935359955,-0.2871517539024353,0.09543955326080322,-9.874337196350098
IMU,175504,0.01313744392246008,-0.005043607670813799,-0.0007315645925700665,0.2638368010520935,-0.34970182180404663,-9.93591594696045
IMU2,175504,0.025976713746786118,-0.009959088638424873,-0.007267320528626442,0.4149410128593445,-0.41508251428604126,-9.809616088867188
IMU,175524,0.010604451410472393,0.004426776431500912,-0.001563528086990118,0.027729153633117676,-0.14547917246818542,-9.8305025100708
IMU2,175524,0.0010108472779393196,0.0023903492838144302,-0.002376604825258255,0.09579551219940186,-0.14465129375457764,-9.580781936645508
IMU,175545,-0.01634305529296398,0.003007863648235798,0.004806181415915489,-0.520409107208252,0.23743896186351776,-9.909526824951172
IMU2,175545,-0.024346644058823586,-0.005480539053678513,0.00588834285736084,-0.4876542389392853,0.2676185369491577,-9.682388305664062
IMU,175564,-0.006341028492897749,-0.003982330672442913,0.002079409547150135,-0.04545844346284866,0.10383190214633942,-10.052815437316895
IMU2,175564,0.002252909354865551,-0.007433031685650349,0.0005936883389949799,0.003366708755493164,0.21754908561706543,-10.072877883911133
MAG,175576,-347,-303,67,-155,8,70,0,0,0
MAG2,175576,-296,281,71,156,-135,421,0,0,0
BARO,175579,-0.3948359787464142,101214.328125,34.52,-0.1926737129688263
CTUN,175579,490,0,318,-0.06959448009729385,-0.05999999865889549,-0.39,0,0,0,3
ATT,175579,0,0.65,0,-0.52,141.7,141.7,0,0.04
EKF1,175579,0.56,0.2,0,0,0,0,0,0,0,0,0,0
EKF2,175579,50,0,0,0,0,0,0,0,0,0,0
EKF3,175579,0,0,0,0,0,0,0,0,0,0
EKF4,175579,0,0,0,0,0,0,0,0,0,0,0
RCIN,175579,1522,1504,1435,1514,1146,992,992,1504,0,0,0,0,0,0
RCOU,175580,1341,1317,1329,1328,0,0,0,0
IMU,175584,0.011054490692913532,-0.010507304221391678,-0.003441955428570509,0.18625566363334656,-0.18053337931632996,-9.850186347961426
IMU2,175584,0.011259553022682667,-0.0074786716140806675,-0.010335646569728851,0.28203922510147095,-0.19071024656295776,-9.642023086547852
GPS,175584,1,0,0,0,99.99,19.2527531,-124.4142357,-0.07,2351.05,0,0,0,175596
IMU,175604,-0.0006564049981534481,0.011692256666719913,0.00030374666675925255,-0.21939244866371155,-0.1237882599234581,-9.836353302001953
IMU2,175604,-0.007860876619815826,0.013391593471169472,0.00036780163645744324,-0.024967074394226074,-0.12980163097381592,-9.634023666381836
IMU,175624,-0.0014492212794721127,0.0016535082831978798,0.0011939452961087227,-0.4364462196826935,0.05763426795601845,-10.026148796081543
IMU2,175624,-0.00519674364477396,-0.0024111783131957054,0.0057394132018089294,-0.12644904851913452,0.2626112699508667,-9.968456268310547
IMU,175644,-0.005560600198805332,-0.008730472065508366,0.004689930938184261,0.14853207767009735,0.1221185103058815,-9.856736183166504
IMU2,175644,-0.015741776674985886,-0.011187111958861351,0.007584145292639732,0.28155308961868286,0.1384405493736267,-9.78098201751709
IMU,175664,-0.0003390461206436157,0.0033994438126683235,0.001493140123784542,0.009526021778583527,-0.017945773899555206,-9.897762298583984
IMU2,175664,-0.004775870591402054,0.004901090636849403,-0.0037454143166542053,0.10616487264633179,0.013002514839172363,-9.8072509765625
MAG,175677,-346,-302,67,-155,8,70,0,0,0
MAG2,175677,-296,275,67,156,-135,421,0,0,0
BARO,175679,-0.40047651529312134,101214.375,34.53,-0.3105296492576599
CTUN,175679,526,0,337,-0.08528733998537064,-0.07999999821186066,-0.4,0,0,0,3
ATT,175679,0,0.64,0,-0.53,141.71,141.71,0,0.04
EKF1,175679,0.56,0.2,0,0,0,0,0,0,0,0,0,0
EKF2,175679,50,0,0,0,0,0,0,0,0,0,0
EKF3,175679,0,0,0,0,0,0,0,0,0,0
EKF4,175679,0,0,0,0,0,0,0,0,0,0,0
RCIN,175679,1522,1504,1477,1514,1147,992,992,1504,0,0,0,0,0,0
RCOU,175680,1348,1349,1340,1354,0,0,0,0
IMU,175684,0.012286248616874218,-0.0043580373749136925,0.01936427503824234,-0.41158533096313477,-0.23947188258171082,-9.971010208129883
IMU2,175684,0.02682393044233322,-0.0042090099304914474,0.025684788823127747,-0.26633644104003906,-0.24161052703857422,-9.84538459777832
IMU,175704,0.002774154767394066,-0.0028143124654889107,0.007865997031331062,-0.04086253419518471,0.034020714461803436,-9.673943519592285
IMU2,175704,-0.004987443797290325,-0.0042446935549378395,-0.0034629348665475845,0.05126547813415527,0.03631711006164551,-9.42467212677002
IMU,175725,-0.013184525072574615,0.01982894539833069,-0.029045475646853447,0.010338842868804932,0.32864782214164734,-10.184524536132812
IMU2,175725,-0.01687001809477806,0.02283587120473385,-0.033857908099889755,-0.056784093379974365,0.16900622844696045,-9.944873809814453
IMU,175744,0.010282585397362709,-0.004654856864362955,0.0013588620349764824,0.0010973736643791199,-0.33260098099708557,-9.97394847869873
IMU2,175744,0.02082214131951332,-0.012001607567071915,0.009830270893871784,0.2072569727897644,-0.2886894941329956,-9.795156478881836
IMU,175765,0.0010395408608019352,-0.006344642490148544,0.009963657706975937,-0.19971716403961182,0.09095542132854462,-9.873785972595215
IMU2,175765,-0.009835153818130493,-0.00443049892783165,0.010142507962882519,-0.2273910641670227,0.08846825361251831,-9.727091789245605
MAG,175777,-349,-303,68,-155,8,70,0,0,0
MAG2,175777,-295,281,69,156,-135,421,0,0,0
BARO,175779,-0.36663341522216797,101213.9921875,34.53,-0.3650152087211609
CTUN,175779,545,0,347,-0.10048212110996246,-0.09999999403953552,-0.36,0,0,0,3
ATT,175779,0,0.65,0,-0.52,141.69,141.69,0,0.04
EKF1,175779,0.56,0.2,0,0,0,0,0,0,0,0,0,0
EKF2,175779,50,0,0,0,0,0,0,0,0,0,0
EKF3,175779,0,0,0,0,0,0,0,0,0,0
EKF4,175779,0,0,0,0,0,0,0,0,0,0,0
RCIN,175779,1522,1504,1498,1514,1146,992,993,1503,0,0,0,0,0,0
RCOU,175780,1357,1360,1359,1360,0,0,0,0
IMU,175784,-0.006480789743363857,0.006725928746163845,-0.006495746783912182,-0.2426598072052002,-0.0285542830824852,-9.915608406066895
IMU2,175784,-0.0057493047788739204,0.007186045870184898,-0.010223466902971268,-0.05075901746749878,0.006305217742919922,-9.804612159729004
GPS,175784,1,0,0,0,99.99,19.2533476,-124.4141251,-0.1,2351.19,0,0,0,175797
IMU,175804,0.008373401127755642,-0.009337175637483597,0.006441409699618816,0.16456617414951324,0.013642430305480957,-10.069472312927246
IMU2,175804,0.008232337422668934,-0.014908041805028915,-0.0036354996263980865,0.24254649877548218,0.047928690910339355,-9.976898193359375
IMU,175824,-0.0016280983109027147,0.012513532303273678,-0.006329074501991272,-0.2906535267829895,-0.04459477216005325,-9.760000228881836
IMU2,175824,-0.0013385722413659096,0.023331070318818092,0.0025650877505540848,-0.49297213554382324,-0.06819546222686768,-9.583412170410156
IMU,175844,-0.002946498105302453,0.005555379204452038,0.007621940225362778,-0.29472923278808594,-0.009654082357883453,-9.94201374053955
IMU2,175844,0.012230676598846912,-0.015767166391015053,-0.003506239503622055,-0.048779428005218506,0.031111478805541992,-9.939138412475586
IMU,175864,0.005157469771802425,-0.022125042974948883,-0.003399804700165987,0.26951009035110474,-0.00736594945192337,-9.936226844787598
IMU2,175864,0.004097445867955685,-0.015484051778912544,-0.010540701448917389,0.35577303171157837,-0.10252749919891357,-9.762929916381836
MAG,175877,-348,-301,66,-155,8,70,0,0,0
MAG2,175878,-298,270,67,156,-135,421,0,0,0
DU32,175878,7,150008
CURR,175878,350,3777,0,0,5096,0
POWR,175878,5.09,0.03,1
BARO,175880,-0.41175752878189087,101214.5,34.53,-0.08086347579956055
CTUN,175880,551,0,350,-0.11291695386171341,-0.10999999940395355,-0.41,0,0,0,3
ATT,175880,0,0.66,0,-0.52,141.68,141.68,0,0.04
EKF1,175880,0.56,0.2,0,0,0,0,0,0,0,0,0,0
EKF2,175880,50,0,0,0,0,0,0,0,0,0,0
EKF3,175880,0,0,0,0,0,0,0,0,0,0
EKF4,175880,0,0,0,0,0,0,0,0,0,0,0
RCIN,175880,1520,1504,1505,1513,1146,992,993,1504,0,0,0,0,0,0
RCOU,175881,1361,1370,1362,1361,0,0,0,0
IMU,175885,-0.0034051616676151752,0.014808670617640018,0.004119934514164925,-0.4077104926109314,-0.14702799916267395,-9.772758483886719
IMU2,175885,-0.006434742361307144,0.008022051304578781,0.0015421845018863678,-0.300942599773407,-0.07138323783874512,-9.656905174255371
IMU,175905,-0.005444464739412069,-0.008063648827373981,4.153512418270111e-5,-0.11435460299253464,0.14220143854618073,-9.99709415435791
IMU2,175905,0.004345168359577656,-0.017657000571489334,-0.007487699389457703,0.08298897743225098,0.19677269458770752,-9.858526229858398
EV,175905,28
IMU,175925,0.0057569146156311035,-0.002485324628651142,-0.01073535718023777,0.14610636234283447,-0.022247545421123505,-9.930130004882812
IMU2,175925,0.003414900042116642,0.009131766855716705,-0.009775985032320023,0.17766040563583374,-0.03821676969528198,-9.72812271118164
IMU,175946,-0.00042338715866208076,0.0197630412876606,0.007172727026045322,-0.45033976435661316,-0.1624385416507721,-9.892667770385742
IMU2,175946,-0.005908621475100517,0.012465240433812141,0.01611683890223503,-0.3825596868991852,-0.10749030113220215,-9.680986404418945
IMU,175965,-0.0026412885636091232,-0.01932164654135704,-0.003503339597955346,0.02914237231016159,0.16296230256557465,-9.895691871643066
IMU2,175965,-0.00018316227942705154,-0.022592775523662567,-0.005601599812507629,0.20738929510116577,0.1744142770767212,-9.956241607666016
MAG,175978,-350,-304,67,-155,8,70,0,0,0
MAG2,175978,-296,276,70,156,-135,421,0,0,0
BARO,175980,-0.6994237303733826,101217.71875,34.53,-0.021141182631254196
CTUN,175980,562,0,346,-0.11437945812940598,-0.11999999731779099,-0.69,0,0,6,3
ATT,175980,0,0.66,0,-0.53,141.66,141.66,0,0.04
EKF1,175980,0.56,0.2,0,0,0,0,0,0,0,0,0,0
EKF2,175980,50,0,0,0,0,0,0,0,0,0,0
EKF3,175980,0,0,0,0,0,0,0,0,0,0
EKF4,175980,0,0,0,0,0,0,0,0,0,0,0
RCIN,175980,1520,1504,1518,1512,1147,992,992,1504,0,0,0,0,0,0
RCOU,175981,1380,1336,1355,1361,0,0,0,0
IMU,175985,0.006565100513398647,3.356765955686569e-5,0.004303500987589359,0.01877506822347641,-0.179803729057312,-9.936666488647461
IMU2,175985,0.005007472820580006,0.007959965616464615,0.006823459640145302,0.1793317198753357,-0.16848421096801758,-9.900126457214355
GPS,175985,1,0,0,0,99.99,19.253942,-124.4140145,-0.13,2351.33,0,0,0,175998
IMU,176005,-0.008479381911456585,0.0032073091715574265,-0.007440575398504734,-0.2750405967235565,0.07989390939474106,-9.967612266540527
IMU2,176005,-0.014129722490906715,0.002128172665834427,-0.018169723451137543,-0.12450838088989258,0.013787448406219482,-10.019287109375
IMU,176025,0.003791653551161289,-0.0020895367488265038,0.009483659639954567,-0.05449483171105385,0.03459268808364868,-9.921250343322754
IMU2,176025,0.011275512166321278,0.0007757069543004036,0.012161963619291782,-0.026584863662719727,0.0058176517486572266,-9.807928085327148
IMU,176045,-0.0013078334741294384,-0.0010511642321944237,-0.004204593598842621,-0.06440503150224686,-0.1445242464542389,-9.960480690002441
IMU2,176045,-0.0054264971986413,-0.004363563843071461,-0.0036653224378824234,0.06267696619033813,-0.12308675050735474,-9.781558990478516
IMU,176065,-0.002544661518186331,-0.003766583278775215,0.006020634435117245,-0.12946683168411255,0.12660259008407593,-9.848078727722168
IMU2,176065,2.2416934370994568e-6,-0.004159817472100258,0.0045165494084358215,0.014587581157684326,0.09741568565368652,-9.734441757202148
MAG,176077,-347,-304,68,-155,8,70,0,0,0
MAG2,176077,-299,277,66,156,-135,421,0,0,0
BARO,176080,-0.44560059905052185,101214.859375,34.53,-0.3763217628002167
CTUN,176080,570,0,363,-0.10626646131277084,-0.14999999105930328,-0.44,0,0,11,2
ATT,176080,0,0.65,0,-0.53,141.66,141.65,0,0.04
EKF1,176080,0.56,0.2,0,0,0,0,0,0,0,0,0,0
EKF2,176080,50,0,0,0,0,0,0,0,0,0,0
EKF3,176080,0,0,0,0,0,0,0,0,0,0
EKF4,176080,0,0,0,0,0,0,0,0,0,0,0
RCIN,176080,1520,1504,1532,1513,1146,992,993,1503,0,0,0,0,0,0
RCOU,176081,1396,1359,1370,1383,0,0,0,0
IMU,176085,0.007436536252498627,-0.0001447359099984169,0.002954881638288498,-0.20578117668628693,-0.14207547903060913,-10.028186798095703
IMU2,176085,0.007523541338741779,-0.005825752392411232,0.008196389302611351,-0.0336918830871582,-0.02406519651412964,-9.884528160095215
IMU,176105,-0.0077814399264752865,-0.0005481718108057976,-0.00832451693713665,-0.10036171972751617,0.13367699086666107,-9.83337116241455
IMU2,176105,-0.007475159130990505,0.014697862789034843,-0.01882956176996231,-0.0339089035987854,0.12469303607940674,-9.615983009338379
IMU,176125,0.0020294911228120327,0.0010998332872986794,0.0029120631515979767,-0.032363180071115494,-0.13010090589523315,-10.089449882507324
IMU2,176125,-0.0027983887121081352,-0.012824606150388718,0.006714273244142532,0.11425954103469849,-0.026773691177368164,-9.955690383911133
UBX1,176137,0,110,66,1
UBX2,176137,0,13,116,40,124
IMU,176145,0.0011223424226045609,-0.002241740934550762,0.009146155789494514,-0.2287866622209549,0.08062435686588287,-9.758130073547363
IMU2,176145,0.00021641142666339874,-0.008839331567287445,0.006151314824819565,-0.10273897647857666,0.09592485427856445,-9.640707015991211
IMU,176166,0.004755049012601376,0.01209124457091093,-0.012939034961163998,0.038301222026348114,-0.1966603696346283,-9.97039794921875
IMU2,176166,0.004615270532667637,0.008088475093245506,-0.01400069147348404,0.020324409008026123,-0.21197599172592163,-9.871920585632324
MAG,176178,-349,-302,67,-155,8,70,0,0,0
MAG2,176178,-302,276,76,156,-135,421,0,0,0
BARO,176180,-0.4681626558303833,101215.140625,34.53,-0.6078891754150391
CTUN,176180,577,0,379,-0.09304530918598175,-0.17000000178813934,-0.46,0,0,15,2
ATT,176180,0,0.66,0,-0.53,141.66,141.62,0,0.04
EKF1,176180,0.56,0.2,0,0,0,0,0,0,0,0,0,0
EKF2,176180,50,0,0,0,0,0,0,0,0,0,0
EKF3,176180,0,0,0,0,0,0,0,0,0,0
EKF4,176180,0,0,0,0,0,0,0,0,0,0,0
RCIN,176180,1519,1504,1535,1514,1146,992,993,1504,0,0,0,0,0,0
RCOU,176181,1427,1369,1382,1398,0,0,0,0
IMU,176185,-0.0010253400541841984,-0.005501965060830116,0.0039677247405052185,-0.3283340632915497,0.14839792251586914,-9.943117141723633
IMU2,176185,-0.016499601304531097,-0.013595931231975555,0.0005152486264705658,-0.22058719396591187,0.1665630340576172,-9.845332145690918
GPS,176185,1,0,0,0,99.99,19.2545364,-124.4139039,-0.17,2351.46,0,0,0,176198
IMU,176205,-0.004535443615168333,0.003564557060599327,0.01287718117237091,-0.01131235808134079,0.007507361471652985,-9.882936477661133
IMU2,176205,0.002414788119494915,0.009519116953015327,0.0015336982905864716,0.10248029232025146,-0.00513005256652832,-9.892380714416504
IMU,176225,0.009662569500505924,-0.004827347584068775,-0.015300154685974121,0.009716592729091644,-0.11077003926038742,-9.93038558959961
IMU2,176225,-0.008594300597906113,0.00331711582839489,-0.015301555395126343,0.03260171413421631,-0.035404741764068604,-9.77975845336914
IMU,176245,-0.017211370170116425,0.004414710216224194,0.020110972225666046,-0.41388463973999023,0.05157425254583359,-9.830188751220703
IMU2,176245,-0.0020437566563487053,-0.0035992302000522614,0.014701921492815018,-0.27991747856140137,0.05940520763397217,-9.94861125946045
IMU,176265,0.013845249079167843,-0.006215397268533707,-0.010550866834819317,0.1949048638343811,-0.12070662528276443,-10.023900032043457
IMU2,176265,0.012926465831696987,-0.004434356465935707,-0.013333667069673538,0.2625930905342102,-0.12143498659133911,-9.813273429870605
MAG,176278,-344,-304,66,-155,8,70,0,0,0
MAG2,176278,-299,284,71,156,-135,421,0,0,0
BARO,176280,-0.5696918964385986,101216.2890625,34.53,-0.23340420424938202
CTUN,176280,623,0,419,-0.06525712460279465,-0.17999999225139618,-0.56,0,0,40,2
RAD,176280,116,123,91,76,31,42,11
RAD,176280,116,123,91,76,31,42,11
ATT,176280,0,0.66,0,-0.53,141.66,141.61,0,0.05
EKF1,176280,0.56,0.2,0,0,0,0,0,0,0,0,0,0
EKF2,176280,50,0,0,0,0,0,0,0,0,0,0
EKF3,176280,0,0,0,0,0,0,0,0,0,0
EKF4,176280,0,0,0,0,0,0,0,0,0,0,0
RCIN,176280,1519,1504,1587,1514,1146,993,992,1504,0,0,0,0,0,0
RCOU,176281,1463,1409,1426,1447,0,0,0,0
IMU,176285,-0.015363965183496475,0.01396059338003397,0.004238131456077099,-0.5958275198936462,0.03656478971242905,-9.672285079956055
IMU2,176285,-0.01423300988972187,0.016799693927168846,0.0006352532655000687,-0.5481356382369995,0.09667682647705078,-9.533309936523438
IMU,176305,0.017004042863845825,-0.015051571652293205,0.0011967271566390991,0.19429025053977966,-0.08998589962720871,-10.007641792297363
IMU2,176305,0.01991134136915207,-0.02093241736292839,0.008012602105736732,0.37387925386428833,-0.11376363039016724,-9.936300277709961
IMU,176325,-0.004462928511202335,0.01441162545233965,-0.005788559094071388,-0.21416831016540527,0.07484881579875946,-9.85081672668457
IMU2,176325,-0.006318769417703152,0.02505979873239994,-0.010272655636072159,-0.24575334787368774,0.1621408462524414,-9.68762493133545
IMU,176346,-1.1835712939500809e-5,0.001975373364984989,0.0067061688750982285,0.02752050757408142,-0.043195001780986786,-10.120569229125977
IMU2,176346,0.0018260693177580833,-0.01325700618326664,0.01677515357732773,0.2059345841407776,-0.01338183879852295,-9.943367004394531
IMU,176365,0.005991424433887005,-0.012333122082054615,0.0013285623863339424,-0.36614540219306946,0.014608345925807953,-9.812752723693848
IMU2,176365,0.003682483918964863,-0.005525028333067894,0.0032117515802383423,-0.2448902130126953,0.03368180990219116,-9.741161346435547
MAG,176379,-347,-304,68,-155,8,70,0,0,0
MAG2,176379,-296,279,68,156,-135,421,0,0,0
BARO,176380,-0.4061169922351837,101214.421875,34.54,0.1670062392950058
CTUN,176380,628,0,480,-0.02226606011390686,-0.19999998807907104,-0.4,0,0,43,1
ATT,176380,0,0.66,0,-0.52,141.66,141.6,0,0.04
EKF1,176380,0.56,0.2,0,0,0,0,0,0,0,0,0,0
EKF2,176380,50,0,0,0,0,0,0,0,0,0,0
EKF3,176380,0,0,0,0,0,0,0,0,0,0
EKF4,176380,0,0,0,0,0,0,0,0,0,0,0
RCIN,176381,1519,1504,1593,1515,1146,992,992,1504,0,0,0,0,0,0
RCOU,176381,1525,1488,1487,1510,0,0,0,0
IMU,176386,-0.0036583791952580214,0.008192523382604122,-0.0031638694927096367,-0.01929277554154396,-0.08557263761758804,-9.871275901794434
IMU2,176386,0.002592184580862522,0.012393089011311531,-0.008944574743509293,0.09836339950561523,-0.05942559242248535,-9.676222801208496
GPS,176386,1,0,0,0,99.99,18.977479,-124.0244071,-0.21,2287.98,0,0,0,176398
IMU,176406,0.004158796742558479,-0.0015747789293527603,0.004733307287096977,-0.04816532880067825,0.04084832966327667,-10.000906944274902
IMU2,176406,-0.008012503385543823,0.0005466416478157043,0.008185012266039848,-0.0026204586029052734,0.04674440622329712,-9.828028678894043
IMU,176425,0.0005969544872641563,0.0002516070380806923,-0.00612306222319603,-0.10796685516834259,-0.10700628906488419,-9.952642440795898
IMU2,176425,0.006028459407389164,0.0017321538180112839,-0.01858750730752945,0.015524566173553467,-0.08029896020889282,-9.875152587890625
IMU,176445,-0.010134739801287651,0.010520695708692074,0.006604368798434734,-0.12341053783893585,0.1162949800491333,-9.965611457824707
IMU2,176445,-0.0019564898684620857,0.0031937994062900543,0.010627906769514084,-0.08667290210723877,0.09027349948883057,-9.937288284301758
IMU,176465,-0.019552551209926605,-0.024839788675308228,0.015896400436758995,-0.04107587784528732,-0.22193807363510132,-9.864675521850586
IMU2,176465,-0.023073669523000717,-0.021333228796720505,0.01709621772170067,0.06278353929519653,-0.21098363399505615,-9.73632526397705
MAG,176478,-348,-301,66,-155,8,70,0,0,0
MAG2,176478,-293,267,60,156,-135,421,0,0,0
BARO,176480,-0.4681626558303833,101215.140625,34.54,0.16007518768310547
CTUN,176480,638,0,535,0.021941380575299263,-0.20999999344348907,-0.46,0,0,48,1
ATT,176481,0,0.67,0,-0.51,141.66,141.59,0,0.04
EKF1,176481,0.56,0.2,0,0,0,0,0,0,0,0,0,0
EKF2,176481,50,0,0,0,0,0,0,0,0,0,0
EKF3,176481,0,0,0,0,0,0,0,0,0,0
EKF4,176481,0,0,0,0,0,0,0,0,0,0,0
RCIN,176481,1519,1504,1604,1513,1146,993,992,1504,0,0,0,0,0,0
RCOU,176481,1567,1546,1536,1561,0,0,0,0
IMU,176485,-0.000375205185264349,0.008793898858129978,-0.01810239627957344,0.18201708793640137,0.2324485033750534,-9.70814323425293
IMU2,176485,-0.006617261096835136,0.0013773348182439804,-0.016287121921777725,0.3593354821205139,0.22579169273376465,-9.569427490234375
IMU,176505,0.0042507098987698555,0.0107483034953475,-0.026020532473921776,-0.4000784754753113,-0.016482912003993988,-9.882522583007812
IMU2,176505,0.007323361001908779,0.012632399797439575,-0.0352681502699852,-0.3009164333343506,-0.011992394924163818,-9.78700065612793
IMU,176526,-0.003330327570438385,0.0022490452975034714,0.010858351364731789,-0.1226954460144043,-0.3716669976711273,-9.723326683044434
IMU2,176526,0.004453334026038647,-0.008181187324225903,0.0071131084114313126,-0.12712174654006958,-0.3191741704940796,-9.584705352783203
IMU,176545,0.004110480658710003,-0.00530955009162426,-0.0086491284891963,-0.1372894048690796,0.10448253154754639,-10.141814231872559
IMU2,176545,0.0059043606743216515,0.0029979776591062546,-0.017797138541936874,-0.11312448978424072,0.12155061960220337,-10.017288208007812
IMU,176566,-0.021083910018205643,-0.03752141818404198,-0.023369716480374336,0.1403854638338089,0.10030293464660645,-10.00048542022705
IMU2,176566,-0.02124069817364216,-0.03977397084236145,-0.019948255270719528,0.24149614572525024,0.08052146434783936,-9.83955192565918
MAG,176579,-345,-304,60,-155,8,70,0,0,0
MAG2,176579,-300,269,57,156,-135,421,0,0,0
BARO,176580,-0.7107047438621521,101217.859375,34.54,0.06289456784725189
CTUN,176580,649,0,608,0.0749690979719162,-0.22999998927116394,-0.71,0,0,55,1
ATT,176580,0,0.65,0,-0.55,141.66,141.5,0,0.04
EKF1,176580,0.56,0.2,0,0,0,0,0,0,0,0,0,0
EKF2,176580,50,0,0,0,0,0,0,0,0,0,0
EKF3,176580,0,0,0,0,0,0,0,0,0,0
EKF4,176580,0,0,0,0,0,0,0,0,0,0,0
RCIN,176581,1520,1504,1617,1514,1146,992,993,1504,0,0,0,0,0,0
RCOU,176581,1634,1593,1611,1614,0,0,0,0
IMU,176586,-0.02804570645093918,-0.019284812733530998,0.009956801310181618,0.010839231312274933,-0.1399904489517212,-9.99402904510498
IMU2,176586,-0.018579591065645218,-0.008127285167574883,0.005884697660803795,0.038329243659973145,-0.09547865390777588,-9.87975788116455
GPS,176586,1,0,0,0,99.99,18.9781024,-124.024298,-0.23,2288.13,0,0,0,176598
IMU,176606,0.002955205738544464,-0.015611371025443077,-0.02172924019396305,0.06061878800392151,-0.03695373982191086,-9.754646301269531
IMU2,176606,-0.0016036750748753548,-0.015782272443175316,-0.019299060106277466,0.15917503833770752,-0.09446758031845093,-9.6223783493042
IMU,176625,-0.021268624812364578,-0.024923477321863174,-0.021795444190502167,-0.08793533593416214,0.18992480635643005,-9.927765846252441
IMU2,176625,-0.03912784904241562,-0.016027115285396576,-0.016550906002521515,0.05662721395492554,0.23001551628112793,-9.775811195373535
IMU,176646,-0.03502539545297623,-0.08380871266126633,0.007639093324542046,0.02143275737762451,-0.08274432271718979,-10.167688369750977
IMU2,176646,-0.04202258214354515,-0.06786201149225235,0.010111280716955662,0.09406644105911255,-0.06802648305892944,-9.9496488571167
IMU,176666,-0.020009774714708328,-0.013012034818530083,0.013247167691588402,0.05518345534801483,-0.1950080692768097,-9.946083068847656
IMU2,176666,-0.03189544379711151,-0.015037290751934052,0.007635883986949921,0.043908655643463135,-0.1938958764076233,-9.596099853515625
MAG,176678,-349,-298,64,-155,8,70,0,0,0
MAG2,176678,-294,267,59,156,-135,421,0,0,0
BARO,176680,-0.6486591100692749,101217.1484375,34.54,-0.19446760416030884
CTUN,176680,649,0,698,0.12996028363704681,-0.25,-0.64,0,0,55,2
ATT,176681,0,0.54,0,-0.69,141.66,141.46,0,0.03
EKF1,176681,0.56,0.2,0,0,0,0,0,0,0,0,0,0
EKF2,176681,50,0,0,0,0,0,0,0,0,0,0
EKF3,176681,0,0,0,0,0,0,0,0,0,0
EKF4,176681,0,0,0,0,0,0,0,0,0,0,0
RCIN,176681,1519,1504,1617,1514,1147,992,992,1504,0,0,0,0,0,0
RCOU,176681,1718,1678,1666,1698,0,0,0,0
IMU,176685,-0.019306950271129608,0.013686462305486202,-0.020097797736525536,-0.19492001831531525,-0.06936352699995041,-10.354681968688965
IMU2,176685,-0.019200632348656654,0.01204918883740902,-0.03167426586151123,-0.14630287885665894,-0.07773220539093018,-10.142447471618652
IMU,176706,-0.06535247713327408,-0.10470230132341385,-0.05894952267408371,-0.17343327403068542,0.044928573071956635,-10.235601425170898
IMU2,176706,-0.06186475604772568,-0.09988437592983246,-0.06928855180740356,-0.09852397441864014,0.09538501501083374,-10.0770263671875
IMU,176725,-0.11926773935556412,-0.08794614672660828,-0.06262504309415817,-0.010269403457641602,0.025376394391059875,-10.486318588256836
IMU2,176725,-0.12178190052509308,-0.062432415783405304,-0.0691075250506401,0.15351057052612305,0.008995592594146729,-10.277056694030762
IMU,176745,-0.1589590460062027,-0.03170565143227577,-0.045427195727825165,0.03809552639722824,0.05096438527107239,-10.523200988769531
IMU2,176745,-0.15912479162216187,-0.01733177714049816,-0.05400508642196655,0.1090388298034668,-0.013098299503326416,-10.407066345214844
IMU,176765,-0.14694452285766602,-0.19019219279289246,-0.048614516854286194,-0.2024919092655182,0.10283852368593216,-11.022090911865234
IMU2,176765,-0.12532034516334534,-0.19737747311592102,-0.0520562008023262,-0.08739584684371948,0.13856500387191772,-11.033360481262207
MAG,176778,-349,-290,70,-155,8,70,0,0,0
MAG2,176778,-288,265,63,156,-135,421,0,0,0
BARO,176780,-1.207069993019104,101223.421875,34.54,-0.7869096994400024
CTUN,176780,653,0,741,0.18656659126281738,-0.26999998092651367,-1.2,0,0,57,7
ATT,176781,0,-0.03,0,-1.27,141.66,141.15,0,0.01
EKF1,176781,0.56,0.2,0,0,0,0,0,0,0,0,0,0
EKF2,176781,50,0,0,0,0,0,0,0,0,0,0
EKF3,176781,0,0,0,0,0,0,0,0,0,0
EKF4,176781,0,0,0,0,0,0,0,0,0,0,0
RCIN,176781,1519,1504,1622,1513,1146,993,992,1504,0,0,0,0,0,0
RCOU,176781,1812,1675,1748,1668,0,0,0,0
IMU,176786,-0.054842859506607056,-0.28102779388427734,-0.0504208579659462,-0.039310090243816376,-0.0918581560254097,-10.861065864562988
IMU2,176786,-0.034770507365465164,-0.27042195200920105,-0.05211351811885834,0.1299431324005127,0.03124147653579712,-10.96537971496582
GPS,176786,1,0,0,0,99.99,18.9787258,-124.0241889,-0.28,2288.27,0,0,0,176798
IMU,176806,-0.06936993449926376,-0.2852313220500946,-0.0519828274846077,-0.0526522621512413,-0.13049769401550293,-11.295920372009277
IMU2,176806,-0.0647890493273735,-0.26562365889549255,-0.04857303202152252,0.08387011289596558,-0.10594415664672852,-11.092191696166992
IMU,176825,-0.11685267090797424,-0.31348881125450134,-0.05406360328197479,-0.18141797184944153,0.029543519020080566,-10.964802742004395
IMU2,176825,-0.11282810568809509,-0.3022589087486267,-0.05284471809864044,-0.23343944549560547,0.07544493675231934,-10.789563179016113
IMU,176846,-0.05479242280125618,-0.2367054671049118,-0.05482715368270874,-0.15270787477493286,-0.06432386487722397,-11.651275634765625
IMU2,176846,-0.05196070298552513,-0.2155238837003708,-0.058108627796173096,-0.0720299482345581,-0.12244373559951782,-11.342367172241211
IMU,176866,-0.06479835510253906,-0.13419848680496216,-0.06603710353374481,-0.13200345635414124,-0.0713067576289177,-10.752203941345215
IMU2,176866,-0.0710863247513771,-0.1331595778465271,-0.07606176286935806,-0.10976117849349976,-0.0873795747756958,-10.508461952209473
MAG,176879,-335,-267,85,-155,8,70,0,0,0
MAG2,176879,-267,268,72,156,-135,421,0,0,0
DU32,176879,7,149880
CURR,176879,764,9102,0,0,5085,0
POWR,176879,5.08,0.03,1
BARO,176881,-1.3311612606048584,101224.828125,34.54,-1.5169845819473267
CTUN,176881,659,0,761,0.24692952632904053,-0.3199999928474426,-1.33,0,0,60,19
