Time (sec),RXIN 0 (us),RXIN 1 (us),RXIN 2 (us),RXIN 3 (us),RXIN 4 (us),RXIN 5 (us),PWMOUT 0 (us),PWMOUT 1 (us),PWMOUT 2 (us),PWMOUT 3 (us),PWMOUT 4 (us),PWMOUT 5 (us),Latitude (deg),Longitude (deg),Altitude (m),Pressure (Pa),Temperature (C),Pressure Altitude (m),Roll (deg),Pitch (deg),Yaw (deg),Roll Rate (rad/s),Pitch Rate (rad/s),Yaw Rate (rad/s)
3.16,992,1500,1500,1500,992,992,992,992,992,992,992,992,101.95,19.58,0.00,0.00,0.00,0.00,0.00,0.00,0.00
3.53,992,1500,1500,1500,992,992,992,992,992,992,992,992,101.79,19.58,5483.29,-4.69,-8.76,-0.36,-0.06,-0.13,-0.06
3.91,992,1500,1500,1500,992,992,992,992,992,992,992,992,101.79,19.58,8365.79,-4.69,-8.76,-0.36,-0.06,-0.06,0.00
4.27,992,1500,1500,1500,992,992,992,992,992,992,992,992,101.90,19.39,10275.03,-4.69,-8.76,-0.36,0.06,0.06,0.00
4.64,992,1500,1500,1500,992,992,992,992,992,992,992,992,101.90,19.39,11691.28,-4.69,-8.76,-0.36,0.00,0.06,0.13
5.02,992,1500,1500,1500,992,992,992,992,992,992,992,992,101.74,19.39,10.22,-4.69,-8.76,-0.36,0.00,-0.19,0.13
6.00,992,1500,1500,1500,992,992,992,992,992,992,992,992,101.79,19.58,6.59,-4.69,-8.76,-0.36,0.00,-0.06,0.06
7.01,992,1500,1500,1500,992,992,992,992,992,992,992,992,101.79,19.58,6.59,-4.69,-8.76,-0.36,-0.13,0.00,0.00
8.01,992,1500,1500,1500,992,992,992,992,992,992,992,992,101.95,19.58,-6.81,-4.69,-8.76,-0.36,0.06,0.06,0.00
9.01,992,1500,1500,1500,992,992,992,992,992,992,992,992,101.79,19.58,6.59,-4.69,-8.76,-0.36,0.00,-0.06,0.00
10.01,992,1500,1500,1500,992,992,992,992,992,992,992,992,101.62,19.58,20.01,-4.69,-8.76,-0.36,-0.19,-0.13,-0.06
11.01,992,1500,1500,1500,992,992,992,992,992,992,992,992,101.79,19.58,6.59,-4.69,-8.76,-0.36,-0.13,-0.19,0.13
12.01,992,1500,1500,1500,992,992,992,992,992,992,992,992,101.62,19.58,20.01,-4.69,-8.76,-0.36,0.06,0.13,0.00
13.01,992,1500,1500,1500,992,992,992,992,992,992,992,992,101.95,19.58,-6.81,-4.69,-8.76,-0.36,0.00,0.00,0.00
14.01,992,1500,1500,1500,992,992,992,992,992,992,992,992,101.83,19.77,2.96,-4.69,-8.76,-0.36,-0.06,-0.06,-0.06
15.00,992,1500,1500,1500,992,992,992,992,992,992,992,992,101.95,19.58,-6.81,-4.69,-8.76,-0.36,0.06,0.06,0.13
16.01,992,1500,1500,1500,992,992,992,992,992,992,992,992,101.62,19.58,20.01,-4.69,-8.76,-0.36,-0.06,0.06,0.13
17.00,992,1500,1500,1500,992,992,992,992,992,992,992,992,101.79,19.58,6.59,-4.69,-8.76,-0.36,0.00,-0.06,0.06
18.00,992,1500,1500,1500,992,992,992,992,992,992,992,992,101.62,19.58,20.01,-4.69,-8.76,-0.36,0.13,0.06,0.00
19.00,992,1500,1500,1500,992,992,992,992,992,992,992,992,101.62,19.58,20.01,-4.69,-8.76,-0.36,-0.06,0.00,-0.13
20.00,992,1500,1500,1500,992,992,992,992,992,992,992,992,101.90,19.39,-3.18,-4.69,-8.76,-0.36,0.00,0.06,0.06
21.00,992,1500,1500,1500,992,992,992,992,992,992,992,992,101.95,19.58,-6.81,-4.69,-8.76,-0.36,-0.13,0.00,0.06
22.00,992,1500,1500,1500,992,992,992,992,992,992,992,992,101.79,19.58,6.59,-4.69,-8.76,-0.36,-0.06,0.06,0.00
23.00,992,1500,1500,1500,992,992,992,992,992,992,992,992,101.79,19.58,6.59,-4.69,-8.76,-0.36,0.00,0.06,0.00
24.00,992,1500,1500,1500,992,992,992,992,992,992,992,992,101.79,19.58,6.59,-4.69,-8.76,-0.36,0.06,0.00,-0.06
25.00,992,1500,1500,1500,992,992,992,992,992,992,992,992,101.79,19.58,6.59,-4.69,-8.76,-0.36,0.19,0.00,0.06
26.01,992,1500,1500,1500,992,992,992,992,992,992,992,992,101.79,19.58,6.59,-4.69,-8.76,-0.36,0.06,-0.13,0.06
27.01,992,1500,1500,1500,992,992,992,992,992,992,992,992,101.79,19.58,6.59,-4.69,-8.76,-0.36,0.06,-0.06,0.13
28.00,992,1500,1500,1500,992,992,992,992,992,992,992,992,101.74,19.39,10.22,-4.69,-8.76,-0.36,0.06,-0.13,0.00
29.01,992,1500,1500,1500,992,992,992,992,992,992,992,992,101.95,19.58,-6.81,-4.69,-8.76,-0.36,0.06,0.00,0.06
30.01,992,1500,1500,1500,992,992,992,992,992,992,992,992,101.79,19.58,6.59,-4.69,-8.76,-0.36,-0.13,-0.13,-0.06
31.01,992,1500,1500,1500,992,992,992,992,992,992,992,992,101.62,19.58,20.01,-4.69,-8.76,-0.36,-0.13,0.00,-0.06
32.01,992,1500,1500,1500,992,992,992,992,992,992,992,992,101.79,19.58,6.59,-4.69,-8.76,-0.36,0.00,-0.06,0.06
33.01,992,1500,1500,1500,992,992,992,992,992,992,992,992,101.83,19.77,2.96,-4.69,-8.76,-0.36,-0.06,-0.13,0.00
34.01,992,1500,1500,1500,992,992,992,992,992,992,992,992,101.79,19.58,6.59,-4.69,-8.76,-0.36,0.13,0.00,0.00
35.01,992,1500,1500,1500,992,992,992,992,992,992,992,992,101.95,19.58,-6.81,-4.69,-8.76,-0.36,-0.13,0.06,0.06
36.01,992,1500,1500,1500,992,992,992,992,992,992,992,992,101.62,19.58,20.01,-4.69,-8.76,-0.36,0.06,0.00,-0.06
37.00,992,1500,1500,1500,992,992,992,992,992,992,992,992,101.58,19.39,23.63,-4.69,-8.76,-0.36,-0.19,0.13,0.06
38.00,992,1500,1500,1500,992,992,992,992,992,992,992,992,101.83,19.77,2.96,-4.69,-8.76,-0.36,-0.06,-0.06,0.06
39.00,992,1500,1500,1500,992,992,992,992,992,992,992,992,101.79,19.58,6.59,-4.69,-8.76,-0.36,-0.13,-0.06,0.00
40.00,992,1500,1500,1500,992,992,992,992,992,992,992,992,101.62,19.58,20.01,-4.69,-8.76,-0.36,-0.19,-0.19,-0.06
41.00,992,1500,1500,1500,992,992,992,992,992,992,992,992,101.79,19.58,6.59,-4.69,-8.76,-0.36,0.06,-0.13,0.00
42.00,992,1500,1500,1500,992,992,992,992,992,992,992,992,101.74,19.39,10.22,-4.69,-8.76,-0.36,0.13,-0.06,0.00
43.00,992,1500,1500,1500,992,992,992,992,992,992,992,992,101.95,19.58,-6.81,-4.69,-8.76,-0.36,-0.13,-0.06,0.00
44.00,992,1500,1500,1500,992,992,992,992,992,992,992,992,101.62,19.58,20.01,-4.69,-8.76,-0.36,-0.06,0.06,0.06
45.00,992,1500,1500,1500,992,992,992,992,992,992,992,992,101.79,19.58,6.59,-4.69,-8.76,-0.36,-0.13,0.06,0.00
46.00,992,1500,1500,1500,992,992,992,992,992,992,992,992,101.62,19.58,20.01,-4.69,-8.76,-0.36,0.06,0.06,0.19
47.01,992,1500,1500,1500,992,992,992,992,992,992,992,992,101.62,19.58,20.01,-4.69,-8.76,-0.36,-0.25,-0.13,-0.06
48.00,992,1500,1500,1500,992,992,992,992,992,992,992,992,101.95,19.58,-6.81,-4.69,-8.76,-0.36,-0.13,0.06,0.06
49.00,992,1500,1500,1500,992,992,992,992,992,992,992,992,101.79,19.58,6.59,-4.69,-8.76,-0.36,0.06,-0.13,0.06
50.00,992,1500,1500,1500,992,992,992,992,992,992,992,992,101.79,19.58,6.59,-4.69,-8.76,-0.36,0.00,0.06,0.00
51.00,992,1500,1500,1500,992,992,992,992,992,992,992,992,101.79,19.58,6.59,-4.69,-8.76,-0.36,0.00,-0.13,0.00
52.01,992,1500,1500,1500,992,992,992,992,992,992,992,992,101.79,19.58,6.59,-4.69,-8.76,-0.36,0.00,-0.06,-0.06
53.01,992,1500,1500,1500,992,992,992,992,992,992,992,992,101.95,19.58,-6.81,-4.69,-8.76,-0.36,0.06,0.06,0.06
54.01,992,1500,1500,1500,992,992,992,992,992,992,992,992,101.95,19.58,-6.81,-4.69,-8.76,-0.36,0.00,0.06,0.06
55.01,992,1500,1500,1500,992,992,992,992,992,992,992,992,101.79,19.58,6.59,-4.69,-8.76,-0.36,0.19,-0.13,-0.06
56.01,992,1500,1500,1500,992,992,992,992,992,992,992,992,101.90,19.39,-3.18,-4.69,-8.76,-0.36,0.06,0.00,0.06
57.01,992,1500,1500,1500,992,992,992,992,992,992,992,992,101.62,19.58,20.01,-4.69,-8.76,-0.36,0.06,-0.06,0.13
58.01,992,1500,1500,1500,992,992,992,992,992,992,992,992,101.79,19.58,6.59,-4.69,-8.76,-0.36,0.13,-0.13,-0.06
59.01,992,1500,1500,1500,992,992,992,992,992,992,992,992,101.58,19.39,23.63,-4.69,-8.76,-0.36,0.00,0.13,0.00
60.01,992,1500,1500,1500,992,992,992,992,992,992,992,992,101.79,19.58,6.59,-4.69,-8.76,-0.36,0.31,0.00,0.00
61.01,992,1500,1500,1500,992,992,992,992,992,992,992,992,101.62,19.58,20.01,-4.69,-8.76,-0.36,0.06,0.00,0.06
62.01,992,1500,1500,1500,992,992,992,992,992,992,992,992,101.67,19.77,16.38,-4.69,-8.76,-0.36,0.19,-0.06,0.06
63.01,992,1500,1500,1500,992,992,992,992,992,992,992,992,101.95,19.58,-6.81,-4.69,-8.76,-0.36,0.06,-0.06,0.13
64.01,992,1500,1500,1500,992,992,992,992,992,992,992,992,101.79,19.58,6.59,-4.69,-8.76,-0.36,-0.13,0.13,-0.06
65.00,992,1500,1500,1500,992,992,992,992,992,992,992,992,101.79,19.58,6.59,-4.69,-8.76,-0.36,-0.13,0.00,-0.06
66.00,992,1500,1500,1500,992,992,992,992,992,992,992,992,101.79,19.58,6.59,-4.69,-8.76,-0.36,0.00,0.06,0.00
67.00,992,1500,1500,1500,992,992,992,992,992,992,992,992,101.79,19.58,6.59,-4.69,-8.76,-0.36,0.25,-0.06,0.00
68.00,992,1500,1500,1500,992,992,992,992,992,992,992,992,101.79,19.58,6.59,-4.69,-8.76,-0.36,0.25,0.19,-0.06
69.00,992,1500,1500,1500,992,992,992,992,992,992,992,992,101.74,19.39,10.22,-4.69,-8.76,-0.36,0.13,-0.06,0.13
70.00,992,1500,1500,1500,992,992,992,992,992,992,992,992,101.79,19.58,6.59,-4.69,-8.76,-0.36,0.06,0.00,0.13
71.00,992,1500,1500,1500,992,992,992,992,992,992,992,992,101.62,19.58,20.01,-4.69,-8.76,-0.36,0.06,0.00,0.00
72.00,992,1500,1500,1500,992,992,992,992,992,992,992,992,101.62,19.58,20.01,-4.69,-8.76,-0.36,-0.13,0.06,0.00
73.00,992,1500,1500,1500,992,992,992,992,992,992,992,992,101.74,19.39,10.22,-4.69,-8.76,-0.36,-0.06,0.06,0.00
74.00,992,1500,1500,1500,992,992,992,992,992,992,992,992,101.74,19.39,10.22,-4.69,-8.76,-0.36,-0.19,-0.13,0.06
75.00,992,1500,1500,1500,992,992,992,992,992,992,992,992,101.79,19.58,6.59,-4.69,-8.76,-0.36,0.00,-0.13,0.00
76.00,992,1500,1500,1500,992,992,992,992,992,992,992,992,101.79,19.58,6.59,-4.69,-8.76,-0.36,0.06,-0.06,0.13
77.00,992,1500,1500,1500,992,992,992,992,992,992,992,992,101.74,19.39,10.22,-4.69,-8.76,-0.36,0.13,-0.06,0.00
78.00,992,1500,1500,1500,992,992,992,992,992,992,992,992,101.79,19.58,6.59,-4.69,-8.76,-0.36,-0.06,0.00,0.06
79.01,992,1500,1500,1500,992,992,992,992,992,992,992,992,101.74,19.39,10.22,-4.69,-8.76,-0.36,-0.13,0.00,0.00
80.01,992,1500,1500,1500,992,992,992,992,992,992,992,992,101.79,19.58,6.59,-4.69,-8.76,-0.36,0.00,0.00,0.06
81.01,992,1500,1500,1500,992,992,992,992,992,992,992,992,101.79,19.58,6.59,-4.69,-8.76,-0.36,-0.06,0.06,0.00
82.01,992,1500,1500,1500,992,992,992,992,992,992,992,992,101.79,19.58,6.59,-4.69,-8.76,-0.36,0.19,0.00,0.06
83.01,992,1500,1500,1500,992,992,992,992,992,992,992,992,101.79,19.58,6.59,-4.69,-8.76,-0.36,0.00,0.13,0.00
84.01,992,1500,1500,1500,992,992,992,992,992,992,992,992,101.79,19.58,6.59,-4.69,-8.76,-0.36,0.00,-0.06,0.06
85.01,992,1500,1500,1500,992,992,992,992,992,992,992,992,101.79,19.58,6.59,-4.69,-8.76,-0.36,0.13,0.13,0.13
86.01,992,1500,1500,1500,992,992,992,992,992,992,992,992,101.79,19.58,6.59,-4.69,-8.76,-0.36,0.00,0.00,0.06
87.01,992,1500,1500,1500,992,992,992,992,992,992,992,992,101.79,19.58,6.59,-4.69,-8.76,-0.36,0.06,-0.06,-0.06
88.01,992,1500,1500,1500,992,992,992,992,992,992,992,992,101.79,19.58,6.59,-4.69,-8.76,-0.36,0.19,-0.06,0.06
89.01,992,1500,1500,1500,992,992,992,992,992,992,992,992,101.79,19.58,6.59,-4.69,-8.76,-0.36,-0.06,0.06,0.00
90.01,992,1500,1500,1500,992,992,992,992,992,992,992,992,101.83,19.77,2.96,-4.69,-8.76,-0.36,0.00,-0.19,0.13
91.01,992,1500,1500,1500,992,992,992,992,992,992,992,992,101.58,19.39,23.63,-4.69,-8.76,-0.36,0.00,0.00,0.00
92.01,992,1500,1500,1500,992,992,992,992,992,992,992,992,101.95,19.58,-6.81,-4.69,-8.76,-0.36,0.06,0.25,0.00
93.01,992,1500,1500,1500,992,992,992,992,992,992,992,992,101.95,19.58,-6.81,-4.69,-8.76,-0.36,-0.06,-0.13,0.06
94.00,992,1500,1500,1500,992,992,992,992,992,992,992,992,101.95,19.58,-6.81,-4.69,-8.76,-0.36,0.06,-0.13,0.13
95.00,992,1500,1500,1500,992,992,992,992,992,992,992,992,101.79,19.58,6.59,-4.69,-8.76,-0.36,0.06,0.06,-0.06
96.00,992,1500,1500,1500,992,992,992,992,992,992,992,992,101.83,19.77,2.96,-4.69,-8.76,-0.36,-0.06,0.00,0.00
97.00,992,1500,1500,1500,992,992,992,992,992,992,992,992,101.79,19.58,6.59,-4.69,-8.76,-0.36,-0.06,0.00,0.13
98.00,992,1500,1500,1500,992,992,992,992,992,992,992,992,101.79,19.58,6.59,-4.69,-8.76,-0.36,-0.06,-0.06,0.00
99.00,992,1500,1500,1500,992,992,992,992,992,992,992,992,101.79,19.58,6.59,-4.69,-8.76,-0.36,0.06,0.13,0.06
100.00,992,1500,1500,1500,992,992,992,992,992,992,992,992,101.79,19.58,6.59,-4.69,-8.76,-0.36,0.13,0.13,0.13
101.00,992,1500,1500,1500,992,992,992,992,992,992,992,992,101.83,19.77,2.96,-4.69,-8.76,-0.36,0.25,0.00,0.00
102.00,992,1500,1500,1500,992,992,992,992,992,992,992,992,101.83,19.77,2.96,-4.69,-8.76,-0.36,0.19,-0.13,0.13
103.00,992,1500,1500,1500,992,992,992,992,992,992,992,992,101.79,19.58,6.59,-4.69,-8.76,-0.36,0.31,0.00,-0.06
104.00,992,1500,1500,1500,992,992,992,992,992,992,992,992,101.79,19.58,6.59,-4.69,-8.76,-0.36,-0.06,-0.06,-0.06
105.00,992,1500,1500,1500,992,992,992,992,992,992,992,992,101.79,19.58,6.59,-4.69,-8.76,-0.36,-0.25,0.00,0.00
106.00,992,1500,1500,1500,992,992,992,992,992,992,992,992,101.79,19.58,6.59,-4.69,-8.76,-0.36,-0.06,-0.06,0.06
107.00,992,1500,1500,1500,992,992,992,992,992,992,992,992,101.79,19.58,6.59,-4.69,-8.76,-0.36,0.00,-0.06,0.00
108.00,992,1500,1500,1500,992,992,992,992,992,992,992,992,101.79,19.58,6.59,-4.69,-8.76,-0.36,0.06,0.06,-0.06
109.01,992,1500,1500,1500,992,992,992,992,992,992,992,992,101.79,19.58,6.59,-4.69,-8.76,-0.36,0.19,0.00,-0.06
110.01,992,1500,1500,1500,992,992,992,992,992,992,992,992,101.74,19.39,10.22,-4.69,-8.76,-0.36,-0.19,0.19,-0.06
111.01,992,1500,1500,1500,992,992,992,992,992,992,992,992,101.62,19.58,20.01,-4.69,-8.76,-0.36,0.13,0.06,0.00
112.01,992,1500,1500,1500,992,992,992,992,992,992,992,992,101.90,19.39,-3.18,-4.69,-8.76,-0.36,-0.06,-0.06,0.06
113.01,992,1500,1500,1500,992,992,992,992,992,992,992,992,101.79,19.58,6.59,-4.69,-8.76,-0.36,0.00,0.06,-0.13
114.01,992,1500,1500,1500,992,992,992,992,992,992,992,992,101.79,19.58,6.59,-4.69,-8.76,-0.36,0.25,0.13,0.00
115.01,992,1500,1500,1500,992,992,992,992,992,992,992,992,101.62,19.58,20.01,-4.69,-8.76,-0.36,0.13,0.13,-0.06
116.01,992,1500,1500,1500,992,992,992,992,992,992,992,992,101.74,19.39,10.22,-4.69,-8.76,-0.36,-0.13,-0.06,0.06
117.01,992,1500,1500,1500,992,992,992,992,992,992,992,992,101.74,19.39,10.22,-4.69,-8.76,-0.36,0.00,0.00,0.00
118.01,992,1500,1500,1500,992,992,992,992,992,992,992,992,101.95,19.58,-6.81,-4.69,-8.76,-0.36,0.06,0.06,0.00
119.01,992,1500,1500,1500,992,992,992,992,992,992,992,992,101.95,19.58,-6.81,-4.69,-8.76,-0.36,0.19,0.06,0.00
120.01,992,1500,1500,1500,992,992,992,992,992,992,992,992,101.79,19.58,6.59,-4.69,-8.76,-0.36,-0.06,0.00,0.00
121.01,992,1500,1500,1500,992,992,992,992,992,992,992,992,101.79,19.58,6.59,-4.69,-8.76,-0.36,-0.13,0.00,0.06
122.01,992,1500,1500,1500,992,992,992,992,992,992,992,992,101.74,19.39,10.22,-4.69,-8.76,-0.36,-0.06,-0.06,0.00
123.01,992,1500,1500,1500,992,992,992,992,992,992,992,992,101.95,19.58,-6.81,-4.69,-8.76,-0.36,0.06,0.06,0.06
124.01,992,1500,1500,1500,992,992,992,992,992,992,992,992,101.62,19.58,20.01,-4.69,-8.76,-0.36,0.00,-0.13,-0.06
125.00,992,1500,1500,1500,992,992,992,992,992,992,992,992,101.95,19.58,-6.81,-4.69,-8.76,-0.36,0.00,-0.06,0.06
126.00,992,1500,1500,1500,992,992,992,992,992,992,992,992,101.74,19.39,10.22,-4.69,-8.76,-0.36,0.00,0.06,0.06
127.00,992,1500,1500,1500,992,992,992,992,992,992,992,992,101.95,19.58,-6.81,-4.69,-8.76,-0.36,0.13,0.00,0.00
128.00,992,1500,1500,1500,992,992,992,992,992,992,992,992,101.79,19.58,6.59,-4.69,-8.76,-0.36,0.19,0.06,0.00
129.00,992,1500,1500,1500,992,992,992,992,992,992,992,992,101.74,19.39,10.22,-4.69,-8.76,-0.36,0.13,-0.06,0.13
130.00,992,1500,1500,1500,992,992,992,992,992,992,992,992,101.74,19.39,10.22,-4.69,-8.76,-0.36,0.06,0.06,0.06
131.00,992,1500,1500,1500,992,992,992,992,992,992,992,992,101.79,19.58,6.59,-4.69,-8.76,-0.36,0.06,-0.06,-0.06
132.00,992,1500,1500,1500,992,992,992,992,992,992,992,992,101.79,19.58,6.59,-4.69,-8.76,-0.36,0.00,0.13,-0.06
133.00,992,1500,1500,1500,992,992,992,992,992,992,992,992,101.79,19.58,6.59,-4.69,-8.76,-0.36,-0.06,0.06,-0.13
134.00,992,1500,1500,1500,992,992,992,992,992,992,992,992,101.95,19.58,-6.81,-4.69,-8.76,-0.36,0.25,0.19,0.06
135.00,992,1500,1500,1500,992,992,992,992,992,992,992,992,101.79,19.58,6.59,-4.69,-8.76,-0.36,0.00,-0.06,0.06
136.00,992,1500,1500,1500,992,992,992,992,992,992,992,992,101.95,19.58,-6.81,-4.69,-8.76,-0.36,-0.06,0.00,-0.06
137.00,992,1500,1500,1500,992,992,992,992,992,992,992,992,101.62,19.58,20.01,-4.69,-8.76,-0.36,0.00,0.13,-0.06
138.00,992,1500,1500,1500,992,992,992,992,992,992,992,992,101.62,19.58,20.01,-4.69,-8.76,-0.36,0.00,-0.06,0.06
139.00,992,1500,1500,1500,992,992,992,992,992,992,992,992,101.95,19.58,-6.81,-4.69,-8.76,-0.36,-0.19,0.06,0.00
140.00,992,1500,1500,1500,992,992,992,992,992,992,992,992,101.95,19.58,-6.81,-4.69,-8.76,-0.36,0.13,0.00,-0.06
141.00,992,1500,1500,1500,992,992,992,992,992,992,992,992,101.79,19.58,6.59,-4.69,-8.76,-0.36,0.13,-0.13,-0.06
142.00,992,1500,1500,1500,992,992,992,992,992,992,992,992,101.79,19.58,6.59,-4.69,-8.76,-0.36,-0.06,0.19,-0.13
143.00,992,1500,1500,1500,992,992,992,992,992,992,992,992,101.79,19.58,6.59,-4.69,-8.76,-0.36,0.19,-0.13,0.06
144.00,992,1500,1500,1500,992,992,992,992,992,992,992,992,101.62,19.58,20.01,-4.69,-8.76,-0.36,0.06,0.00,0.06
145.01,992,1500,1500,1500,992,992,992,992,992,992,992,992,101.79,19.58,6.59,-4.69,-8.76,-0.36,0.13,0.06,-0.06
146.01,992,1500,1500,1500,992,992,992,992,992,992,992,992,101.79,19.58,6.59,-4.69,-8.76,-0.36,-0.06,-0.06,-0.06
147.01,992,1500,1500,1500,992,992,992,992,992,992,992,992,101.74,19.39,10.22,-4.69,-8.76,-0.36,0.13,-0.13,0.19
148.01,992,1500,1500,1500,992,992,992,992,992,992,992,992,101.62,19.58,20.01,-4.69,-8.76,-0.36,0.06,0.00,0.13
149.01,992,1500,1500,1500,992,992,992,992,992,992,992,992,101.79,19.58,6.59,-4.69,-8.76,-0.36,0.06,-0.06,-0.13
150.01,992,1500,1500,1500,992,992,992,992,992,992,992,992,101.79,19.58,6.59,-4.69,-8.76,-0.36,0.00,0.06,-0.06
151.01,992,1500,1500,1500,992,992,992,992,992,992,992,992,101.79,19.58,6.59,-4.69,-8.76,-0.36,0.06,0.19,0.00
152.01,992,1500,1500,1500,992,992,992,992,992,992,992,992,101.79,19.58,6.59,-4.69,-8.76,-0.36,0.00,0.00,0.00
153.01,992,1500,1500,1500,992,992,992,992,992,992,992,992,101.95,19.58,-6.81,-4.69,-8.76,-0.36,0.13,-0.06,0.00
154.01,992,1500,1500,1500,992,992,992,992,992,992,992,992,101.74,19.39,10.22,-4.69,-8.76,-0.36,-0.19,0.00,-0.06
155.01,992,1500,1500,1500,992,992,992,992,992,992,992,992,101.62,19.58,20.01,-4.69,-8.76,-0.36,0.00,0.13,0.00
156.01,992,1500,1500,1500,992,992,992,992,992,992,992,992,101.62,19.58,20.01,-4.69,-8.76,-0.36,-0.06,-0.06,0.00
157.00,992,1500,1500,1500,992,992,992,992,992,992,992,992,101.62,19.58,20.01,-4.69,-8.76,-0.36,-0.19,-0.06,-0.06
158.00,992,1500,1500,1500,992,992,992,992,992,992,992,992,101.79,19.58,6.59,-4.69,-8.76,-0.36,0.19,-0.06,0.00
159.00,992,1500,1500,1500,992,992,992,992,992,992,992,992,101.79,19.58,6.59,-4.69,-8.76,-0.36,0.06,0.13,0.00
160.00,992,1500,1500,1500,992,992,992,992,992,992,992,992,101.79,19.58,6.59,-4.69,-8.76,-0.36,0.06,0.00,-0.06
161.00,992,1500,1500,1500,992,992,992,992,992,992,992,992,101.74,19.39,10.22,-4.69,-8.76,-0.36,-0.19,0.13,0.13
162.00,992,1500,1500,1500,992,992,992,992,992,992,992,992,101.83,19.77,2.96,-4.69,-8.76,-0.36,0.00,-0.06,0.00
163.00,992,1500,1500,1500,992,992,992,992,992,992,992,992,101.79,19.58,6.59,-4.69,-8.76,-0.36,-0.06,0.06,0.13
164.00,992,1500,1500,1500,992,992,992,992,992,992,992,992,101.95,19.58,-6.81,-4.69,-8.76,-0.36,0.00,0.19,0.06
165.00,992,1500,1500,1500,992,992,992,992,992,992,992,992,101.79,19.58,6.59,-4.69,-8.76,-0.36,0.00,-0.13,-0.06
166.01,992,1500,1500,1500,992,992,992,992,992,992,992,992,101.79,19.58,6.59,-4.69,-8.76,-0.36,0.06,0.00,0.06
167.00,992,1500,1500,1500,992,992,992,992,992,992,992,992,101.79,19.58,6.59,-4.69,-8.76,-0.36,0.06,0.00,0.06
168.00,992,1500,1500,1500,992,992,992,992,992,992,992,992,101.62,19.58,20.01,-4.69,-8.76,-0.36,0.00,0.00,0.00
169.00,992,1500,1500,1500,992,992,992,992,992,992,992,992,101.74,19.39,10.22,-4.69,-8.76,-0.36,0.00,0.06,-0.06
170.00,992,1500,1500,1500,992,992,992,992,992,992,992,992,101.90,19.39,-3.18,-4.69,-8.76,-0.36,0.13,-0.13,0.00
171.00,992,1500,1500,1500,992,992,992,992,992,992,992,992,101.90,19.39,-3.18,-4.69,-8.76,-0.36,-0.06,-0.13,0.00
172.00,992,1500,1500,1500,992,992,992,992,992,992,992,992,101.74,19.39,10.22,-4.69,-8.76,-0.36,0.00,0.19,0.06
173.00,992,1500,1500,1500,992,992,992,992,992,992,992,992,101.79,19.58,6.59,-4.69,-8.76,-0.36,-0.06,-0.06,0.13
174.00,992,1500,1500,1500,992,992,992,992,992,992,992,992,101.79,19.58,6.59,-4.69,-8.76,-0.36,-0.25,-0.06,-0.06
175.00,992,1500,1500,1500,992,992,992,992,992,992,992,992,101.79,19.58,6.59,-4.69,-8.76,-0.36,0.13,-0.13,0.06
176.00,992,1500,1500,1500,992,992,992,992,992,992,992,992,101.90,19.39,-3.18,-4.69,-8.76,-0.36,0.06,0.13,-0.06
177.00,992,1500,1500,1500,992,992,992,992,992,992,992,992,101.58,19.39,23.63,-4.69,-8.76,-0.36,-0.19,0.00,0.06
178.00,992,1500,1500,1500,992,992,992,992,992,992,992,992,101.95,19.58,-6.81,-4.69,-8.76,-0.36,-0.06,0.00,0.00
179.01,992,1500,1500,1500,992,992,992,992,992,992,992,992,101.74,19.39,10.22,-4.69,-8.76,-0.36,0.00,0.00,-0.06
180.01,992,1500,1500,1500,992,992,992,992,992,992,992,992,101.79,19.58,6.59,-4.69,-8.76,-0.36,-0.13,-0.06,-0.06
181.01,992,1500,1500,1500,992,992,992,992,992,992,992,992,101.62,19.58,20.01,-4.69,-8.76,-0.36,-0.13,0.13,0.00
182.01,992,1500,1500,1500,992,992,992,992,992,992,992,992,101.83,19.77,2.96,-4.69,-8.76,-0.36,0.13,-0.13,-0.06
183.01,992,1500,1500,1500,992,992,992,992,992,992,992,992,101.90,19.39,-3.18,-4.69,-8.76,-0.36,0.13,-0.06,0.06
184.01,992,1500,1500,1500,992,992,992,992,992,992,992,992,101.79,19.58,6.59,-4.69,-8.76,-0.36,-0.13,-0.13,0.00
185.01,992,1500,1500,1500,992,992,992,992,992,992,992,992,101.62,19.58,20.01,-4.69,-8.76,-0.36,0.00,0.13,0.00
186.01,992,1500,1500,1500,992,992,992,992,992,992,992,992,101.79,19.58,6.59,-4.69,-8.76,-0.36,0.13,0.00,0.00
187.01,992,1500,1500,1500,992,992,992,992,992,992,992,992,101.79,19.58,6.59,-4.69,-8.76,-0.36,-0.13,0.00,0.00
188.01,992,1500,1500,1500,992,992,992,992,992,992,992,992,101.90,19.39,-3.18,-4.69,-8.76,-0.36,-0.19,-0.13,0.06
189.01,992,1500,1500,1500,992,992,992,992,992,992,992,992,101.90,19.39,-3.18,-4.69,-8.76,-0.36,0.31,0.13,0.06
190.01,992,1500,1500,1500,992,992,992,992,992,992,992,992,101.79,19.58,6.59,-4.69,-8.76,-0.36,0.13,0.00,0.00
191.01,992,1500,1500,1500,992,992,992,992,992,992,992,992,101.79,19.58,6.59,-4.69,-8.76,-0.36,0.13,-0.06,0.06
192.01,992,1500,1500,1500,992,992,992,992,992,992,992,992,101.70,19.21,13.85,-4.69,-8.76,-0.36,0.13,-0.06,0.00
193.00,992,1500,1500,1500,992,992,992,992,992,992,992,992,101.74,19.39,10.22,-4.69,-8.76,-0.36,-0.06,-0.13,0.00
194.00,992,1500,1500,1500,992,992,992,992,992,992,992,992,101.79,19.58,6.59,-4.69,-8.76,-0.36,0.19,0.13,0.06
195.00,992,1500,1500,1500,992,992,992,992,992,992,992,992,101.79,19.58,6.59,-4.69,-8.76,-0.36,0.13,-0.13,-0.06
196.00,992,1500,1500,1500,992,992,992,992,992,992,992,992,101.79,19.58,6.59,-4.69,-8.76,-0.36,0.00,0.00,-0.06
197.00,992,1500,1500,1500,992,992,992,992,992,992,992,992,101.74,19.39,10.22,-4.69,-8.76,-0.36,0.00,0.00,0.00
198.00,992,1500,1500,1500,992,992,992,992,992,992,992,992,101.62,19.58,20.01,-4.69,-8.76,-0.36,0.00,-0.19,0.06
199.00,992,1500,1500,1500,992,992,992,992,992,992,992,992,101.79,19.58,6.59,-4.69,-8.76,-0.36,-0.06,0.06,0.00
200.00,992,1500,1500,1500,992,992,992,992,992,992,992,992,101.62,19.58,20.01,-4.69,-8.76,-0.36,-0.06,0.06,0.00
201.00,992,1500,1500,1500,992,992,992,992,992,992,992,992,101.95,19.58,-6.81,-4.69,-8.76,-0.36,0.00,0.06,0.06
202.00,992,1500,1500,1500,992,992,992,992,992,992,992,992,101.79,19.58,6.59,-4.69,-8.76,-0.36,-0.06,0.06,0.06
203.00,992,1500,1500,1500,992,992,992,992,992,992,992,992,101.79,19.58,6.59,-4.69,-8.76,-0.36,-0.06,-0.06,0.06
204.00,992,1500,1500,1500,992,992,992,992,992,992,992,992,101.79,19.58,6.59,-4.69,-8.76,-0.36,0.13,0.06,0.13
205.00,992,1500,1500,1500,992,992,992,992,992,992,992,992,101.79,19.58,6.59,-4.69,-8.76,-0.36,-0.25,0.00,0.06
206.00,992,1500,1500,1500,992,992,992,992,992,992,992,992,101.70,19.21,13.85,-4.69,-8.76,-0.36,0.06,0.06,0.00
207.00,992,1500,1500,1500,992,992,992,992,992,992,992,992,101.79,19.58,6.59,-4.69,-8.76,-0.36,0.00,-0.06,-0.06
208.00,992,1500,1500,1500,992,992,992,992,992,992,992,992,101.74,19.39,10.22,-4.69,-8.76,-0.36,-0.19,-0.06,-0.06
209.00,992,1500,1500,1500,992,992,992,992,992,992,992,992,101.79,19.58,6.59,-4.69,-8.76,-0.36,0.00,-0.06,0.00
210.00,992,1500,1500,1500,992,992,992,992,992,992,992,992,101.79,19.58,6.59,-4.69,-8.76,-0.36,-0.13,-0.13,-0.13
211.00,992,1500,1500,1500,992,992,992,992,992,992,992,992,101.79,19.58,6.59,-4.69,-8.76,-0.36,-0.13,0.06,0.00
212.01,992,1500,1500,1500,992,992,992,992,992,992,992,992,101.79,19.58,6.59,-4.69,-8.76,-0.36,-0.19,0.06,0.06
213.01,992,1500,1500,1500,992,992,992,992,992,992,992,992,101.62,19.58,20.01,-4.69,-8.76,-0.36,-0.06,0.06,0.13
214.01,992,1500,1500,1500,992,992,992,992,992,992,992,992,101.95,19.58,-6.81,-4.69,-8.76,-0.36,-0.06,-0.06,-0.13
215.01,992,1500,1500,1500,992,992,992,992,992,992,992,992,101.58,19.39,23.63,-4.69,-8.76,-0.36,-0.19,-0.06,-0.06
216.01,992,1500,1500,1500,992,992,992,992,992,992,992,992,101.79,19.58,6.59,-4.69,-8.76,-0.36,0.00,-0.06,0.13
217.01,992,1500,1500,1500,992,992,992,992,992,992,992,992,101.74,19.39,10.22,-4.69,-8.76,-0.36,-0.06,0.06,0.00
218.01,992,1500,1500,1500,992,992,992,992,992,992,992,992,101.79,19.58,6.59,-4.69,-8.76,-0.36,0.00,-0.06,0.06
219.01,992,1500,1500,1500,992,992,992,992,992,992,992,992,101.95,19.58,-6.81,-4.69,-8.76,-0.36,-0.06,0.06,0.00
220.01,992,1500,1500,1500,992,992,992,992,992,992,992,992,101.74,19.39,10.22,-4.69,-8.76,-0.36,0.00,-0.06,0.00
221.01,992,1500,1500,1500,992,992,992,992,992,992,992,992,101.79,19.58,6.59,-4.69,-8.76,-0.36,0.06,0.13,0.06
222.01,992,1500,1500,1500,992,992,992,992,992,992,992,992,101.62,19.58,20.01,-4.69,-8.76,-0.36,-0.06,0.00,-0.13
223.01,992,1500,1500,1500,992,992,992,992,992,992,992,992,101.79,19.58,6.59,-4.69,-8.76,-0.36,0.06,0.00,0.06
224.01,992,1500,1500,1500,992,992,992,992,992,992,992,992,101.79,19.58,6.59,-4.69,-8.76,-0.36,0.13,-0.06,-0.06
225.01,992,1500,1500,1500,992,992,992,992,992,992,992,992,101.74,19.39,10.22,-4.69,-8.76,-0.36,-0.13,0.00,0.06
226.00,992,1500,1500,1500,992,992,992,992,992,992,992,992,101.62,19.58,20.01,-4.69,-8.76,-0.36,0.06,-0.06,0.06
227.00,992,1500,1500,1500,992,992,992,992,992,992,992,992,101.95,19.58,-6.81,-4.69,-8.76,-0.36,0.00,-0.06,0.06
228.00,992,1500,1500,1500,992,992,992,992,992,992,992,992,101.79,19.58,6.59,-4.69,-8.76,-0.36,-0.06,-0.06,0.00
229.00,992,1500,1500,1500,992,992,992,992,992,992,992,992,101.74,19.39,10.22,-4.69,-8.76,-0.36,0.00,0.00,0.06
230.00,992,1500,1500,1500,992,992,992,992,992,992,992,992,101.83,19.77,2.96,-4.69,-8.76,-0.36,0.06,0.00,0.06
231.00,992,1500,1500,1500,992,992,992,992,992,992,992,992,101.74,19.39,10.22,-4.69,-8.76,-0.36,0.25,0.06,0.00
232.00,992,1500,1500,1500,992,992,992,992,992,992,992,992,101.79,19.58,6.59,-4.69,-8.76,-0.36,0.00,0.00,0.06
233.00,992,1500,1500,1500,992,992,992,992,992,992,992,992,101.95,19.58,-6.81,-4.69,-8.76,-0.36,0.13,-0.06,0.06
234.00,992,1500,1500,1500,992,992,992,992,992,992,992,992,101.62,19.58,20.01,-4.69,-8.76,-0.36,0.00,0.13,0.00
235.00,992,1500,1500,1500,992,992,992,992,992,992,992,992,101.62,19.58,20.01,-4.69,-8.76,-0.36,0.19,-0.19,0.00
236.00,992,1500,1500,1500,992,992,992,992,992,992,992,992,101.79,19.58,6.59,-4.69,-8.76,-0.36,0.13,0.06,0.06
237.00,992,1500,1500,1500,992,992,992,992,992,992,992,992,101.95,19.58,-6.81,-4.69,-8.76,-0.36,0.19,-0.19,0.06
238.00,992,1500,1500,1500,992,992,992,992,992,992,992,992,101.95,19.58,-6.81,-4.69,-8.76,-0.36,-0.19,-0.06,-0.06
239.00,992,1500,1500,1500,992,992,992,992,992,992,992,992,101.74,19.39,10.22,-4.69,-8.76,-0.36,0.13,-0.06,0.13
240.00,992,1500,1500,1500,992,992,992,992,992,992,992,992,101.95,19.58,-6.81,-4.69,-8.76,-0.36,0.13,0.06,0.00
241.00,992,1500,1500,1500,992,992,992,992,992,992,992,992,101.79,19.58,6.59,-4.69,-8.76,-0.36,-0.13,0.06,0.00
242.00,992,1500,1500,1500,992,992,992,992,992,992,992,992,101.79,19.58,6.59,-4.69,-8.76,-0.36,-0.13,-0.06,-0.06
243.00,992,1500,1500,1500,992,992,992,992,992,992,992,992,101.79,19.58,6.59,-4.69,-8.76,-0.36,0.06,0.00,0.13
244.01,992,1500,1500,1500,992,992,992,992,992,992,992,992,101.95,19.58,-6.81,-4.69,-8.76,-0.36,0.19,0.19,0.06
245.01,992,1500,1500,1500,992,992,992,992,992,992,992,992,101.99,19.77,-10.44,-4.69,-8.76,-0.36,0.25,0.06,0.13
246.01,992,1500,1500,1500,992,992,992,992,992,992,992,992,101.79,19.58,6.59,-4.69,-8.76,-0.36,-0.06,-0.25,0.00
247.01,992,1500,1500,1500,992,992,992,992,992,992,992,992,101.95,19.58,-6.81,-4.69,-8.76,-0.36,-0.06,0.00,-0.06
248.01,992,1500,1500,1500,992,992,992,992,992,992,992,992,101.79,19.58,6.59,-4.69,-8.76,-0.36,-0.13,-0.13,-0.06
249.01,992,1500,1500,1500,992,992,992,992,992,992,992,992,101.74,19.39,10.22,-4.69,-8.76,-0.36,-0.06,0.00,-0.13
250.01,992,1500,1500,1500,992,992,992,992,992,992,992,992,101.79,19.58,6.59,-4.69,-8.76,-0.36,-0.13,-0.06,0.00
251.01,992,1500,1500,1500,992,992,992,992,992,992,992,992,101.95,19.58,-6.81,-4.69,-8.76,-0.36,-0.25,0.13,0.00
252.01,992,1500,1500,1500,992,992,992,992,992,992,992,992,101.62,19.58,20.01,-4.69,-8.76,-0.36,0.13,0.00,0.00
253.00,992,1500,1500,1500,992,992,992,992,992,992,992,992,101.90,19.39,-3.18,-4.69,-8.76,-0.36,0.13,-0.06,0.00
254.00,992,1500,1500,1500,992,992,992,992,992,992,992,992,101.58,19.39,23.63,-4.69,-8.76,-0.36,-0.31,0.00,0.13
255.00,992,1500,1500,1500,992,992,992,992,992,992,992,992,101.62,19.58,20.01,-4.69,-8.76,-0.36,-0.06,-0.06,0.06
256.00,992,1500,1500,1500,992,992,992,992,992,992,992,992,101.95,19.58,-6.81,-4.69,-8.76,-0.36,-0.06,0.13,0.00
257.00,992,1500,1500,1500,992,992,992,992,992,992,992,992,101.79,19.58,6.59,-4.69,-8.76,-0.36,0.13,-0.06,0.00
258.00,992,1500,1500,1500,992,992,992,992,992,992,992,992,101.95,19.58,-6.81,-4.69,-8.76,-0.36,0.00,0.00,0.06
259.00,992,1500,1500,1500,992,992,992,992,992,992,992,992,101.79,19.58,6.59,-4.69,-8.76,-0.36,0.19,-0.06,0.13
260.00,992,1500,1500,1500,992,992,992,992,992,992,992,992,101.62,19.58,20.01,-4.69,-8.76,-0.36,-0.13,-0.06,-0.06
261.00,992,1500,1500,1500,992,992,992,992,992,992,992,992,101.79,19.58,6.59,-4.69,-8.76,-0.36,-0.19,-0.06,0.06
262.00,992,1500,1500,1500,992,992,992,992,992,992,992,992,101.54,19.21,27.27,-4.69,-8.76,-0.36,0.13,0.00,0.13
263.00,992,1500,1500,1500,992,992,992,992,992,992,992,992,101.79,19.58,6.59,-4.69,-8.76,-0.36,0.00,0.00,0.06
264.00,992,1500,1500,1500,992,992,992,992,992,992,992,992,101.95,19.58,-6.81,-4.69,-8.76,-0.36,0.13,0.00,0.06
265.00,992,1500,1500,1500,992,992,992,992,992,992,992,992,101.74,19.39,10.22,-4.69,-8.76,-0.36,-0.06,0.00,-0.06
266.00,992,1500,1500,1500,992,992,992,992,992,992,992,992,101.90,19.39,-3.18,-4.69,-8.76,-0.36,-0.13,0.13,0.00
267.00,992,1500,1500,1500,992,992,992,992,992,992,992,992,101.95,19.58,-6.81,-4.69,-8.76,-0.36,-0.13,0.00,0.06
268.01,992,1500,1500,1500,992,992,992,992,992,992,992,992,101.79,19.58,6.59,-4.69,-8.76,-0.36,-0.06,0.00,-0.06
269.01,992,1500,1500,1500,992,992,992,992,992,992,992,992,101.79,19.58,6.59,-4.69,-8.76,-0.36,0.19,0.06,0.00
270.01,992,1500,1500,1500,992,992,992,992,992,992,992,992,101.74,19.39,10.22,-4.69,-8.76,-0.36,0.06,0.06,0.06
271.01,992,1500,1500,1500,992,992,992,992,992,992,992,992,101.74,19.39,10.22,-4.69,-8.76,-0.36,0.00,0.00,0.06
272.01,992,1500,1500,1500,992,992,992,992,992,992,992,992,101.90,19.39,-3.18,-4.69,-8.76,-0.36,0.00,-0.06,0.00
273.01,992,1500,1500,1500,992,992,992,992,992,992,992,992,101.95,19.58,-6.81,-4.69,-8.76,-0.36,0.00,0.00,0.00
274.01,992,1500,1500,1500,992,992,992,992,992,992,992,992,101.79,19.58,6.59,-4.69,-8.76,-0.36,0.00,0.00,0.06
275.01,992,1500,1500,1500,992,992,992,992,992,992,992,992,101.74,19.39,10.22,-4.69,-8.76,-0.36,0.00,-0.06,0.00
276.01,992,1500,1500,1500,992,992,992,992,992,992,992,992,101.79,19.58,6.59,-4.69,-8.76,-0.36,0.00,0.19,0.06
277.01,992,1500,1500,1500,992,992,992,992,992,992,992,992,101.79,19.58,6.59,-4.69,-8.76,-0.36,0.13,0.19,0.00
278.01,992,1500,1500,1500,992,992,992,992,992,992,992,992,101.79,19.58,6.59,-4.69,-8.76,-0.36,0.06,0.06,-0.13
279.01,992,1500,1500,1500,992,992,992,992,992,992,992,992,101.79,19.58,6.59,-4.69,-8.76,-0.36,0.13,-0.13,0.06
280.00,992,1500,1500,1500,992,992,992,992,992,992,992,992,101.79,19.58,6.59,-4.69,-8.76,-0.36,0.19,0.06,0.13
281.00,992,1500,1500,1500,992,992,992,992,992,992,992,992,101.79,19.58,6.59,-4.69,-8.76,-0.36,-0.06,0.06,0.00
282.00,992,1500,1500,1500,992,992,992,992,992,992,992,992,101.74,19.39,10.22,-4.69,-8.76,-0.36,-0.13,0.00,-0.13
283.00,992,1500,1500,1500,992,992,992,992,992,992,992,992,101.74,19.39,10.22,-4.69,-8.76,-0.36,-0.13,0.00,-0.06
284.00,992,1500,1500,1500,992,992,992,992,992,992,992,992,101.62,19.58,20.01,-4.69,-8.76,-0.36,0.00,-0.06,0.06
285.00,992,1500,1500,1500,992,992,992,992,992,992,992,992,101.62,19.58,20.01,-4.69,-8.76,-0.36,0.13,0.13,0.06
286.00,992,1500,1500,1500,992,992,992,992,992,992,992,992,101.62,19.58,20.01,-4.69,-8.76,-0.36,0.06,0.00,-0.06
287.00,992,1500,1500,1500,992,992,992,992,992,992,992,992,101.79,19.58,6.59,-4.69,-8.76,-0.36,-0.06,-0.06,0.00
288.00,992,1500,1500,1500,992,992,992,992,992,992,992,992,101.79,19.58,6.59,-4.69,-8.76,-0.36,-0.06,0.06,0.00
289.00,992,1500,1500,1500,992,992,992,992,992,992,992,992,101.79,19.58,6.59,-4.69,-8.76,-0.36,0.00,0.13,0.00
290.00,992,1500,1500,1500,992,992,992,992,992,992,992,992,101.58,19.39,23.63,-4.69,-8.76,-0.36,0.13,0.00,0.00
291.00,992,1500,1500,1500,992,992,992,992,992,992,992,992,101.79,19.58,6.59,-4.69,-8.76,-0.36,-0.13,0.00,0.00
292.00,992,1500,1500,1500,992,992,992,992,992,992,992,992,101.79,19.58,6.59,-4.69,-8.76,-0.36,0.13,0.06,0.13
293.00,992,1500,1500,1500,992,992,992,992,992,992,992,992,101.95,19.58,-6.81,-4.69,-8.76,-0.36,0.06,0.00,0.00
294.00,992,1500,1500,1500,992,992,992,992,992,992,992,992,101.74,19.39,10.22,-4.69,-8.76,-0.36,0.06,0.00,0.00
295.00,992,1500,1500,1500,992,992,992,992,992,992,992,992,101.95,19.58,-6.81,-4.69,-8.76,-0.36,0.06,-0.06,0.00
296.00,992,1500,1500,1500,992,992,992,992,992,992,992,992,101.95,19.58,-6.81,-4.69,-8.76,-0.36,0.06,0.06,0.00
297.00,992,1500,1500,1500,992,992,992,992,992,992,992,992,101.79,19.58,6.59,-4.69,-8.76,-0.36,0.25,0.06,0.00
298.01,992,1500,1500,1500,992,992,992,992,992,992,992,992,101.79,19.58,6.59,-4.69,-8.76,-0.36,-0.06,-0.06,0.06
299.01,992,1500,1500,1500,992,992,992,992,992,992,992,992,101.62,19.58,20.01,-4.69,-8.76,-0.36,0.19,-0.13,0.06
300.01,992,1500,1500,1500,992,992,992,992,992,992,992,992,101.62,19.58,20.01,-4.69,-8.76,-0.36,0.13,0.00,0.00
301.01,992,1500,1500,1500,992,992,992,992,992,992,992,992,101.90,19.39,-3.18,-4.69,-8.76,-0.36,0.19,0.00,0.00
302.01,992,1500,1500,1500,992,992,992,992,992,992,992,992,101.95,19.58,-6.81,-4.69,-8.76,-0.36,0.19,-0.06,0.13
303.01,992,1500,1500,1500,992,992,992,992,992,992,992,992,101.79,19.58,6.59,-4.69,-8.76,-0.36,-0.06,0.00,-0.13
304.01,992,1500,1500,1500,992,992,992,992,992,992,992,992,101.62,19.58,20.01,-4.69,-8.76,-0.36,0.06,0.06,0.13
305.01,992,1500,1500,1500,992,992,992,992,992,992,992,992,101.79,19.58,6.59,-4.69,-8.76,-0.36,-0.06,0.25,0.00
306.01,992,1500,1500,1500,992,992,992,992,992,992,992,992,101.58,19.39,23.63,-4.69,-8.76,-0.36,0.19,-0.06,0.00
307.01,992,1500,1500,1500,992,992,992,992,992,992,992,992,101.74,19.39,10.22,-4.69,-8.76,-0.36,0.00,0.06,0.06
308.00,992,1500,1500,1500,992,992,992,992,992,992,992,992,101.58,19.39,23.63,-4.69,-8.76,-0.36,-0.06,-0.13,-0.13
309.00,992,1500,1500,1500,992,992,992,992,992,992,992,992,101.70,19.21,13.85,-4.69,-8.76,-0.36,-0.13,-0.06,0.00
310.00,992,1500,1500,1500,992,992,992,992,992,992,992,992,101.79,19.58,6.59,-4.69,-8.76,-0.36,0.31,-0.06,0.06
311.00,992,1500,1500,1500,992,992,992,992,992,992,992,992,101.90,19.39,-3.18,-4.69,-8.76,-0.36,0.13,0.19,0.06
312.01,992,1500,1500,1500,992,992,992,992,992,992,992,992,101.90,19.39,-3.18,-4.69,-8.76,-0.36,-0.06,0.13,0.06
313.00,992,1500,1500,1500,992,992,992,992,992,992,992,992,101.95,19.58,-6.81,-4.69,-8.76,-0.36,-0.19,-0.06,0.00
314.00,992,1500,1500,1500,992,992,992,992,992,992,992,992,101.74,19.39,10.22,-4.69,-8.76,-0.36,0.00,0.00,0.06
315.00,992,1500,1500,1500,992,992,992,992,992,992,992,992,101.79,19.58,6.59,-4.69,-8.76,-0.36,0.13,-0.06,0.19
316.00,992,1500,1500,1500,992,992,992,992,992,992,992,992,101.90,19.39,-3.18,-4.69,-8.76,-0.36,-0.13,0.00,0.00
317.00,992,1500,1500,1500,992,992,992,992,992,992,992,992,101.79,19.58,6.59,-4.69,-8.76,-0.36,0.19,-0.06,0.00
318.00,992,1500,1500,1500,992,992,992,992,992,992,992,992,101.70,19.21,13.85,-4.69,-8.76,-0.36,0.13,-0.19,-0.06
319.00,992,1500,1500,1500,992,992,992,992,992,992,992,992,101.79,19.58,6.59,-4.69,-8.76,-0.36,0.19,0.06,-0.06
320.00,992,1500,1500,1500,992,992,992,992,992,992,992,992,101.79,19.58,6.59,-4.69,-8.76,-0.36,0.19,0.00,0.06
321.00,992,1500,1500,1500,992,992,992,992,992,992,992,992,101.95,19.58,-6.81,-4.69,-8.76,-0.36,0.25,0.13,0.06
322.00,992,1500,1500,1500,992,992,992,992,992,992,992,992,101.95,19.58,-6.81,-4.69,-8.76,-0.36,-0.13,0.06,0.00
323.00,992,1500,1500,1500,992,992,992,992,992,992,992,992,101.79,19.58,6.59,-4.69,-8.76,-0.36,-0.19,-0.06,0.00
324.01,992,1500,1500,1500,992,992,992,992,992,992,992,992,101.79,19.58,6.59,-4.69,-8.76,-0.36,0.13,-0.06,0.00
325.01,992,1500,1500,1500,992,992,992,992,992,992,992,992,101.74,19.39,10.22,-4.69,-8.76,-0.36,-0.19,-0.13,0.06
326.00,992,1500,1500,1500,992,992,992,992,992,992,992,992,101.95,19.58,-6.81,-4.69,-8.76,-0.36,0.00,-0.06,0.13
327.01,992,1500,1500,1500,992,992,992,992,992,992,992,992,101.58,19.39,23.63,-4.69,-8.76,-0.36,-0.19,-0.06,-0.06
328.01,992,1500,1500,1500,992,992,992,992,992,992,992,992,101.79,19.58,6.59,-4.69,-8.76,-0.36,0.06,0.13,0.06
329.01,992,1500,1500,1500,992,992,992,992,992,992,992,992,101.58,19.39,23.63,-4.69,-8.76,-0.36,0.06,0.00,0.06
330.01,992,1500,1500,1500,992,992,992,992,992,992,992,992,101.90,19.39,-3.18,-4.69,-8.76,-0.36,0.00,0.13,-0.06
331.01,992,1500,1500,1500,992,992,992,992,992,992,992,992,101.74,19.39,10.22,-4.69,-8.76,-0.36,0.13,-0.06,0.00
332.01,992,1500,1500,1500,992,992,992,992,992,992,992,992,101.74,19.39,10.22,-4.69,-8.76,-0.36,0.13,0.06,0.00
333.00,992,1500,1500,1500,992,992,992,992,992,992,992,992,101.90,19.39,-3.18,-4.69,-8.76,-0.36,0.19,0.06,0.06
334.01,992,1500,1500,1500,992,992,992,992,992,992,992,992,101.62,19.58,20.01,-4.69,-8.76,-0.36,0.00,0.06,0.00
335.01,992,1500,1500,1500,992,992,992,992,992,992,992,992,101.95,19.58,-6.81,-4.69,-8.76,-0.36,0.31,-0.13,0.06
336.01,992,1500,1500,1500,992,992,992,992,992,992,992,992,101.79,19.58,6.59,-4.69,-8.76,-0.36,0.00,-0.06,0.06
337.00,992,1500,1500,1500,992,992,992,992,992,992,992,992,101.58,19.39,23.63,-4.69,-8.76,-0.36,-0.13,-0.06,-0.06
338.00,992,1500,1500,1500,992,992,992,992,992,992,992,992,101.95,19.58,-6.81,-4.69,-8.76,-0.36,0.13,0.06,0.06
339.00,992,1500,1500,1500,992,992,992,992,992,992,992,992,101.62,19.58,20.01,-4.69,-8.76,-0.36,-0.06,0.13,0.00
340.00,992,1500,1500,1500,992,992,992,992,992,992,992,992,101.79,19.58,6.59,-4.69,-8.76,-0.36,0.13,0.19,0.19
341.00,992,1500,1500,1500,992,992,992,992,992,992,992,992,101.79,19.58,6.59,-4.69,-8.76,-0.36,0.00,0.00,0.00
342.00,992,1500,1500,1500,992,992,992,992,992,992,992,992,101.95,19.58,-6.81,-4.69,-8.76,-0.36,0.13,-0.06,0.00
343.00,992,1500,1500,1500,992,992,992,992,992,992,992,992,101.62,19.58,20.01,-4.69,-8.76,-0.36,0.00,0.06,0.00
344.00,992,1500,1500,1500,992,992,992,992,992,992,992,992,101.79,19.58,6.59,-4.69,-8.76,-0.36,0.06,0.00,0.00
345.00,992,1500,1500,1500,992,992,992,992,992,992,992,992,101.90,19.39,-3.18,-4.69,-8.76,-0.36,0.00,0.00,0.00
346.00,992,1500,1500,1500,992,992,992,992,992,992,992,992,101.74,19.39,10.22,-4.69,-8.76,-0.36,-0.06,0.25,-0.06
347.01,992,1500,1500,1500,992,992,992,992,992,992,992,992,101.86,19.21,0.45,-4.69,-8.76,-0.36,0.25,-0.06,-0.13
348.00,992,1500,1500,1500,992,992,992,992,992,992,992,992,101.79,19.58,6.59,-4.69,-8.76,-0.36,0.13,-0.06,0.00
349.00,992,1500,1500,1500,992,992,992,992,992,992,992,992,101.79,19.58,6.59,-4.69,-8.76,-0.36,0.13,0.00,0.06
350.00,992,1500,1500,1500,992,992,992,992,992,992,992,992,101.62,19.58,20.01,-4.69,-8.76,-0.36,0.13,-0.06,0.06
351.00,992,1500,1500,1500,992,992,992,992,992,992,992,992,101.79,19.58,6.59,-4.69,-8.76,-0.36,-0.13,0.06,0.00
352.00,992,1500,1500,1500,992,992,992,992,992,992,992,992,101.74,19.39,10.22,-4.69,-8.76,-0.36,0.06,-0.06,0.06
353.00,992,1500,1500,1500,992,992,992,992,992,992,992,992,101.79,19.58,6.59,-4.69,-8.76,-0.36,-0.06,0.06,0.00
354.00,992,1500,1500,1500,992,992,992,992,992,992,992,992,101.58,19.39,23.63,-4.69,-8.76,-0.36,0.00,-0.13,0.00
355.01,992,1500,1500,1500,992,992,992,992,992,992,992,992,101.62,19.58,20.01,-4.69,-8.76,-0.36,-0.06,0.00,0.00
356.00,992,1500,1500,1500,992,992,992,992,992,992,992,992,101.95,19.58,-6.81,-4.69,-8.76,-0.36,0.19,0.00,0.00
357.00,992,1500,1500,1500,992,992,992,992,992,992,992,992,101.79,19.58,6.59,-4.69,-8.76,-0.36,0.13,0.00,0.00
358.00,992,1500,1500,1500,992,992,992,992,992,992,992,992,101.95,19.58,-6.81,-4.69,-8.76,-0.36,0.00,0.00,0.06
359.01,992,1500,1500,1500,992,992,992,992,992,992,992,992,101.79,19.58,6.59,-4.69,-8.76,-0.36,-0.13,0.06,-0.06
360.01,992,1500,1500,1500,992,992,992,992,992,992,992,992,101.79,19.58,6.59,-4.69,-8.76,-0.36,-0.25,0.00,-0.06
361.01,992,1500,1500,1500,992,992,992,992,992,992,992,992,101.74,19.39,10.22,-4.69,-8.76,-0.36,0.06,0.06,0.00
362.01,992,1500,1500,1500,992,992,992,992,992,992,992,992,101.95,19.58,-6.81,-4.69,-8.76,-0.36,0.06,0.00,-0.06
363.01,992,1500,1500,1500,992,992,992,992,992,992,992,992,101.62,19.58,20.01,-4.69,-8.76,-0.36,-0.13,0.00,-0.06
364.01,992,1500,1500,1500,992,992,992,992,992,992,992,992,101.95,19.58,-6.81,-4.69,-8.76,-0.36,-0.19,-0.06,0.00
365.01,992,1500,1500,1500,992,992,992,992,992,992,992,992,101.95,19.58,-6.81,-4.69,-8.76,-0.36,0.25,0.00,0.00
366.01,992,1500,1500,1500,992,992,992,992,992,992,992,992,101.62,19.58,20.01,-4.69,-8.76,-0.36,-0.06,-0.06,0.06
367.01,992,1500,1500,1500,992,992,992,992,992,992,992,992,101.95,19.58,-6.81,-4.69,-8.76,-0.36,0.19,-0.06,-0.13
368.01,992,1500,1500,1500,992,992,992,992,992,992,992,992,101.95,19.58,-6.81,-4.69,-8.76,-0.36,-0.13,0.00,0.00
369.01,992,1500,1500,1500,992,992,992,992,992,992,992,992,101.90,19.39,-3.18,-4.69,-8.76,-0.36,0.00,0.00,-0.06
370.01,992,1500,1500,1500,992,992,992,992,992,992,992,992,101.95,19.58,-6.81,-4.69,-8.76,-0.36,0.00,0.06,0.13
371.01,992,1500,1500,1500,992,992,992,992,992,992,992,992,101.95,19.58,-6.81,-4.69,-8.76,-0.36,0.00,0.06,0.00
372.01,992,1500,1500,1500,992,992,992,992,992,992,992,992,101.79,19.58,6.59,-4.69,-8.76,-0.36,0.00,0.06,0.06
373.00,992,1500,1500,1500,992,992,992,992,992,992,992,992,101.74,19.39,10.22,-4.69,-8.76,-0.36,0.06,0.06,0.06
374.00,992,1500,1500,1500,992,992,992,992,992,992,992,992,101.74,19.39,10.22,-4.69,-8.76,-0.36,0.13,0.06,0.06
375.00,992,1500,1500,1500,992,992,992,992,992,992,992,992,101.79,19.58,6.59,-4.69,-8.76,-0.36,0.00,0.00,0.00
376.00,992,1500,1500,1500,992,992,992,992,992,992,992,992,101.90,19.39,-3.18,-4.69,-8.76,-0.36,0.00,-0.13,0.00
377.00,992,1500,1500,1500,992,992,992,992,992,992,992,992,101.79,19.58,6.59,-4.69,-8.76,-0.36,0.00,0.06,0.00
378.00,992,1500,1500,1500,992,992,992,992,992,992,992,992,101.95,19.58,-6.81,-4.69,-8.76,-0.36,0.06,0.00,0.06
379.00,992,1500,1500,1500,992,992,992,992,992,992,992,992,101.90,19.39,-3.18,-4.69,-8.76,-0.36,0.06,0.06,0.19
380.00,992,1500,1500,1500,992,992,992,992,992,992,992,992,101.79,19.58,6.59,-4.69,-8.76,-0.36,0.13,0.06,-0.06
381.00,992,1500,1500,1500,992,992,992,992,992,992,992,992,101.79,19.58,6.59,-4.69,-8.76,-0.36,0.19,-0.06,0.06
382.00,992,1500,1500,1500,992,992,992,992,992,992,992,992,101.54,19.21,27.27,-4.69,-8.76,-0.36,-0.06,0.06,0.06
383.00,992,1500,1500,1500,992,992,992,992,992,992,992,992,101.62,19.58,20.01,-4.69,-8.76,-0.36,0.06,0.06,0.00
384.00,992,1500,1500,1500,992,992,992,992,992,992,992,992,101.74,19.39,10.22,-4.69,-8.76,-0.36,-0.06,0.19,0.00
385.00,992,1500,1500,1500,992,992,992,992,992,992,992,992,101.79,19.58,6.59,-4.69,-8.76,-0.36,-0.06,0.13,0.13
386.00,992,1500,1500,1500,992,992,992,992,992,992,992,992,101.74,19.39,10.22,-4.69,-8.76,-0.36,0.00,0.00,0.00
387.00,992,1500,1500,1500,992,992,992,992,992,992,992,992,101.74,19.39,10.22,-4.69,-8.76,-0.36,0.06,0.00,-0.06
388.00,992,1500,1500,1500,992,992,992,992,992,992,992,992,101.74,19.39,10.22,-4.69,-8.76,-0.36,-0.13,-0.13,-0.19
389.00,992,1500,1500,1500,992,992,992,992,992,992,992,992,101.74,19.39,10.22,-4.69,-8.76,-0.36,0.13,-0.06,0.13
390.00,992,1500,1500,1500,992,992,992,992,992,992,992,992,101.79,19.58,6.59,-4.69,-8.76,-0.36,0.06,0.13,0.00
391.00,992,1500,1500,1500,992,992,992,992,992,992,992,992,101.58,19.39,23.63,-4.69,-8.76,-0.36,0.06,0.00,-0.06
392.00,992,1500,1500,1500,992,992,992,992,992,992,992,992,101.90,19.39,-3.18,-4.69,-8.76,-0.36,-0.19,0.00,0.00
393.01,992,1500,1500,1500,992,992,992,992,992,992,992,992,101.74,19.39,10.22,-4.69,-8.76,-0.36,0.00,-0.19,0.13
394.00,992,1500,1500,1500,992,992,992,992,992,992,992,992,101.79,19.58,6.59,-4.69,-8.76,-0.36,0.13,0.13,0.13
395.00,992,1500,1500,1500,992,992,992,992,992,992,992,992,101.90,19.39,-3.18,-4.69,-8.76,-0.36,0.19,0.00,0.00
396.00,992,1500,1500,1500,992,992,992,992,992,992,992,992,101.90,19.39,-3.18,-4.69,-8.76,-0.36,0.00,0.13,-0.06
397.00,992,1500,1500,1500,992,992,992,992,992,992,992,992,101.90,19.39,-3.18,-4.69,-8.76,-0.36,0.06,-0.06,0.00
398.00,992,1500,1500,1500,992,992,992,992,992,992,992,992,101.70,19.21,13.85,-4.69,-8.76,-0.36,0.00,0.13,0.06
399.00,992,1500,1500,1500,992,992,992,992,992,992,992,992,101.79,19.58,6.59,-4.69,-8.76,-0.36,0.00,0.00,0.00
400.00,992,1500,1500,1500,992,992,992,992,992,992,992,992,101.79,19.58,6.59,-4.69,-8.76,-0.36,-0.25,-0.06,0.06
401.00,992,1500,1500,1500,992,992,992,992,992,992,992,992,101.79,19.58,6.59,-4.69,-8.76,-0.36,-0.31,-0.13,0.00
402.01,992,1500,1500,1500,992,992,992,992,992,992,992,992,101.62,19.58,20.01,-4.69,-8.76,-0.36,-0.06,-0.19,-0.06
403.01,992,1500,1500,1500,992,992,992,992,992,992,992,992,101.90,19.39,-3.18,-4.69,-8.76,-0.36,-0.25,0.06,-0.06
404.01,992,1500,1500,1500,992,992,992,992,992,992,992,992,101.62,19.58,20.01,-4.69,-8.76,-0.36,0.06,0.06,0.00
405.01,992,1500,1500,1500,992,992,992,992,992,992,992,992,101.74,19.39,10.22,-4.69,-8.76,-0.36,-0.06,0.00,0.06
406.01,992,1500,1500,1500,992,992,992,992,992,992,992,992,101.74,19.39,10.22,-4.69,-8.76,-0.36,0.00,0.13,0.00
407.01,992,1500,1500,1500,992,992,992,992,992,992,992,992,101.58,19.39,23.63,-4.69,-8.76,-0.36,-0.31,0.00,0.13
408.01,992,1500,1500,1500,992,992,992,992,992,992,992,992,101.95,19.58,-6.81,-4.69,-8.76,-0.36,0.19,0.13,0.00
409.01,992,1500,1500,1500,992,992,992,992,992,992,992,992,101.62,19.58,20.01,-4.69,-8.76,-0.36,0.19,0.00,0.00
410.01,992,1500,1500,1500,992,992,992,992,992,992,992,992,101.79,19.58,6.59,-4.69,-8.76,-0.36,0.06,-0.06,0.06
411.01,992,1500,1500,1500,992,992,992,992,992,992,992,992,101.62,19.58,20.01,-4.69,-8.76,-0.36,0.00,0.00,-0.06
412.01,992,1500,1500,1500,992,992,992,992,992,992,992,992,101.90,19.39,-3.18,-4.69,-8.76,-0.36,-0.13,0.00,0.06
413.01,992,1500,1500,1500,992,992,992,992,992,992,992,992,101.62,19.58,20.01,-4.69,-8.76,-0.36,0.13,-0.06,0.00
414.01,992,1500,1500,1500,992,992,992,992,992,992,992,992,101.74,19.39,10.22,-4.69,-8.76,-0.36,0.00,-0.06,0.00
415.01,992,1500,1500,1500,992,992,992,992,992,992,992,992,101.79,19.58,6.59,-4.69,-8.76,-0.36,-0.19,0.00,0.06
416.01,992,1500,1500,1500,992,992,992,992,992,992,992,992,101.70,19.21,13.85,-4.69,-8.76,-0.36,0.06,0.06,0.00
417.01,992,1500,1500,1500,992,992,992,992,992,992,992,992,101.58,19.39,23.63,-4.69,-8.76,-0.36,0.00,0.13,-0.06
418.00,992,1500,1500,1500,992,992,992,992,992,992,992,992,101.79,19.58,6.59,-4.69,-8.76,-0.36,0.06,0.13,-0.06
419.00,992,1500,1500,1500,992,992,992,992,992,992,992,992,101.74,19.39,10.22,-4.69,-8.76,-0.36,-0.19,0.06,0.06
420.00,992,1500,1500,1500,992,992,992,992,992,992,992,992,101.58,19.39,23.63,-4.69,-8.76,-0.36,0.13,0.00,0.00
421.00,992,1500,1500,1500,992,992,992,992,992,992,992,992,101.74,19.39,10.22,-4.69,-8.76,-0.36,0.00,0.06,0.00
422.00,992,1500,1500,1500,992,992,992,992,992,992,992,992,101.74,19.39,10.22,-4.69,-8.76,-0.36,-0.06,-0.13,-0.06
423.00,992,1500,1500,1500,992,992,992,992,992,992,992,992,101.79,19.58,6.59,-4.69,-8.76,-0.36,-0.06,-0.06,-0.06
424.00,992,1500,1500,1500,992,992,992,992,992,992,992,992,101.62,19.58,20.01,-4.69,-8.76,-0.36,0.13,0.13,-0.06
425.00,992,1500,1500,1500,992,992,992,992,992,992,992,992,101.79,19.58,6.59,-4.69,-8.76,-0.36,0.00,-0.13,0.00
426.00,992,1500,1500,1500,992,992,992,992,992,992,992,992,101.58,19.39,23.63,-4.69,-8.76,-0.36,0.06,-0.13,0.00
427.00,992,1500,1500,1500,992,992,992,992,992,992,992,992,101.86,19.21,0.45,-4.69,-8.76,-0.36,0.00,-0.13,0.06
428.00,992,1500,1500,1500,992,992,992,992,992,992,992,992,101.90,19.39,-3.18,-4.69,-8.76,-0.36,-0.25,-0.19,-0.13
429.00,992,1500,1500,1500,992,992,992,992,992,992,992,992,101.90,19.39,-3.18,-4.69,-8.76,-0.36,-0.19,0.06,0.06
430.00,992,1500,1500,1500,992,992,992,992,992,992,992,992,101.62,19.58,20.01,-4.69,-8.76,-0.36,0.06,-0.13,0.00
431.00,992,1500,1500,1500,992,992,992,992,992,992,992,992,101.79,19.58,6.59,-4.69,-8.76,-0.36,0.00,-0.19,0.00
432.00,992,1500,1500,1500,992,992,992,992,992,992,992,992,101.90,19.39,-3.18,-4.69,-8.76,-0.36,0.00,0.00,-0.13
433.00,992,1500,1500,1500,992,992,992,992,992,992,992,992,101.79,19.58,6.59,-4.69,-8.76,-0.36,0.00,0.06,0.00
434.00,992,1500,1500,1500,992,992,992,992,992,992,992,992,101.86,19.21,0.45,-4.69,-8.76,-0.36,0.00,-0.13,0.00
435.00,992,1500,1500,1500,992,992,992,992,992,992,992,992,101.74,19.39,10.22,-4.69,-8.76,-0.36,0.00,-0.13,-0.06
436.00,992,1500,1500,1500,992,992,992,992,992,992,992,992,101.79,19.58,6.59,-4.69,-8.76,-0.36,0.13,0.06,0.00
437.00,992,1500,1500,1500,992,992,992,992,992,992,992,992,101.74,19.39,10.22,-4.69,-8.76,-0.36,-0.06,-0.06,0.06
438.00,992,1500,1500,1500,992,992,992,992,992,992,992,992,101.90,19.39,-3.18,-4.69,-8.76,-0.36,0.00,0.06,0.00
439.00,992,1500,1500,1500,992,992,992,992,992,992,992,992,101.74,19.39,10.22,-4.69,-8.76,-0.36,0.00,-0.06,0.06
440.00,992,1500,1500,1500,992,992,992,992,992,992,992,992,101.79,19.58,6.59,-4.69,-8.76,-0.36,-0.06,0.00,0.06
441.00,992,1500,1500,1500,992,992,992,992,992,992,992,992,101.79,19.58,6.59,-4.69,-8.76,-0.36,0.06,0.06,-0.13
442.00,992,1500,1500,1500,992,992,992,992,992,992,992,992,101.74,19.39,10.22,-4.69,-8.76,-0.36,-0.25,-0.06,0.06
443.00,992,1500,1500,1500,992,992,992,992,992,992,992,992,101.74,19.39,10.22,-4.69,-8.76,-0.36,0.00,0.06,-0.06
444.01,992,1500,1500,1500,992,992,992,992,992,992,992,992,101.74,19.39,10.22,-4.69,-8.76,-0.36,-0.13,-0.06,-0.06
445.01,992,1500,1500,1500,992,992,992,992,992,992,992,992,101.74,19.39,10.22,-4.69,-8.76,-0.36,0.06,0.00,0.00
446.01,992,1500,1500,1500,992,992,992,992,992,992,992,992,101.70,19.21,13.85,-4.69,-8.76,-0.36,0.13,0.00,-0.06
447.01,992,1500,1500,1500,992,992,992,992,992,992,992,992,101.86,19.21,0.45,-4.69,-8.76,-0.36,0.19,0.19,0.06
448.01,992,1500,1500,1500,992,992,992,992,992,992,992,992,101.70,19.21,13.85,-4.69,-8.76,-0.36,0.00,0.00,-0.19
449.01,992,1500,1500,1500,992,992,992,992,992,992,992,992,101.70,19.21,13.85,-4.69,-8.76,-0.36,0.06,-0.06,0.00
450.01,992,1500,1500,1500,992,992,992,992,992,992,992,992,101.74,19.39,10.22,-4.69,-8.76,-0.36,0.00,-0.06,0.06
451.01,992,1500,1500,1500,992,992,992,992,992,992,992,992,101.74,19.39,10.22,-4.69,-8.76,-0.36,-0.06,-0.06,0.00
452.01,992,1500,1500,1500,992,992,992,992,992,992,992,992,101.74,19.39,10.22,-4.69,-8.76,-0.36,-0.13,0.06,-0.06
453.01,992,1500,1500,1500,992,992,992,992,992,992,992,992,101.95,19.58,-6.81,-4.69,-8.76,-0.36,-0.06,0.06,0.06
454.01,992,1500,1500,1500,992,992,992,992,992,992,992,992,101.74,19.39,10.22,-4.69,-8.76,-0.36,0.13,0.06,0.00
455.01,992,1500,1500,1500,992,992,992,992,992,992,992,992,101.90,19.39,-3.18,-4.69,-8.76,-0.36,0.13,0.06,-0.06
456.01,992,1500,1500,1500,992,992,992,992,992,992,992,992,101.58,19.39,23.63,-4.69,-8.76,-0.36,-0.19,-0.19,0.06
457.01,992,1500,1500,1500,992,992,992,992,992,992,992,992,101.86,19.21,0.45,-4.69,-8.76,-0.36,0.00,0.00,0.06
458.01,992,1500,1500,1500,992,992,992,992,992,992,992,992,101.74,19.39,10.22,-4.69,-8.76,-0.36,0.00,0.06,0.00
459.01,992,1500,1500,1500,992,992,992,992,992,992,992,992,101.74,19.39,10.22,-4.69,-8.76,-0.36,0.00,-0.06,0.06
460.01,992,1500,1500,1500,992,992,992,992,992,992,992,992,101.70,19.21,13.85,-4.69,-8.76,-0.36,-0.06,0.06,0.06
461.00,992,1500,1500,1500,992,992,992,992,992,992,992,992,101.74,19.39,10.22,-4.69,-8.76,-0.36,-0.25,0.00,0.00
462.00,992,1500,1500,1500,992,992,992,992,992,992,992,992,101.58,19.39,23.63,-4.69,-8.76,-0.36,0.37,0.00,0.06
463.00,992,1500,1500,1500,992,992,992,992,992,992,992,992,101.74,19.39,10.22,-4.69,-8.76,-0.36,0.13,0.00,0.06
464.00,992,1500,1500,1500,992,992,992,992,992,992,992,992,101.79,19.58,6.59,-4.69,-8.76,-0.36,-0.13,-0.06,0.00
465.00,992,1500,1500,1500,992,992,992,992,992,992,992,992,101.62,19.58,20.01,-4.69,-8.76,-0.36,-0.19,-0.13,-0.06
466.00,992,1500,1500,1500,992,992,992,992,992,992,992,992,101.79,19.58,6.59,-4.69,-8.76,-0.36,-0.25,0.00,0.06
467.00,992,1500,1500,1500,992,992,992,992,992,992,992,992,101.74,19.39,10.22,-4.69,-8.76,-0.36,-0.13,0.00,-0.06
468.00,992,1500,1500,1500,992,992,992,992,992,992,992,992,101.74,19.39,10.22,-4.69,-8.76,-0.36,0.13,0.13,-0.13
469.00,992,1500,1500,1500,992,992,992,992,992,992,992,992,101.74,19.39,10.22,-4.69,-8.76,-0.36,-0.31,-0.06,-0.06
470.00,992,1500,1500,1500,992,992,992,992,992,992,992,992,101.86,19.21,0.45,-4.69,-8.76,-0.36,-0.25,0.06,-0.06
471.00,992,1500,1500,1500,992,992,992,992,992,992,992,992,101.74,19.39,10.22,-4.69,-8.76,-0.36,0.06,0.06,0.13
472.00,992,1500,1500,1500,992,992,992,992,992,992,992,992,101.79,19.58,6.59,-4.69,-8.76,-0.36,0.00,-0.13,0.00
473.00,992,1500,1500,1500,992,992,992,992,992,992,992,992,101.74,19.39,10.22,-4.69,-8.76,-0.36,0.06,0.06,-0.13
474.00,992,1500,1500,1500,992,992,992,992,992,992,992,992,101.95,19.58,-6.81,-4.69,-8.76,-0.36,-0.13,0.13,0.00
475.00,992,1500,1500,1500,992,992,992,992,992,992,992,992,101.74,19.39,10.22,-4.69,-8.76,-0.36,0.06,0.00,0.00
476.00,992,1500,1500,1500,992,992,992,992,992,992,992,992,101.62,19.58,20.01,-4.69,-8.76,-0.36,0.25,0.00,0.00
477.00,992,1500,1500,1500,992,992,992,992,992,992,992,992,101.79,19.58,6.59,-4.69,-8.76,-0.36,0.06,0.00,-0.13
478.00,992,1500,1500,1500,992,992,992,992,992,992,992,992,101.79,19.58,6.59,-4.69,-8.76,-0.36,0.06,0.00,-0.06
479.00,992,1500,1500,1500,992,992,992,992,992,992,992,992,101.74,19.39,10.22,-4.69,-8.76,-0.36,-0.06,0.00,0.00
480.00,992,1500,1500,1500,992,992,992,992,992,992,992,992,101.58,19.39,23.63,-4.69,-8.76,-0.36,0.00,-0.06,-0.06
481.00,992,1500,1500,1500,992,992,992,992,992,992,992,992,101.62,19.58,20.01,-4.69,-8.76,-0.36,0.06,0.06,0.00
482.00,992,1500,1500,1500,992,992,992,992,992,992,992,992,101.54,19.21,27.27,-4.69,-8.76,-0.36,-0.13,-0.06,0.00
483.00,992,1500,1500,1500,992,992,992,992,992,992,992,992,101.74,19.39,10.22,-4.69,-8.76,-0.36,0.06,0.25,0.00
484.00,992,1500,1500,1500,992,992,992,992,992,992,992,992,101.95,19.58,-6.81,-4.69,-8.76,-0.36,0.13,0.00,0.13
485.00,992,1500,1500,1500,992,992,992,992,992,992,992,992,101.90,19.39,-3.18,-4.69,-8.76,-0.36,-0.13,-0.06,0.00
486.00,992,1500,1500,1500,992,992,992,992,992,992,992,992,101.54,19.21,27.27,-4.69,-8.76,-0.36,0.00,-0.06,0.06
487.01,992,1500,1500,1500,992,992,992,992,992,992,992,992,101.95,19.58,-6.81,-4.69,-8.76,-0.36,0.13,-0.06,0.06
488.01,992,1500,1500,1500,992,992,992,992,992,992,992,992,101.95,19.58,-6.81,-4.69,-8.76,-0.36,-0.06,0.06,0.00
489.01,992,1500,1500,1500,992,992,992,992,992,992,992,992,101.58,19.39,23.63,-4.69,-8.76,-0.36,-0.06,0.19,0.00
490.01,992,1500,1500,1500,992,992,992,992,992,992,992,992,101.58,19.39,23.63,-4.69,-8.76,-0.36,-0.19,-0.06,0.00
491.01,992,1500,1500,1500,992,992,992,992,992,992,992,992,101.58,19.39,23.63,-4.69,-8.76,-0.36,0.00,-0.19,-0.06
492.01,992,1500,1500,1500,992,992,992,992,992,992,992,992,101.79,19.58,6.59,-4.69,-8.76,-0.36,0.06,-0.06,0.06
493.01,992,1500,1500,1500,992,992,992,992,992,992,992,992,101.74,19.39,10.22,-4.69,-8.76,-0.36,0.06,-0.06,0.00
494.01,992,1500,1500,1500,992,992,992,992,992,992,992,992,101.74,19.39,10.22,-4.69,-8.76,-0.36,-0.06,0.06,0.00
495.01,992,1500,1500,1500,992,992,992,992,992,992,992,992,101.90,19.39,-3.18,-4.69,-8.76,-0.36,0.19,-0.06,-0.06
496.01,992,1500,1500,1500,992,992,992,992,992,992,992,992,101.79,19.58,6.59,-4.69,-8.76,-0.36,0.37,0.00,0.06
497.01,992,1500,1500,1500,992,992,992,992,992,992,992,992,101.95,19.58,-6.81,-4.69,-8.76,-0.36,0.13,-0.13,0.00
498.01,992,1500,1500,1500,992,992,992,992,992,992,992,992,101.95,19.58,-6.81,-4.69,-8.76,-0.36,0.06,0.00,0.00
499.01,992,1500,1500,1500,992,992,992,992,992,992,992,992,101.54,19.21,27.27,-4.69,-8.76,-0.36,-0.13,0.06,-0.13
500.01,992,1500,1500,1500,992,992,992,992,992,992,992,992,101.95,19.58,-6.81,-4.69,-8.76,-0.36,-0.13,0.06,0.00
501.01,992,1500,1500,1500,992,992,992,992,992,992,992,992,101.95,19.58,-6.81,-4.69,-8.76,-0.36,-0.06,0.00,0.00
502.01,992,1500,1500,1500,992,992,992,992,992,992,992,992,101.79,19.58,6.59,-4.69,-8.76,-0.36,-0.13,0.00,-0.06
503.01,992,1500,1500,1500,992,992,992,992,992,992,992,992,101.95,19.58,-6.81,-4.69,-8.76,-0.36,0.19,0.19,0.00
504.01,992,1500,1500,1500,992,992,992,992,992,992,992,992,101.95,19.58,-6.81,-4.69,-8.76,-0.36,0.00,0.00,0.06
505.00,992,1500,1500,1500,992,992,992,992,992,992,992,992,101.62,19.58,20.01,-4.69,-8.76,-0.36,0.06,0.00,0.00
506.00,992,1500,1500,1500,992,992,992,992,992,992,992,992,101.95,19.58,-6.81,-4.69,-8.76,-0.36,0.00,-0.06,0.13
507.00,992,1500,1500,1500,992,992,992,992,992,992,992,992,101.79,19.58,6.59,-4.69,-8.76,-0.36,0.13,0.00,0.06
508.00,992,1500,1500,1500,992,992,992,992,992,992,992,992,101.70,19.21,13.85,-4.69,-8.76,-0.36,0.13,0.00,-0.06
509.00,992,1500,1500,1500,992,992,992,992,992,992,992,992,101.74,19.39,10.22,-4.69,-8.76,-0.36,0.00,0.19,-0.06
510.00,992,1500,1500,1500,992,992,992,992,992,992,992,992,101.74,19.39,10.22,-4.69,-8.76,-0.36,0.06,-0.06,0.06
511.00,992,1500,1500,1500,992,992,992,992,992,992,992,992,101.74,19.39,10.22,-4.69,-8.76,-0.36,-0.06,0.06,0.00
512.01,992,1500,1500,1500,992,992,992,992,992,992,992,992,101.74,19.39,10.22,-4.69,-8.76,-0.36,0.06,0.00,0.13
513.00,992,1500,1500,1500,992,992,992,992,992,992,992,992,101.79,19.58,6.59,-4.69,-8.76,-0.36,0.13,-0.06,0.06
514.00,992,1500,1500,1500,992,992,992,992,992,992,992,992,101.58,19.39,23.63,-4.69,-8.76,-0.36,0.13,0.13,0.00
515.00,992,1500,1500,1500,992,992,992,992,992,992,992,992,101.74,19.39,10.22,-4.69,-8.76,-0.36,0.19,-0.13,-0.06
516.00,992,1500,1500,1500,992,992,992,992,992,992,992,992,101.79,19.58,6.59,-4.69,-8.76,-0.36,0.06,0.06,-0.13
517.00,992,1500,1500,1500,992,992,992,992,992,992,992,992,101.90,19.39,-3.18,-4.69,-8.76,-0.36,0.13,-0.06,-0.06
518.00,992,1500,1500,1500,992,992,992,992,992,992,992,992,101.74,19.39,10.22,-4.69,-8.76,-0.36,0.06,-0.19,-0.06
519.00,992,1500,1500,1500,992,992,992,992,992,992,992,992,101.83,19.77,2.96,-4.69,-8.76,-0.36,0.06,-0.06,0.00
520.00,992,1500,1500,1500,992,992,992,992,992,992,992,992,101.79,19.58,6.59,-4.69,-8.76,-0.36,-0.13,0.00,0.13
521.00,992,1500,1500,1500,992,992,992,992,992,992,992,992,101.74,19.39,10.22,-4.69,-8.76,-0.36,0.06,0.00,0.13
522.00,992,1500,1500,1500,992,992,992,992,992,992,992,992,101.79,19.58,6.59,-4.69,-8.76,-0.36,0.06,0.00,0.00
523.00,992,1500,1500,1500,992,992,992,992,992,992,992,992,101.79,19.58,6.59,-4.69,-8.76,-0.36,0.00,0.06,0.06
524.00,992,1500,1500,1500,992,992,992,992,992,992,992,992,101.62,19.58,20.01,-4.69,-8.76,-0.36,0.19,0.13,0.06
525.00,992,1500,1500,1500,992,992,992,992,992,992,992,992,101.95,19.58,-6.81,-4.69,-8.76,-0.36,0.06,-0.06,0.06
526.00,992,1500,1500,1500,992,992,992,992,992,992,992,992,101.79,19.58,6.59,-4.69,-8.76,-0.36,0.06,0.00,-0.13
527.00,992,1500,1500,1500,992,992,992,992,992,992,992,992,101.62,19.58,20.01,-4.69,-8.76,-0.36,0.00,0.06,0.00
528.00,992,1500,1500,1500,992,992,992,992,992,992,992,992,101.74,19.39,10.22,-4.69,-8.76,-0.36,0.13,0.00,-0.06
529.00,992,1500,1500,1500,992,992,992,992,992,992,992,992,101.79,19.58,6.59,-4.69,-8.76,-0.36,-0.06,-0.19,0.13
530.00,992,1500,1500,1500,992,992,992,992,992,992,992,992,101.79,19.58,6.59,-4.69,-8.76,-0.36,0.06,0.00,-0.06
531.00,992,1500,1500,1500,992,992,992,992,992,992,992,992,101.95,19.58,-6.81,-4.69,-8.76,-0.36,-0.19,0.00,-0.06
532.01,992,1500,1500,1500,992,992,992,992,992,992,992,992,101.95,19.58,-6.81,-4.69,-8.76,-0.36,0.00,0.00,-0.13
533.00,992,1500,1500,1500,992,992,992,992,992,992,992,992,101.74,19.39,10.22,-4.69,-8.76,-0.36,0.06,0.13,-0.06
534.00,992,1500,1500,1500,992,992,992,992,992,992,992,992,101.74,19.39,10.22,-4.69,-8.76,-0.36,-0.13,0.00,0.00
535.00,992,1500,1500,1500,992,992,992,992,992,992,992,992,101.74,19.39,10.22,-4.69,-8.76,-0.36,0.00,0.13,0.00
536.00,992,1500,1500,1500,992,992,992,992,992,992,992,992,101.62,19.58,20.01,-4.69,-8.76,-0.36,-0.06,-0.13,-0.06
537.00,992,1500,1500,1500,992,992,992,992,992,992,992,992,101.58,19.39,23.63,-4.69,-8.76,-0.36,0.13,0.19,-0.06
538.00,992,1500,1500,1500,992,992,992,992,992,992,992,992,101.54,19.21,27.27,-4.69,-8.76,-0.36,0.31,0.06,0.06
539.00,992,1500,1500,1500,992,992,992,992,992,992,992,992,101.74,19.39,10.22,-4.69,-8.76,-0.36,-0.06,-0.06,-0.13
