Time (sec),RXIN 0 (us),RXIN 1 (us),RXIN 2 (us),RXIN 3 (us),RXIN 4 (us),RXIN 5 (us),PWMOUT 0 (us),PWMOUT 1 (us),PWMOUT 2 (us),PWMOUT 3 (us),PWMOUT 4 (us),PWMOUT 5 (us),Pressure (Pa),Temperature (C),Pressure Altitude (m),Roll (deg),Pitch (deg),Yaw (deg),Roll Rate (rad/s),Pitch Rate (rad/s),Yaw Rate (rad/s)
3.22,992,1500,1500,1500,992,992,992,992,992,992,992,992,1012.61,22.65,0.14,0,0,0,0,0,0
3.58,992,1500,1500,1500,992,992,992,992,992,992,992,992,1012.62,22.65,0.14,-4.57,-2.33,-0.09,0,0.13,0.06
3.94,992,1500,1500,1500,992,992,992,992,992,992,992,992,1012.59,22.64,0.14,-4.57,-2.33,-0.09,0,0.06,-0.06
4.29,992,1500,1500,1500,992,992,992,992,992,992,992,992,1012.67,22.65,0.14,-4.57,-2.33,-0.09,0.19,0,0.06
4.65,992,1500,1500,1500,992,992,992,992,992,992,992,992,1012.64,22.65,0.14,-4.57,-2.33,-0.09,0.06,-0.06,0.13
5.02,992,1500,1500,1500,992,992,992,992,992,992,992,992,1012.61,22.64,0.14,-4.57,-2.33,-0.09,0,0.13,0.06
6.01,992,1500,1500,1500,992,992,992,992,992,992,992,992,1012.6,22.64,0.19,-4.57,-2.33,-0.09,0,0.06,-0.06
7,992,1500,1500,1500,992,992,992,992,992,992,992,992,1012.64,22.64,-0.12,-4.57,-2.33,-0.09,0.13,0.19,0
8,992,1500,1500,1500,992,992,992,992,992,992,992,992,1012.63,22.65,-0.02,-4.57,-2.33,-0.09,0.06,0,0.13
9,992,1500,1500,1500,992,992,992,992,992,992,992,992,1012.61,22.64,0.19,-4.57,-2.33,-0.09,0,-0.19,0.06
10,992,1500,1500,1500,992,992,992,992,992,992,992,992,1012.62,22.65,0.08,-4.57,-2.33,-0.09,0.19,0.13,0.13
11,992,1500,1500,1500,992,992,992,992,992,992,992,992,1012.63,22.65,-0.02,-4.57,-2.33,-0.09,0,0.06,-0.06
12,992,1500,1500,1500,992,992,992,992,992,992,992,992,1012.62,22.66,0.03,-4.57,-2.33,-0.09,-0.06,0.06,0.06
13,992,1500,1500,1500,992,992,992,992,992,992,992,992,1012.65,22.65,-0.19,-4.57,-2.33,-0.09,0.06,-0.06,0.06
14.01,992,1500,1500,1500,992,992,992,992,992,992,992,992,1012.62,22.66,0.09,-4.57,-2.33,-0.09,0,0,0
15,992,1500,1500,1500,992,992,992,992,992,992,992,992,1012.62,22.65,0.03,-4.57,-2.33,-0.09,-0.13,-0.19,0.06
16.01,992,1500,1500,1500,992,992,992,992,992,992,992,992,1012.63,22.66,-0.03,-4.57,-2.33,-0.09,-0.06,-0.06,-0.13
17,992,1500,1500,1500,992,992,992,992,992,992,992,992,1012.6,22.66,0.26,-4.57,-2.33,-0.09,-0.06,-0.06,0
18,992,1500,1500,1500,992,992,992,992,992,992,992,992,1012.58,22.66,0.42,-4.57,-2.33,-0.09,0.06,-0.06,0.06
19,992,1500,1500,1500,992,992,992,992,992,992,992,992,1012.6,22.66,0.21,-4.57,-2.33,-0.09,-0.06,0,-0.06
20,992,1500,1500,1500,992,992,992,992,992,992,992,992,1012.57,22.67,0.48,-4.57,-2.33,-0.09,0.06,0.06,-0.06
21,992,1500,1500,1500,992,992,992,992,992,992,992,992,1012.58,22.67,0.39,-4.57,-2.33,-0.09,0,-0.19,-0.06
22,992,1500,1500,1500,992,992,992,992,992,992,992,992,1012.59,22.67,0.34,-4.57,-2.33,-0.09,-0.13,-0.13,0.06
23,992,1500,1500,1500,992,992,992,992,992,992,992,992,1012.6,22.67,0.2,-4.57,-2.33,-0.09,0.19,0.06,0.06
24,992,1500,1500,1500,992,992,992,992,992,992,992,992,1012.59,22.67,0.32,-4.57,-2.33,-0.09,0.06,0,0.06
25,992,1500,1500,1500,992,992,992,992,992,992,992,992,1012.57,22.67,0.5,-4.57,-2.33,-0.09,0,-0.06,-0.06
26,992,1500,1500,1500,992,992,992,992,992,992,992,992,1012.6,22.67,0.19,-4.57,-2.33,-0.09,0.06,0,0
27,992,1500,1500,1500,992,992,992,992,992,992,992,992,1012.63,22.67,0,-4.57,-2.33,-0.09,-0.06,0,-0.06
28,992,1500,1500,1500,992,992,992,992,992,992,992,992,1012.6,22.66,0.21,-4.57,-2.33,-0.09,0.06,0,0
29,992,1500,1500,1500,992,992,992,992,992,992,992,992,1012.63,22.67,-0.03,-4.57,-2.33,-0.09,0,0.06,-0.13
30,992,1500,1500,1500,992,992,992,992,992,992,992,992,1012.59,22.67,0.34,-4.57,-2.33,-0.09,-0.06,-0.06,0
31.01,992,1500,1500,1500,992,992,992,992,992,992,992,992,1012.57,22.66,0.48,-4.57,-2.33,-0.09,0.19,0.25,0.06
32,992,1500,1500,1500,992,992,992,992,992,992,992,992,1012.59,22.67,0.32,-4.57,-2.33,-0.09,0,-0.13,0
33,992,1500,1500,1500,992,992,992,992,992,992,992,992,1012.56,22.66,0.54,-4.57,-2.33,-0.09,0.13,0.19,0.13
34,992,1500,1500,1500,992,992,992,992,992,992,992,992,1012.59,22.66,0.31,-4.57,-2.33,-0.09,-0.13,0,0.06
35,992,1500,1500,1500,992,992,992,992,992,992,992,992,1012.61,22.67,0.15,-4.57,-2.33,-0.09,0,0,0
36,992,1500,1500,1500,992,992,992,992,992,992,992,992,1012.61,22.66,0.11,-4.57,-2.33,-0.09,0.06,0,0.06
37,992,1500,1500,1500,992,992,992,992,992,992,992,992,1012.61,22.66,0.17,-4.57,-2.33,-0.09,0,-0.13,0.13
38,992,1500,1500,1500,992,992,992,992,992,992,992,992,1012.55,22.65,0.62,-4.57,-2.33,-0.09,-0.13,0,0.06
39,992,1500,1500,1500,992,992,992,992,992,992,992,992,1012.5,22.66,1.03,-4.57,-2.33,-0.09,0,0.13,0.13
40,992,1500,1500,1500,992,992,992,992,992,992,992,992,1012.56,22.67,0.57,-4.57,-2.33,-0.09,0.06,0.06,-0.06
41,992,1500,1500,1500,992,992,992,992,992,992,992,992,1012.55,22.66,0.68,-4.57,-2.33,-0.09,-0.19,-0.06,0
42,992,1500,1500,1500,992,992,992,992,992,992,992,992,1012.54,22.65,0.72,-4.57,-2.33,-0.09,-0.06,0,-0.06
43,992,1500,1500,1500,992,992,992,992,992,992,992,992,1012.54,22.65,0.75,-4.57,-2.33,-0.09,-0.13,0,0.06
44,992,1500,1500,1500,992,992,992,992,992,992,992,992,1012.56,22.65,0.57,-4.57,-2.33,-0.09,0.06,-0.06,-0.06
45,992,1500,1500,1500,992,992,992,992,992,992,992,992,1012.6,22.66,0.24,-4.57,-2.33,-0.09,-0.06,0.06,0
46,992,1500,1500,1500,992,992,992,992,992,992,992,992,1012.6,22.67,0.2,-4.57,-2.33,-0.09,0.13,0.06,0.06
47,992,1500,1500,1500,992,992,992,992,992,992,992,992,1012.58,22.66,0.41,-4.57,-2.33,-0.09,0.19,0,0
48.01,992,1500,1500,1500,992,992,992,992,992,992,992,992,1012.58,22.65,0.41,-4.57,-2.33,-0.09,-0.19,0.06,0.06
49.01,992,1500,1500,1500,992,992,992,992,992,992,992,992,1012.6,22.66,0.25,-4.57,-2.33,-0.09,0.19,-0.06,0.13
50.01,992,1500,1500,1500,992,992,992,992,992,992,992,992,1012.61,22.65,0.18,-4.57,-2.33,-0.09,0.25,-0.06,0.06
51.01,992,1500,1500,1500,992,992,992,992,992,992,992,992,1012.61,22.66,0.15,-4.57,-2.33,-0.09,0,-0.06,0
52,992,1500,1500,1500,992,992,992,992,992,992,992,992,1012.62,22.65,0.02,-4.57,-2.33,-0.09,0.13,0.06,0
53.01,992,1500,1500,1500,992,992,992,992,992,992,992,992,1012.65,22.65,-0.2,-4.57,-2.33,-0.09,0.06,-0.06,0
54,992,1500,1500,1500,992,992,992,992,992,992,992,992,1012.6,22.66,0.23,-4.57,-2.33,-0.09,0.31,0.19,0.06
55.01,992,1500,1500,1500,992,992,992,992,992,992,992,992,1012.59,22.66,0.35,-4.57,-2.33,-0.09,-0.25,-0.06,0
56.01,992,1500,1500,1500,992,992,992,992,992,992,992,992,1012.59,22.66,0.32,-4.57,-2.33,-0.09,-0.06,0.06,0
57,992,1500,1500,1500,992,992,992,992,992,992,992,992,1012.61,22.67,0.11,-4.57,-2.33,-0.09,0.25,0.06,0
58.01,992,1500,1500,1500,992,992,992,992,992,992,992,992,1012.61,22.67,0.18,-4.57,-2.33,-0.09,-0.06,0.06,0
59.01,992,1500,1500,1500,992,992,992,992,992,992,992,992,1012.61,22.67,0.13,-4.57,-2.33,-0.09,-0.13,0.13,0.06
60,992,1500,1500,1500,992,992,992,992,992,992,992,992,1012.6,22.67,0.27,-4.57,-2.33,-0.09,-0.06,0.06,0.06
61,992,1500,1500,1500,992,992,992,992,992,992,992,992,1012.58,22.67,0.39,-4.57,-2.33,-0.09,0,0,-0.06
62,992,1500,1500,1500,992,992,992,992,992,992,992,992,1012.55,22.67,0.68,-4.57,-2.33,-0.09,-0.06,0.13,-0.06
63,992,1500,1500,1500,992,992,992,992,992,992,992,992,1012.58,22.67,0.42,-4.57,-2.33,-0.09,0.25,0,0.13
64,992,1500,1500,1500,992,992,992,992,992,992,992,992,1012.58,22.66,0.41,-4.57,-2.33,-0.09,0.06,0.06,0
65.01,992,1500,1500,1500,992,992,992,992,992,992,992,992,1012.6,22.67,0.2,-4.57,-2.33,-0.09,-0.19,0,0.06
66,992,1500,1500,1500,992,992,992,992,992,992,992,992,1012.6,22.67,0.27,-4.57,-2.33,-0.09,0.19,-0.06,0
67.01,992,1500,1500,1500,992,992,992,992,992,992,992,992,1012.61,22.67,0.17,-4.57,-2.33,-0.09,0.06,-0.06,-0.13
68.01,992,1500,1500,1500,992,992,992,992,992,992,992,992,1012.6,22.67,0.22,-4.57,-2.33,-0.09,-0.06,0,0.06
69,992,1500,1500,1500,992,992,992,992,992,992,992,992,1012.58,22.67,0.36,-4.57,-2.33,-0.09,-0.13,0.19,0
70,992,1500,1500,1500,992,992,992,992,992,992,992,992,1012.59,22.67,0.34,-4.57,-2.33,-0.09,-0.06,0,0
71,992,1500,1500,1500,992,992,992,992,992,992,992,992,1012.62,22.67,0.08,-4.57,-2.33,-0.09,-0.06,0.13,0.06
72,992,1500,1500,1500,992,992,992,992,992,992,992,992,1012.58,22.67,0.38,-4.57,-2.33,-0.09,0.25,0.13,0.06
73,992,1500,1500,1500,992,992,992,992,992,992,992,992,1012.57,22.67,0.46,-4.57,-2.33,-0.09,0.06,0.06,0
74,992,1500,1500,1500,992,992,992,992,992,992,992,992,1012.59,22.68,0.3,-4.57,-2.33,-0.09,0.06,0,0.06
75,992,1500,1500,1500,992,992,992,992,992,992,992,992,1012.57,22.67,0.52,-4.57,-2.33,-0.09,0.13,0,-0.06
76,992,1500,1500,1500,992,992,992,992,992,992,992,992,1012.59,22.67,0.32,-4.57,-2.33,-0.09,0.06,0.06,0.06
77,992,1500,1500,1500,992,992,992,992,992,992,992,992,1012.59,22.68,0.29,-4.57,-2.33,-0.09,0,0,0.06
78,992,1500,1500,1500,992,992,992,992,992,992,992,992,1012.62,22.68,0.07,-4.57,-2.33,-0.09,-0.13,0,0.06
79,992,1500,1500,1500,992,992,992,992,992,992,992,992,1012.59,22.67,0.31,-4.57,-2.33,-0.09,-0.13,-0.06,-0.06
80,992,1500,1500,1500,992,992,992,992,992,992,992,992,1012.56,22.68,0.57,-4.57,-2.33,-0.09,0.06,0.13,-0.06
81,992,1500,1500,1500,992,992,992,992,992,992,992,992,1012.58,22.68,0.43,-4.57,-2.33,-0.09,0.19,-0.13,0
82,992,1500,1500,1500,992,992,992,992,992,992,992,992,1012.57,22.68,0.51,-4.57,-2.33,-0.09,-0.13,0,0.19
83,992,1500,1500,1500,992,992,992,992,992,992,992,992,1012.59,22.68,0.34,-4.57,-2.33,-0.09,-0.19,0,-0.13
84.01,992,1500,1500,1500,992,992,992,992,992,992,992,992,1012.59,22.68,0.3,-4.57,-2.33,-0.09,0,0,-0.06
85,992,1500,1500,1500,992,992,992,992,992,992,992,992,1012.59,22.68,0.3,-4.57,-2.33,-0.09,0.06,0.06,-0.06
86.01,992,1500,1500,1500,992,992,992,992,992,992,992,992,1012.58,22.68,0.43,-4.57,-2.33,-0.09,-0.06,0.13,-0.06
87,992,1500,1500,1500,992,992,992,992,992,992,992,992,1012.6,22.69,0.2,-4.57,-2.33,-0.09,-0.06,0,0
88.01,992,1500,1500,1500,992,992,992,992,992,992,992,992,1012.58,22.69,0.43,-4.57,-2.33,-0.09,0.13,0,-0.06
89,992,1500,1500,1500,992,992,992,992,992,992,992,992,1012.58,22.68,0.38,-4.57,-2.33,-0.09,0.13,0,0
90,992,1500,1500,1500,992,992,992,992,992,992,992,992,1012.59,22.68,0.29,-4.57,-2.33,-0.09,0.13,0.06,0.06
91,992,1500,1500,1500,992,992,992,992,992,992,992,992,1012.62,22.68,0.06,-4.57,-2.33,-0.09,-0.06,-0.06,0
92,992,1500,1500,1500,992,992,992,992,992,992,992,992,1012.57,22.69,0.47,-4.57,-2.33,-0.09,0,-0.06,0
93,992,1500,1500,1500,992,992,992,992,992,992,992,992,1012.62,22.7,0.02,-4.57,-2.33,-0.09,-0.06,0.13,0.06
94,992,1500,1500,1500,992,992,992,992,992,992,992,992,1012.61,22.69,0.17,-4.57,-2.33,-0.09,0.06,0.06,-0.06
95,992,1500,1500,1500,992,992,992,992,992,992,992,992,1012.61,22.7,0.16,-4.57,-2.33,-0.09,0.06,0,0
96,992,1500,1500,1500,992,992,992,992,992,992,992,992,1012.59,22.7,0.28,-4.57,-2.33,-0.09,-0.06,0,0.13
97,992,1500,1500,1500,992,992,992,992,992,992,992,992,1012.58,22.7,0.39,-4.57,-2.33,-0.09,-0.06,0.06,0.06
98,992,1500,1500,1500,992,992,992,992,992,992,992,992,1012.62,22.7,0.06,-4.57,-2.33,-0.09,0.13,0.06,0
99,992,1500,1500,1500,992,992,992,992,992,992,992,992,1012.61,22.7,0.13,-4.57,-2.33,-0.09,0,0,0.06
100,992,1500,1500,1500,992,992,992,992,992,992,992,992,1012.61,22.7,0.12,-4.57,-2.33,-0.09,-0.06,0.06,-0.06
101,992,1500,1500,1500,992,992,992,992,992,992,992,992,1012.58,22.7,0.38,-4.57,-2.33,-0.09,0.13,0.06,0
102,992,1500,1500,1500,992,992,992,992,992,992,992,992,1012.6,22.7,0.21,-4.57,-2.33,-0.09,-0.13,0,-0.06
103.01,992,1500,1500,1500,992,992,992,992,992,992,992,992,1012.61,22.7,0.14,-4.57,-2.33,-0.09,-0.19,0,-0.06
104,992,1500,1500,1500,992,992,992,992,992,992,992,992,1012.59,22.7,0.34,-4.57,-2.33,-0.09,-0.06,0,-0.06
105.01,992,1500,1500,1500,992,992,992,992,992,992,992,992,1012.63,22.7,0.02,-4.57,-2.33,-0.09,0.13,0.06,0
106.01,992,1500,1500,1500,992,992,992,992,992,992,992,992,1012.61,22.69,0.17,-4.57,-2.33,-0.09,-0.13,0.06,0.13
107.01,992,1500,1500,1500,992,992,992,992,992,992,992,992,1012.58,22.69,0.41,-4.57,-2.33,-0.09,0.25,0,0.13
108.01,992,1500,1500,1500,992,992,992,992,992,992,992,992,1012.6,22.69,0.21,-4.57,-2.33,-0.09,-0.13,-0.06,0.13
109.01,992,1500,1500,1500,992,992,992,992,992,992,992,992,1012.63,22.7,-0.04,-4.57,-2.33,-0.09,0,0,0.06
110.01,992,1500,1500,1500,992,992,992,992,992,992,992,992,1012.61,22.69,0.18,-4.57,-2.33,-0.09,0.06,0,0.06
111.01,992,1500,1500,1500,992,992,992,992,992,992,992,992,1012.61,22.69,0.12,-4.57,-2.33,-0.09,-0.13,-0.13,0.06
112.01,992,1500,1500,1500,992,992,992,992,992,992,992,992,1012.64,22.7,-0.11,-4.57,-2.33,-0.09,0.19,0.13,0.13
113.01,992,1500,1500,1500,992,992,992,992,992,992,992,992,1012.63,22.7,0.01,-4.57,-2.33,-0.09,0,0.06,-0.06
114.01,992,1500,1500,1500,992,992,992,992,992,992,992,992,1012.61,22.7,0.17,-4.57,-2.33,-0.09,0.19,0.13,-0.06
115.01,992,1500,1500,1500,992,992,992,992,992,992,992,992,1012.59,22.7,0.28,-4.57,-2.33,-0.09,0.06,0,0.06
116.01,992,1500,1500,1500,992,992,992,992,992,992,992,992,1012.58,22.7,0.36,-4.57,-2.33,-0.09,-0.06,0,0
117.01,992,1500,1500,1500,992,992,992,992,992,992,992,992,1012.62,22.7,0.02,-4.57,-2.33,-0.09,0.13,0.13,0.06
118,992,1500,1500,1500,992,992,992,992,992,992,992,992,1012.61,22.7,0.11,-4.57,-2.33,-0.09,0,0.06,0
119,992,1500,1500,1500,992,992,992,992,992,992,992,992,1012.62,22.7,0.1,-4.57,-2.33,-0.09,-0.06,0.13,-0.06
120,992,1500,1500,1500,992,992,992,992,992,992,992,992,1012.61,22.7,0.11,-4.57,-2.33,-0.09,0,0,0.06
121,992,1500,1500,1500,992,992,992,992,992,992,992,992,1012.6,22.7,0.25,-4.57,-2.33,-0.09,-0.13,0.06,0
122,992,1500,1500,1500,992,992,992,992,992,992,992,992,1012.6,22.7,0.26,-4.57,-2.33,-0.09,-0.13,-0.06,-0.06
123,992,1500,1500,1500,992,992,992,992,992,992,992,992,1012.61,22.7,0.17,-4.57,-2.33,-0.09,0.19,-0.13,0.06
124,992,1500,1500,1500,992,992,992,992,992,992,992,992,1012.6,22.7,0.23,-4.57,-2.33,-0.09,0.06,0.13,0
125,992,1500,1500,1500,992,992,992,992,992,992,992,992,1012.62,22.7,0.03,-4.57,-2.33,-0.09,-0.25,0.06,0
126,992,1500,1500,1500,992,992,992,992,992,992,992,992,1012.56,22.7,0.58,-4.57,-2.33,-0.09,0.06,-0.06,-0.06
127,992,1500,1500,1500,992,992,992,992,992,992,992,992,1012.58,22.71,0.39,-4.57,-2.33,-0.09,0,0.19,0
128,992,1500,1500,1500,992,992,992,992,992,992,992,992,1012.53,22.71,0.8,-4.57,-2.33,-0.09,-0.13,-0.06,-0.06
129,992,1500,1500,1500,992,992,992,992,992,992,992,992,1012.58,22.7,0.44,-4.57,-2.33,-0.09,0,0,0.06
130,992,1500,1500,1500,992,992,992,992,992,992,992,992,1012.57,22.71,0.5,-4.57,-2.33,-0.09,-0.06,0.06,0
131,992,1500,1500,1500,992,992,992,992,992,992,992,992,1012.57,22.7,0.51,-4.57,-2.33,-0.09,-0.06,0,-0.06
132,992,1500,1500,1500,992,992,992,992,992,992,992,992,1012.65,22.71,-0.18,-4.57,-2.33,-0.09,0.06,0.13,-0.06
133,992,1500,1500,1500,992,992,992,992,992,992,992,992,1012.63,22.71,-0.04,-4.57,-2.33,-0.09,0.13,0,-0.06
134,992,1500,1500,1500,992,992,992,992,992,992,992,992,1012.66,22.71,-0.28,-4.57,-2.33,-0.09,-0.06,0,0.13
135,992,1500,1500,1500,992,992,992,992,992,992,992,992,1012.6,22.71,0.25,-4.57,-2.33,-0.09,0.13,0,0.06
136,992,1500,1500,1500,992,992,992,992,992,992,992,992,1012.58,22.71,0.39,-4.57,-2.33,-0.09,-0.06,-0.13,0.06
137,992,1500,1500,1500,992,992,992,992,992,992,992,992,1012.61,22.7,0.17,-4.57,-2.33,-0.09,0.06,0,0.06
138,992,1500,1500,1500,992,992,992,992,992,992,992,992,1012.61,22.71,0.18,-4.57,-2.33,-0.09,0,0.06,0
139,992,1500,1500,1500,992,992,992,992,992,992,992,992,1012.64,22.71,-0.07,-4.57,-2.33,-0.09,-0.06,0,-0.13
140,992,1500,1500,1500,992,992,992,992,992,992,992,992,1012.62,22.71,0.1,-4.57,-2.33,-0.09,-0.13,-0.06,-0.06
141,992,1500,1500,1500,992,992,992,992,992,992,992,992,1012.62,22.71,0.07,-4.57,-2.33,-0.09,0,-0.13,0
142,992,1500,1500,1500,992,992,992,992,992,992,992,992,1012.62,22.71,0.1,-4.57,-2.33,-0.09,-0.06,0.06,-0.13
143,992,1500,1500,1500,992,992,992,992,992,992,992,992,1012.64,22.71,-0.1,-4.57,-2.33,-0.09,0,0.06,0.06
144,992,1500,1500,1500,992,992,992,992,992,992,992,992,1012.61,22.71,0.12,-4.57,-2.33,-0.09,-0.19,-0.13,-0.06
145,992,1500,1500,1500,992,992,992,992,992,992,992,992,1012.57,22.71,0.49,-4.57,-2.33,-0.09,-0.13,0.13,0.06
146.01,992,1500,1500,1500,992,992,992,992,992,992,992,992,1012.6,22.71,0.27,-4.57,-2.33,-0.09,0.25,0,0.19
147.01,992,1500,1500,1500,992,992,992,992,992,992,992,992,1012.55,22.71,0.65,-4.57,-2.33,-0.09,0.06,-0.06,0.06
148.01,992,1500,1500,1500,992,992,992,992,992,992,992,992,1012.59,22.71,0.32,-4.57,-2.33,-0.09,-0.06,0.06,0.13
149.01,992,1500,1500,1500,992,992,992,992,992,992,992,992,1012.59,22.71,0.35,-4.57,-2.33,-0.09,0,0,-0.06
150.01,992,1500,1500,1500,992,992,992,992,992,992,992,992,1012.56,22.7,0.59,-4.57,-2.33,-0.09,0.06,-0.06,-0.06
151.01,992,1500,1500,1500,992,992,992,992,992,992,992,992,1012.64,22.71,-0.09,-4.57,-2.33,-0.09,0.06,0,0
152,992,1500,1500,1500,992,992,992,992,992,992,992,992,1012.63,22.71,-0.03,-4.57,-2.33,-0.09,0.06,-0.13,0.06
153.01,992,1500,1500,1500,992,992,992,992,992,992,992,992,1012.65,22.71,-0.2,-4.57,-2.33,-0.09,0.06,0,0.06
154,992,1500,1500,1500,992,992,992,992,992,992,992,992,1012.7,22.71,-0.6,-4.57,-2.33,-0.09,-0.19,0.06,0.06
155,992,1500,1500,1500,992,992,992,992,992,992,992,992,1012.67,22.71,-0.33,-4.57,-2.33,-0.09,-0.13,0,-0.13
156,992,1500,1500,1500,992,992,992,992,992,992,992,992,1012.65,22.72,-0.19,-4.57,-2.33,-0.09,-0.06,-0.19,-0.13
157,992,1500,1500,1500,992,992,992,992,992,992,992,992,1012.62,22.71,0.07,-4.57,-2.33,-0.09,0,0,-0.13
158,992,1500,1500,1500,992,992,992,992,992,992,992,992,1012.65,22.72,-0.18,-4.57,-2.33,-0.09,0,-0.13,0.06
159,992,1500,1500,1500,992,992,992,992,992,992,992,992,1012.64,22.71,-0.14,-4.57,-2.33,-0.09,-0.06,-0.06,-0.13
160,992,1500,1500,1500,992,992,992,992,992,992,992,992,1012.65,22.72,-0.16,-4.57,-2.33,-0.09,0.06,-0.06,0
161,992,1500,1500,1500,992,992,992,992,992,992,992,992,1012.63,22.71,-0.04,-4.57,-2.33,-0.09,-0.13,0.06,0
162,992,1500,1500,1500,992,992,992,992,992,992,992,992,1012.64,22.71,-0.1,-4.57,-2.33,-0.09,-0.13,-0.25,0
163,992,1500,1500,1500,992,992,992,992,992,992,992,992,1012.64,22.72,-0.14,-4.57,-2.33,-0.09,-0.25,0,0
164,992,1500,1500,1500,992,992,992,992,992,992,992,992,1012.67,22.72,-0.34,-4.57,-2.33,-0.09,0.06,0.06,0
165,992,1500,1500,1500,992,992,992,992,992,992,992,992,1012.69,22.72,-0.48,-4.57,-2.33,-0.09,-0.13,0.13,0.06
166,992,1500,1500,1500,992,992,992,992,992,992,992,992,1012.65,22.72,-0.17,-4.57,-2.33,-0.09,-0.13,0,0.06
167,992,1500,1500,1500,992,992,992,992,992,992,992,992,1012.63,22.73,-0.05,-4.57,-2.33,-0.09,-0.25,0,0
168,992,1500,1500,1500,992,992,992,992,992,992,992,992,1012.6,22.72,0.24,-4.57,-2.33,-0.09,0,0.06,-0.06
169,992,1500,1500,1500,992,992,992,992,992,992,992,992,1012.61,22.72,0.13,-4.57,-2.33,-0.09,0,0.06,0.13
170,992,1500,1500,1500,992,992,992,992,992,992,992,992,1012.64,22.72,-0.13,-4.57,-2.33,-0.09,-0.06,0.06,0.13
171,992,1500,1500,1500,992,992,992,992,992,992,992,992,1012.63,22.72,-0.02,-4.57,-2.33,-0.09,0.19,0,0
172,992,1500,1500,1500,992,992,992,992,992,992,992,992,1012.66,22.72,-0.27,-4.57,-2.33,-0.09,0,0.06,-0.06
173,992,1500,1500,1500,992,992,992,992,992,992,992,992,1012.63,22.72,0.02,-4.57,-2.33,-0.09,0.06,0,0
174,992,1500,1500,1500,992,992,992,992,992,992,992,992,1012.66,22.73,-0.25,-4.57,-2.33,-0.09,0.13,0.06,0.06
175,992,1500,1500,1500,992,992,992,992,992,992,992,992,1012.65,22.72,-0.21,-4.57,-2.33,-0.09,0,0,0.06
176,992,1500,1500,1500,992,992,992,992,992,992,992,992,1012.61,22.73,0.17,-4.57,-2.33,-0.09,-0.25,-0.06,0.06
177,992,1500,1500,1500,992,992,992,992,992,992,992,992,1012.59,22.72,0.3,-4.57,-2.33,-0.09,-0.31,-0.19,0.06
178,992,1500,1500,1500,992,992,992,992,992,992,992,992,1012.61,22.72,0.11,-4.57,-2.33,-0.09,0.19,0.06,0.06
179,992,1500,1500,1500,992,992,992,992,992,992,992,992,1012.63,22.73,0,-4.57,-2.33,-0.09,0,0.06,0
180,992,1500,1500,1500,992,992,992,992,992,992,992,992,1012.64,22.73,-0.08,-4.57,-2.33,-0.09,0,-0.13,0.06
181,992,1500,1500,1500,992,992,992,992,992,992,992,992,1012.63,22.73,0,-4.57,-2.33,-0.09,-0.06,-0.06,-0.06
182,992,1500,1500,1500,992,992,992,992,992,992,992,992,1012.62,22.72,0.07,-4.57,-2.33,-0.09,0.13,0.06,0
183,992,1500,1500,1500,992,992,992,992,992,992,992,992,1012.64,22.73,-0.11,-4.57,-2.33,-0.09,-0.13,-0.06,-0.06
184,992,1500,1500,1500,992,992,992,992,992,992,992,992,1012.63,22.73,-0.03,-4.57,-2.33,-0.09,0,-0.06,0.13
185,992,1500,1500,1500,992,992,992,992,992,992,992,992,1012.65,22.73,-0.22,-4.57,-2.33,-0.09,-0.19,-0.19,0.06
186,992,1500,1500,1500,992,992,992,992,992,992,992,992,1012.64,22.73,-0.1,-4.57,-2.33,-0.09,-0.13,0.06,0.06
187,992,1500,1500,1500,992,992,992,992,992,992,992,992,1012.65,22.73,-0.15,-4.57,-2.33,-0.09,-0.06,-0.13,-0.06
188,992,1500,1500,1500,992,992,992,992,992,992,992,992,1012.66,22.73,-0.25,-4.57,-2.33,-0.09,0,0,0.06
189,992,1500,1500,1500,992,992,992,992,992,992,992,992,1012.62,22.73,0.11,-4.57,-2.33,-0.09,0,-0.06,0
190,992,1500,1500,1500,992,992,992,992,992,992,992,992,1012.64,22.73,-0.11,-4.57,-2.33,-0.09,0.13,0.06,0.06
191,992,1500,1500,1500,992,992,992,992,992,992,992,992,1012.64,22.73,-0.08,-4.57,-2.33,-0.09,-0.06,0,0
192,992,1500,1500,1500,992,992,992,992,992,992,992,992,1012.64,22.73,-0.13,-4.57,-2.33,-0.09,-0.13,0,-0.06
193,992,1500,1500,1500,992,992,992,992,992,992,992,992,1012.66,22.73,-0.23,-4.57,-2.33,-0.09,0.19,0.19,0.06
194,992,1500,1500,1500,992,992,992,992,992,992,992,992,1012.65,22.73,-0.15,-4.57,-2.33,-0.09,-0.13,0,0.06
195,992,1500,1500,1500,992,992,992,992,992,992,992,992,1012.66,22.73,-0.29,-4.57,-2.33,-0.09,-0.13,-0.06,-0.06
196,992,1500,1500,1500,992,992,992,992,992,992,992,992,1012.67,22.74,-0.38,-4.57,-2.33,-0.09,-0.06,0,-0.13
197,992,1500,1500,1500,992,992,992,992,992,992,992,992,1012.64,22.73,-0.12,-4.57,-2.33,-0.09,-0.31,0.06,0
198,992,1500,1500,1500,992,992,992,992,992,992,992,992,1012.65,22.74,-0.15,-4.57,-2.33,-0.09,0,0,0.06
199,992,1500,1500,1500,992,992,992,992,992,992,992,992,1012.63,22.74,0,-4.57,-2.33,-0.09,-0.13,-0.13,0
200,992,1500,1500,1500,992,992,992,992,992,992,992,992,1012.65,22.74,-0.21,-4.57,-2.33,-0.09,-0.06,0,-0.06
201,992,1500,1500,1500,992,992,992,992,992,992,992,992,1012.68,22.74,-0.42,-4.57,-2.33,-0.09,-0.06,0.06,0.06
202,992,1500,1500,1500,992,992,992,992,992,992,992,992,1012.64,22.74,-0.06,-4.57,-2.33,-0.09,0.06,0,0
203,992,1500,1500,1500,992,992,992,992,992,992,992,992,1012.66,22.74,-0.25,-4.57,-2.33,-0.09,-0.06,0.06,0.13
204,992,1500,1500,1500,992,992,992,992,992,992,992,992,1012.66,22.74,-0.26,-4.57,-2.33,-0.09,0,-0.06,-0.06
205,992,1500,1500,1500,992,992,992,992,992,992,992,992,1012.67,22.74,-0.35,-4.57,-2.33,-0.09,0.13,0,0
206,992,1500,1500,1500,992,992,992,992,992,992,992,992,1012.64,22.74,-0.07,-4.57,-2.33,-0.09,0,0.06,-0.06
207.01,992,1500,1500,1500,992,992,992,992,992,992,992,992,1012.66,22.74,-0.31,-4.57,-2.33,-0.09,0,-0.19,0.13
208.01,992,1500,1500,1500,992,992,992,992,992,992,992,992,1012.71,22.74,-0.7,-4.57,-2.33,-0.09,0.06,0.13,-0.06
209.01,992,1500,1500,1500,992,992,992,992,992,992,992,992,1012.66,22.74,-0.26,-4.57,-2.33,-0.09,0.06,0,0.13
210.01,992,1500,1500,1500,992,992,992,992,992,992,992,992,1012.71,22.74,-0.65,-4.57,-2.33,-0.09,0.19,0.06,0.13
211.01,992,1500,1500,1500,992,992,992,992,992,992,992,992,1012.69,22.74,-0.48,-4.57,-2.33,-0.09,0,0.06,0.13
212,992,1500,1500,1500,992,992,992,992,992,992,992,992,1012.7,22.74,-0.56,-4.57,-2.33,-0.09,-0.06,0.06,0.06
213,992,1500,1500,1500,992,992,992,992,992,992,992,992,1012.7,22.75,-0.63,-4.57,-2.33,-0.09,-0.06,0,-0.06
214,992,1500,1500,1500,992,992,992,992,992,992,992,992,1012.69,22.75,-0.56,-4.57,-2.33,-0.09,-0.19,0,-0.06
215,992,1500,1500,1500,992,992,992,992,992,992,992,992,1012.69,22.75,-0.52,-4.57,-2.33,-0.09,0,0,0.13
216,992,1500,1500,1500,992,992,992,992,992,992,992,992,1012.68,22.75,-0.44,-4.57,-2.33,-0.09,-0.13,0.06,0
217,992,1500,1500,1500,992,992,992,992,992,992,992,992,1012.7,22.75,-0.59,-4.57,-2.33,-0.09,0.19,0.06,-0.06
218.01,992,1500,1500,1500,992,992,992,992,992,992,992,992,1012.71,22.75,-0.72,-4.57,-2.33,-0.09,0,-0.19,-0.06
219.01,992,1500,1500,1500,992,992,992,992,992,992,992,992,1012.7,22.75,-0.59,-4.57,-2.33,-0.09,0.06,0,0
220.01,992,1500,1500,1500,992,992,992,992,992,992,992,992,1012.66,22.75,-0.24,-4.57,-2.33,-0.09,-0.13,-0.06,0
221.01,992,1500,1500,1500,992,992,992,992,992,992,992,992,1012.66,22.75,-0.25,-4.57,-2.33,-0.09,0.06,0.06,-0.06
222,992,1500,1500,1500,992,992,992,992,992,992,992,992,1012.67,22.76,-0.37,-4.57,-2.33,-0.09,0.06,-0.13,0
223,992,1500,1500,1500,992,992,992,992,992,992,992,992,1012.66,22.75,-0.26,-4.57,-2.33,-0.09,-0.06,-0.06,-0.13
224.01,992,1500,1500,1500,992,992,992,992,992,992,992,992,1012.65,22.75,-0.16,-4.57,-2.33,-0.09,0.06,-0.06,0
225,992,1500,1500,1500,992,992,992,992,992,992,992,992,1012.65,22.75,-0.2,-4.57,-2.33,-0.09,0,0.06,0
226,992,1500,1500,1500,992,992,992,992,992,992,992,992,1012.65,22.75,-0.15,-4.57,-2.33,-0.09,0.19,-0.06,-0.13
227,992,1500,1500,1500,992,992,992,992,992,992,992,992,1012.66,22.75,-0.29,-4.57,-2.33,-0.09,0.19,0,0
228,992,1500,1500,1500,992,992,992,992,992,992,992,992,1012.67,22.76,-0.33,-4.57,-2.33,-0.09,0.19,-0.13,0
229,992,1500,1500,1500,992,992,992,992,992,992,992,992,1012.63,22.75,-0.02,-4.57,-2.33,-0.09,0.06,-0.06,0
230.01,992,1500,1500,1500,992,992,992,992,992,992,992,992,1012.65,22.75,-0.15,-4.57,-2.33,-0.09,0.06,-0.06,-0.06
231,992,1500,1500,1500,992,992,992,992,992,992,992,992,1012.68,22.76,-0.4,-4.57,-2.33,-0.09,0.06,0.19,0
232,992,1500,1500,1500,992,992,992,992,992,992,992,992,1012.64,22.75,-0.14,-4.57,-2.33,-0.09,0,0,0
233,992,1500,1500,1500,992,992,992,992,992,992,992,992,1012.67,22.76,-0.35,-4.57,-2.33,-0.09,-0.19,0,0
234,992,1500,1500,1500,992,992,992,992,992,992,992,992,1012.67,22.76,-0.37,-4.57,-2.33,-0.09,0.13,0,0.13
235,992,1500,1500,1500,992,992,992,992,992,992,992,992,1012.65,22.75,-0.22,-4.57,-2.33,-0.09,-0.13,-0.06,0
236,992,1500,1500,1500,992,992,992,992,992,992,992,992,1012.67,22.76,-0.39,-4.57,-2.33,-0.09,0,-0.06,0
237,992,1500,1500,1500,992,992,992,992,992,992,992,992,1012.68,22.77,-0.46,-4.57,-2.33,-0.09,-0.06,0,0
238,992,1500,1500,1500,992,992,992,992,992,992,992,992,1012.65,22.76,-0.22,-4.57,-2.33,-0.09,-0.13,-0.13,-0.06
239,992,1500,1500,1500,992,992,992,992,992,992,992,992,1012.67,22.76,-0.31,-4.57,-2.33,-0.09,0.06,0.06,0
240,992,1500,1500,1500,992,992,992,992,992,992,992,992,1012.7,22.76,-0.56,-4.57,-2.33,-0.09,0.06,0,0.06
241,992,1500,1500,1500,992,992,992,992,992,992,992,992,1012.68,22.76,-0.45,-4.57,-2.33,-0.09,-0.06,0,0.13
242.01,992,1500,1500,1500,992,992,992,992,992,992,992,992,1012.66,22.76,-0.28,-4.57,-2.33,-0.09,0,0.06,0
243,992,1500,1500,1500,992,992,992,992,992,992,992,992,1012.65,22.76,-0.18,-4.57,-2.33,-0.09,0.13,-0.19,0
244.01,992,1500,1500,1500,992,992,992,992,992,992,992,992,1012.63,22.76,-0.04,-4.57,-2.33,-0.09,-0.06,0.06,0.06
245,992,1500,1500,1500,992,992,992,992,992,992,992,992,1012.58,22.76,0.37,-4.57,-2.33,-0.09,0.06,0.19,-0.06
246,992,1500,1500,1500,992,992,992,992,992,992,992,992,1012.63,22.76,-0.01,-4.57,-2.33,-0.09,-0.06,0,0.06
247,992,1500,1500,1500,992,992,992,992,992,992,992,992,1012.6,22.77,0.23,-4.57,-2.33,-0.09,0.13,0,0.06
248,992,1500,1500,1500,992,992,992,992,992,992,992,992,1012.61,22.76,0.17,-4.57,-2.33,-0.09,-0.06,-0.06,0
249,992,1500,1500,1500,992,992,992,992,992,992,992,992,1012.59,22.76,0.3,-4.57,-2.33,-0.09,-0.13,-0.13,0
250,992,1500,1500,1500,992,992,992,992,992,992,992,992,1012.62,22.77,0.05,-4.57,-2.33,-0.09,-0.13,-0.13,-0.06
251,992,1500,1500,1500,992,992,992,992,992,992,992,992,1012.62,22.77,0.08,-4.57,-2.33,-0.09,0.31,-0.06,-0.06
252,992,1500,1500,1500,992,992,992,992,992,992,992,992,1012.66,22.77,-0.28,-4.57,-2.33,-0.09,0.06,0.06,0.06
253,992,1500,1500,1500,992,992,992,992,992,992,992,992,1012.63,22.77,-0.03,-4.57,-2.33,-0.09,-0.06,0.06,-0.13
254,992,1500,1500,1500,992,992,992,992,992,992,992,992,1012.67,22.77,-0.31,-4.57,-2.33,-0.09,0.25,-0.13,-0.06
255,992,1500,1500,1500,992,992,992,992,992,992,992,992,1012.62,22.77,0.05,-4.57,-2.33,-0.09,0,0.13,0
256,992,1500,1500,1500,992,992,992,992,992,992,992,992,1012.63,22.77,0.01,-4.57,-2.33,-0.09,0,-0.06,0
257,992,1500,1500,1500,992,992,992,992,992,992,992,992,1012.68,22.78,-0.41,-4.57,-2.33,-0.09,0,0.13,0
258,992,1500,1500,1500,992,992,992,992,992,992,992,992,1012.62,22.77,0.04,-4.57,-2.33,-0.09,0,0,0
259.01,992,1500,1500,1500,992,992,992,992,992,992,992,992,1012.66,22.77,-0.24,-4.57,-2.33,-0.09,-0.13,-0.19,-0.06
260.01,992,1500,1500,1500,992,992,992,992,992,992,992,992,1012.68,22.77,-0.43,-4.57,-2.33,-0.09,-0.25,0.06,-0.06
261.01,992,1500,1500,1500,992,992,992,992,992,992,992,992,1012.69,22.77,-0.49,-4.57,-2.33,-0.09,-0.06,0.06,0
262.01,992,1500,1500,1500,992,992,992,992,992,992,992,992,1012.65,22.77,-0.2,-4.57,-2.33,-0.09,-0.13,0.06,0
263.01,992,1500,1500,1500,992,992,992,992,992,992,992,992,1012.66,22.78,-0.29,-4.57,-2.33,-0.09,0,0,-0.13
264.01,992,1500,1500,1500,992,992,992,992,992,992,992,992,1012.68,22.78,-0.41,-4.57,-2.33,-0.09,0.06,-0.06,0.06
265.01,992,1500,1500,1500,992,992,992,992,992,992,992,992,1012.68,22.78,-0.47,-4.57,-2.33,-0.09,0.25,0,-0.06
266.01,992,1500,1500,1500,992,992,992,992,992,992,992,992,1012.65,22.78,-0.18,-4.57,-2.33,-0.09,0,-0.13,0.06
267.01,992,1500,1500,1500,992,992,992,992,992,992,992,992,1012.66,22.78,-0.23,-4.57,-2.33,-0.09,0.19,0.19,0
268,992,1500,1500,1500,992,992,992,992,992,992,992,992,1012.66,22.78,-0.27,-4.57,-2.33,-0.09,0.13,0.06,0.06
269,992,1500,1500,1500,992,992,992,992,992,992,992,992,1012.68,22.78,-0.44,-4.57,-2.33,-0.09,0.19,0.06,0.13
270,992,1500,1500,1500,992,992,992,992,992,992,992,992,1012.69,22.79,-0.49,-4.57,-2.33,-0.09,-0.06,0.06,0.13
271,992,1500,1500,1500,992,992,992,992,992,992,992,992,1012.69,22.78,-0.53,-4.57,-2.33,-0.09,-0.06,0.13,0
272,992,1500,1500,1500,992,992,992,992,992,992,992,992,1012.72,22.79,-0.74,-4.57,-2.33,-0.09,0.13,0.06,0
273,992,1500,1500,1500,992,992,992,992,992,992,992,992,1012.74,22.79,-0.92,-4.57,-2.33,-0.09,-0.13,0.06,0.06
274,992,1500,1500,1500,992,992,992,992,992,992,992,992,1012.72,22.79,-0.77,-4.57,-2.33,-0.09,-0.06,0.13,-0.06
275,992,1500,1500,1500,992,992,992,992,992,992,992,992,1012.71,22.79,-0.69,-4.57,-2.33,-0.09,0.19,0.06,0.06
276,992,1500,1500,1500,992,992,992,992,992,992,992,992,1012.74,22.79,-0.92,-4.57,-2.33,-0.09,-0.06,0,-0.06
277,992,1500,1500,1500,992,992,992,992,992,992,992,992,1012.72,22.79,-0.75,-4.57,-2.33,-0.09,0.06,0.06,0
278,992,1500,1500,1500,992,992,992,992,992,992,992,992,1012.7,22.79,-0.6,-4.57,-2.33,-0.09,0.06,0,-0.06
279,992,1500,1500,1500,992,992,992,992,992,992,992,992,1012.71,22.79,-0.72,-4.57,-2.33,-0.09,-0.06,0,-0.06
280,992,1500,1500,1500,992,992,992,992,992,992,992,992,1012.74,22.79,-0.92,-4.57,-2.33,-0.09,0,0.06,0
281,992,1500,1500,1500,992,992,992,992,992,992,992,992,1012.7,22.79,-0.57,-4.57,-2.33,-0.09,0.06,0.13,-0.06
282,992,1500,1500,1500,992,992,992,992,992,992,992,992,1012.7,22.8,-0.56,-4.57,-2.33,-0.09,-0.06,-0.13,-0.06
283,992,1500,1500,1500,992,992,992,992,992,992,992,992,1012.72,22.79,-0.8,-4.57,-2.33,-0.09,-0.06,0,0.06
284,992,1500,1500,1500,992,992,992,992,992,992,992,992,1012.71,22.8,-0.67,-4.57,-2.33,-0.09,-0.06,0.06,-0.13
285,992,1500,1500,1500,992,992,992,992,992,992,992,992,1012.71,22.79,-0.68,-4.57,-2.33,-0.09,0,0.06,0
286,992,1500,1500,1500,992,992,992,992,992,992,992,992,1012.66,22.8,-0.23,-4.57,-2.33,-0.09,0.06,0.06,0
287,992,1500,1500,1500,992,992,992,992,992,992,992,992,1012.69,22.8,-0.49,-4.57,-2.33,-0.09,0,0,0
288,992,1500,1500,1500,992,992,992,992,992,992,992,992,1012.72,22.8,-0.73,-4.57,-2.33,-0.09,-0.25,-0.06,-0.06
289,992,1500,1500,1500,992,992,992,992,992,992,992,992,1012.69,22.8,-0.53,-4.57,-2.33,-0.09,-0.06,0.13,-0.06
290.01,992,1500,1500,1500,992,992,992,992,992,992,992,992,1012.7,22.81,-0.61,-4.57,-2.33,-0.09,-0.19,-0.06,0.13
291.01,992,1500,1500,1500,992,992,992,992,992,992,992,992,1012.71,22.8,-0.67,-4.57,-2.33,-0.09,0,0.13,0.06
292.01,992,1500,1500,1500,992,992,992,992,992,992,992,992,1012.71,22.81,-0.7,-4.57,-2.33,-0.09,0,-0.06,0
293.01,992,1500,1500,1500,992,992,992,992,992,992,992,992,1012.68,22.8,-0.47,-4.57,-2.33,-0.09,0,0,-0.06
294.01,992,1500,1500,1500,992,992,992,992,992,992,992,992,1012.68,22.8,-0.42,-4.57,-2.33,-0.09,0.19,0.06,0
295,992,1500,1500,1500,992,992,992,992,992,992,992,992,1012.66,22.81,-0.27,-4.57,-2.33,-0.09,0.25,0,0
296,992,1500,1500,1500,992,992,992,992,992,992,992,992,1012.67,22.81,-0.38,-4.57,-2.33,-0.09,0.13,-0.06,0
297.01,992,1500,1500,1500,992,992,992,992,992,992,992,992,1012.72,22.81,-0.76,-4.57,-2.33,-0.09,0.06,0.19,-0.06
298,992,1500,1500,1500,992,992,992,992,992,992,992,992,1012.7,22.81,-0.62,-4.57,-2.33,-0.09,0.06,0.06,0
299,992,1500,1500,1500,992,992,992,992,992,992,992,992,1012.71,22.81,-0.68,-4.57,-2.33,-0.09,0,0.19,-0.06
300,992,1500,1500,1500,992,992,992,992,992,992,992,992,1012.69,22.81,-0.5,-4.57,-2.33,-0.09,0.25,0,0
301,992,1500,1500,1500,992,992,992,992,992,992,992,992,1012.74,22.81,-0.89,-4.57,-2.33,-0.09,-0.06,-0.06,0.13
302,992,1500,1500,1500,992,992,992,992,992,992,992,992,1012.7,22.81,-0.63,-4.57,-2.33,-0.09,0,0.06,0.06
303,992,1500,1500,1500,992,992,992,992,992,992,992,992,1012.74,22.81,-0.95,-4.57,-2.33,-0.09,-0.06,0,0
304,992,1500,1500,1500,992,992,992,992,992,992,992,992,1012.72,22.82,-0.78,-4.57,-2.33,-0.09,0.19,0.06,0.13
305,992,1500,1500,1500,992,992,992,992,992,992,992,992,1012.69,22.82,-0.5,-4.57,-2.33,-0.09,0.06,0,0
306,992,1500,1500,1500,992,992,992,992,992,992,992,992,1012.69,22.82,-0.54,-4.57,-2.33,-0.09,-0.06,0.06,0
307,992,1500,1500,1500,992,992,992,992,992,992,992,992,1012.67,22.81,-0.38,-4.57,-2.33,-0.09,0.06,0.06,-0.06
308,992,1500,1500,1500,992,992,992,992,992,992,992,992,1012.67,22.82,-0.33,-4.57,-2.33,-0.09,0.13,0.19,0.13
309,992,1500,1500,1500,992,992,992,992,992,992,992,992,1012.69,22.81,-0.48,-4.57,-2.33,-0.09,-0.19,0.06,-0.06
310,992,1500,1500,1500,992,992,992,992,992,992,992,992,1012.72,22.81,-0.75,-4.57,-2.33,-0.09,0.13,-0.06,-0.06
311,992,1500,1500,1500,992,992,992,992,992,992,992,992,1012.69,22.82,-0.49,-4.57,-2.33,-0.09,-0.06,0,0
312,992,1500,1500,1500,992,992,992,992,992,992,992,992,1012.75,22.82,-0.98,-4.57,-2.33,-0.09,-0.19,-0.06,0.06
313,992,1500,1500,1500,992,992,992,992,992,992,992,992,1012.7,22.82,-0.61,-4.57,-2.33,-0.09,0,-0.13,0
314,992,1500,1500,1500,992,992,992,992,992,992,992,992,1012.71,22.82,-0.65,-4.57,-2.33,-0.09,0,0.06,0
315,992,1500,1500,1500,992,992,992,992,992,992,992,992,1012.68,22.82,-0.45,-4.57,-2.33,-0.09,0.06,0,0
316,992,1500,1500,1500,992,992,992,992,992,992,992,992,1012.73,22.83,-0.82,-4.57,-2.33,-0.09,0,0.06,0
317,992,1500,1500,1500,992,992,992,992,992,992,992,992,1012.7,22.82,-0.56,-4.57,-2.33,-0.09,0.13,0.06,0
318,992,1500,1500,1500,992,992,992,992,992,992,992,992,1012.71,22.82,-0.67,-4.57,-2.33,-0.09,0.13,0,0.06
319,992,1500,1500,1500,992,992,992,992,992,992,992,992,1012.67,22.83,-0.37,-4.57,-2.33,-0.09,0,0,0.06
320,992,1500,1500,1500,992,992,992,992,992,992,992,992,1012.69,22.83,-0.55,-4.57,-2.33,-0.09,-0.13,-0.13,0
321,992,1500,1500,1500,992,992,992,992,992,992,992,992,1012.71,22.83,-0.64,-4.57,-2.33,-0.09,0.06,-0.06,0.06
322,992,1500,1500,1500,992,992,992,992,992,992,992,992,1012.7,22.83,-0.6,-4.57,-2.33,-0.09,0.13,0.06,-0.06
323,992,1500,1500,1500,992,992,992,992,992,992,992,992,1012.68,22.83,-0.43,-4.57,-2.33,-0.09,-0.13,0,-0.06
324,992,1500,1500,1500,992,992,992,992,992,992,992,992,1012.69,22.82,-0.55,-4.57,-2.33,-0.09,0.19,0,0.06
325,992,1500,1500,1500,992,992,992,992,992,992,992,992,1012.71,22.83,-0.67,-4.57,-2.33,-0.09,0,0,0.13
326,992,1500,1500,1500,992,992,992,992,992,992,992,992,1012.7,22.83,-0.59,-4.57,-2.33,-0.09,0.25,0.06,0
327,992,1500,1500,1500,992,992,992,992,992,992,992,992,1012.72,22.84,-0.8,-4.57,-2.33,-0.09,0.19,-0.06,0.06
328,992,1500,1500,1500,992,992,992,992,992,992,992,992,1012.73,22.84,-0.85,-4.57,-2.33,-0.09,0,-0.06,0.13
329,992,1500,1500,1500,992,992,992,992,992,992,992,992,1012.74,22.84,-0.96,-4.57,-2.33,-0.09,-0.13,-0.06,0.06
330,992,1500,1500,1500,992,992,992,992,992,992,992,992,1012.74,22.84,-0.92,-4.57,-2.33,-0.09,0.06,0.06,0
331,992,1500,1500,1500,992,992,992,992,992,992,992,992,1012.71,22.83,-0.71,-4.57,-2.33,-0.09,0.06,0,0
332,992,1500,1500,1500,992,992,992,992,992,992,992,992,1012.72,22.84,-0.8,-4.57,-2.33,-0.09,0,0.06,-0.06
333,992,1500,1500,1500,992,992,992,992,992,992,992,992,1012.73,22.84,-0.89,-4.57,-2.33,-0.09,-0.06,-0.19,0
334,992,1500,1500,1500,992,992,992,992,992,992,992,992,1012.74,22.84,-0.96,-4.57,-2.33,-0.09,-0.06,0,0.06
335,992,1500,1500,1500,992,992,992,992,992,992,992,992,1012.75,22.84,-1.01,-4.57,-2.33,-0.09,-0.13,0.13,-0.19
336,992,1500,1500,1500,992,992,992,992,992,992,992,992,1012.72,22.84,-0.8,-4.57,-2.33,-0.09,-0.06,0,0
337,992,1500,1500,1500,992,992,992,992,992,992,992,992,1012.68,22.84,-0.45,-4.57,-2.33,-0.09,0.06,0,0
338,992,1500,1500,1500,992,992,992,992,992,992,992,992,1012.73,22.85,-0.88,-4.57,-2.33,-0.09,0,0.19,-0.13
339,992,1500,1500,1500,992,992,992,992,992,992,992,992,1012.7,22.84,-0.56,-4.57,-2.33,-0.09,-0.06,0.06,0
340,992,1500,1500,1500,992,992,992,992,992,992,992,992,1012.69,22.84,-0.53,-4.57,-2.33,-0.09,0,-0.06,0
341,992,1500,1500,1500,992,992,992,992,992,992,992,992,1012.69,22.85,-0.5,-4.57,-2.33,-0.09,0.25,0,0.19
342,992,1500,1500,1500,992,992,992,992,992,992,992,992,1012.71,22.85,-0.72,-4.57,-2.33,-0.09,0,0.06,-0.06
343,992,1500,1500,1500,992,992,992,992,992,992,992,992,1012.71,22.85,-0.72,-4.57,-2.33,-0.09,-0.19,-0.06,0
344,992,1500,1500,1500,992,992,992,992,992,992,992,992,1012.68,22.85,-0.47,-4.57,-2.33,-0.09,0.06,0.06,0.06
345,992,1500,1500,1500,992,992,992,992,992,992,992,992,1012.66,22.85,-0.27,-4.57,-2.33,-0.09,0.13,-0.06,0
346,992,1500,1500,1500,992,992,992,992,992,992,992,992,1012.67,22.85,-0.39,-4.57,-2.33,-0.09,-0.06,0,-0.13
347,992,1500,1500,1500,992,992,992,992,992,992,992,992,1012.71,22.85,-0.7,-4.57,-2.33,-0.09,0.06,0,0
348,992,1500,1500,1500,992,992,992,992,992,992,992,992,1012.69,22.85,-0.52,-4.57,-2.33,-0.09,0,0,0
349,992,1500,1500,1500,992,992,992,992,992,992,992,992,1012.71,22.85,-0.69,-4.57,-2.33,-0.09,-0.13,0,0.13
350,992,1500,1500,1500,992,992,992,992,992,992,992,992,1012.71,22.85,-0.68,-4.57,-2.33,-0.09,-0.13,0,0.06
351,992,1500,1500,1500,992,992,992,992,992,992,992,992,1012.68,22.85,-0.47,-4.57,-2.33,-0.09,-0.13,0.19,-0.06
352,992,1500,1500,1500,992,992,992,992,992,992,992,992,1012.69,22.85,-0.54,-4.57,-2.33,-0.09,0,-0.06,-0.06
353,992,1500,1500,1500,992,992,992,992,992,992,992,992,1012.72,22.86,-0.78,-4.57,-2.33,-0.09,-0.06,-0.19,-0.06
354,992,1500,1500,1500,992,992,992,992,992,992,992,992,1012.71,22.85,-0.69,-4.57,-2.33,-0.09,-0.19,-0.19,0.13
355,992,1500,1500,1500,992,992,992,992,992,992,992,992,1012.69,22.86,-0.48,-4.57,-2.33,-0.09,0.31,0.06,0.06
356,992,1500,1500,1500,992,992,992,992,992,992,992,992,1012.7,22.86,-0.64,-4.57,-2.33,-0.09,0.06,0.13,0
357.01,992,1500,1500,1500,992,992,992,992,992,992,992,992,1012.68,22.86,-0.41,-4.57,-2.33,-0.09,0,-0.13,0
358,992,1500,1500,1500,992,992,992,992,992,992,992,992,1012.73,22.87,-0.84,-4.57,-2.33,-0.09,-0.06,-0.06,0.06
359.01,992,1500,1500,1500,992,992,992,992,992,992,992,992,1012.69,22.86,-0.5,-4.57,-2.33,-0.09,0.19,0,-0.06
360.01,992,1500,1500,1500,992,992,992,992,992,992,992,992,1012.71,22.86,-0.7,-4.57,-2.33,-0.09,0,0.06,0.06
361.01,992,1500,1500,1500,992,992,992,992,992,992,992,992,1012.68,22.86,-0.4,-4.57,-2.33,-0.09,0,0,-0.06
362.01,992,1500,1500,1500,992,992,992,992,992,992,992,992,1012.71,22.87,-0.64,-4.57,-2.33,-0.09,0,-0.25,0
363,992,1500,1500,1500,992,992,992,992,992,992,992,992,1012.73,22.87,-0.87,-4.57,-2.33,-0.09,-0.06,0.06,0.06
364,992,1500,1500,1500,992,992,992,992,992,992,992,992,1012.72,22.87,-0.79,-4.57,-2.33,-0.09,0.13,0,0
365,992,1500,1500,1500,992,992,992,992,992,992,992,992,1012.7,22.87,-0.61,-4.57,-2.33,-0.09,0.13,0.06,0.06
366,992,1500,1500,1500,992,992,992,992,992,992,992,992,1012.72,22.86,-0.76,-4.57,-2.33,-0.09,0.25,0.06,0
367,992,1500,1500,1500,992,992,992,992,992,992,992,992,1012.72,22.87,-0.77,-4.57,-2.33,-0.09,0.13,0.06,0.06
368,992,1500,1500,1500,992,992,992,992,992,992,992,992,1012.7,22.87,-0.63,-4.57,-2.33,-0.09,-0.06,0,0.06
369.01,992,1500,1500,1500,992,992,992,992,992,992,992,992,1012.74,22.87,-0.96,-4.57,-2.33,-0.09,0,-0.19,0
370,992,1500,1500,1500,992,992,992,992,992,992,992,992,1012.72,22.87,-0.78,-4.57,-2.33,-0.09,0.13,0.06,-0.06
371,992,1500,1500,1500,992,992,992,992,992,992,992,992,1012.7,22.87,-0.56,-4.57,-2.33,-0.09,0,-0.13,0.06
372,992,1500,1500,1500,992,992,992,992,992,992,992,992,1012.72,22.87,-0.8,-4.57,-2.33,-0.09,0.13,0,0.06
373,992,1500,1500,1500,992,992,992,992,992,992,992,992,1012.74,22.87,-0.91,-4.57,-2.33,-0.09,0.06,0,-0.13
374,992,1500,1500,1500,992,992,992,992,992,992,992,992,1012.72,22.87,-0.74,-4.57,-2.33,-0.09,-0.19,0,-0.06
375,992,1500,1500,1500,992,992,992,992,992,992,992,992,1012.72,22.87,-0.75,-4.57,-2.33,-0.09,0,0,0.06
376,992,1500,1500,1500,992,992,992,992,992,992,992,992,1012.69,22.87,-0.48,-4.57,-2.33,-0.09,0,-0.06,0.06
377,992,1500,1500,1500,992,992,992,992,992,992,992,992,1012.7,22.87,-0.58,-4.57,-2.33,-0.09,-0.06,-0.06,0
378,992,1500,1500,1500,992,992,992,992,992,992,992,992,1012.7,22.88,-0.63,-4.57,-2.33,-0.09,-0.19,0.13,0
379,992,1500,1500,1500,992,992,992,992,992,992,992,992,1012.71,22.87,-0.69,-4.57,-2.33,-0.09,0,-0.06,-0.06
380,992,1500,1500,1500,992,992,992,992,992,992,992,992,1012.69,22.88,-0.51,-4.57,-2.33,-0.09,0,-0.06,0
381,992,1500,1500,1500,992,992,992,992,992,992,992,992,1012.68,22.88,-0.46,-4.57,-2.33,-0.09,-0.13,-0.06,0
382,992,1500,1500,1500,992,992,992,992,992,992,992,992,1012.65,22.88,-0.14,-4.57,-2.33,-0.09,0,0,0.06
383,992,1500,1500,1500,992,992,992,992,992,992,992,992,1012.64,22.88,-0.07,-4.57,-2.33,-0.09,0,0,-0.06
384,992,1500,1500,1500,992,992,992,992,992,992,992,992,1012.67,22.88,-0.34,-4.57,-2.33,-0.09,0,-0.06,0.13
385,992,1500,1500,1500,992,992,992,992,992,992,992,992,1012.69,22.88,-0.5,-4.57,-2.33,-0.09,-0.19,0,0
386,992,1500,1500,1500,992,992,992,992,992,992,992,992,1012.64,22.88,-0.09,-4.57,-2.33,-0.09,0.13,0,0.06
387,992,1500,1500,1500,992,992,992,992,992,992,992,992,1012.66,22.88,-0.24,-4.57,-2.33,-0.09,0.31,-0.19,-0.06
388,992,1500,1500,1500,992,992,992,992,992,992,992,992,1012.67,22.88,-0.39,-4.57,-2.33,-0.09,0,-0.06,-0.06
389,992,1500,1500,1500,992,992,992,992,992,992,992,992,1012.64,22.88,-0.12,-4.57,-2.33,-0.09,0.06,0,0
390,992,1500,1500,1500,992,992,992,992,992,992,992,992,1012.65,22.88,-0.18,-4.57,-2.33,-0.09,-0.06,-0.06,0
391,992,1500,1500,1500,992,992,992,992,992,992,992,992,1012.71,22.89,-0.72,-4.57,-2.33,-0.09,-0.13,0.06,0.06
392,992,1500,1500,1500,992,992,992,992,992,992,992,992,1012.67,22.88,-0.38,-4.57,-2.33,-0.09,0.06,-0.13,-0.06
393,992,1500,1500,1500,992,992,992,992,992,992,992,992,1012.73,22.88,-0.84,-4.57,-2.33,-0.09,-0.06,0,0
394,992,1500,1500,1500,992,992,992,992,992,992,992,992,1012.75,22.89,-1.02,-4.57,-2.33,-0.09,-0.25,-0.06,-0.06
395,992,1500,1500,1500,992,992,992,992,992,992,992,992,1012.78,22.89,-1.23,-4.57,-2.33,-0.09,-0.06,0,0
396.01,992,1500,1500,1500,992,992,992,992,992,992,992,992,1012.73,22.89,-0.81,-4.57,-2.33,-0.09,0,-0.06,0
397,992,1500,1500,1500,992,992,992,992,992,992,992,992,1012.73,22.89,-0.88,-4.57,-2.33,-0.09,-0.06,0,0.06
398.01,992,1500,1500,1500,992,992,992,992,992,992,992,992,1012.73,22.89,-0.89,-4.57,-2.33,-0.09,0,-0.13,0
399.01,992,1500,1500,1500,992,992,992,992,992,992,992,992,1012.75,22.89,-1.02,-4.57,-2.33,-0.09,-0.06,0.13,0.06
400,992,1500,1500,1500,992,992,992,992,992,992,992,992,1012.73,22.89,-0.85,-4.57,-2.33,-0.09,0.06,0.06,0.13
401,992,1500,1500,1500,992,992,992,992,992,992,992,992,1012.74,22.89,-0.95,-4.57,-2.33,-0.09,-0.13,-0.06,0.06
402,992,1500,1500,1500,992,992,992,992,992,992,992,992,1012.76,22.89,-1.12,-4.57,-2.33,-0.09,0.06,0,0.13
403,992,1500,1500,1500,992,992,992,992,992,992,992,992,1012.76,22.89,-1.07,-4.57,-2.33,-0.09,0.13,-0.06,-0.06
404,992,1500,1500,1500,992,992,992,992,992,992,992,992,1012.7,22.89,-0.58,-4.57,-2.33,-0.09,0,-0.06,-0.06
405,992,1500,1500,1500,992,992,992,992,992,992,992,992,1012.75,22.89,-1.03,-4.57,-2.33,-0.09,0.13,0.06,0
406,992,1500,1500,1500,992,992,992,992,992,992,992,992,1012.7,22.89,-0.61,-4.57,-2.33,-0.09,0.06,-0.06,-0.06
407,992,1500,1500,1500,992,992,992,992,992,992,992,992,1012.76,22.9,-1.08,-4.57,-2.33,-0.09,0.06,0.06,0
408,992,1500,1500,1500,992,992,992,992,992,992,992,992,1012.69,22.9,-0.52,-4.57,-2.33,-0.09,-0.13,0.06,0
409,992,1500,1500,1500,992,992,992,992,992,992,992,992,1012.69,22.89,-0.49,-4.57,-2.33,-0.09,-0.19,0,0.06
410,992,1500,1500,1500,992,992,992,992,992,992,992,992,1012.7,22.9,-0.59,-4.57,-2.33,-0.09,0.25,0,0
411,992,1500,1500,1500,992,992,992,992,992,992,992,992,1012.7,22.89,-0.59,-4.57,-2.33,-0.09,0.31,0.06,0.06
412,992,1500,1500,1500,992,992,992,992,992,992,992,992,1012.72,22.9,-0.8,-4.57,-2.33,-0.09,0,-0.06,0
413.01,992,1500,1500,1500,992,992,992,992,992,992,992,992,1012.69,22.9,-0.53,-4.57,-2.33,-0.09,-0.13,0.13,0
414.01,992,1500,1500,1500,992,992,992,992,992,992,992,992,1012.7,22.9,-0.57,-4.57,-2.33,-0.09,0,-0.06,0.13
415.01,992,1500,1500,1500,992,992,992,992,992,992,992,992,1012.7,22.9,-0.62,-4.57,-2.33,-0.09,-0.06,0.06,-0.13
416.01,992,1500,1500,1500,992,992,992,992,992,992,992,992,1012.71,22.9,-0.68,-4.57,-2.33,-0.09,-0.19,0.13,-0.06
417,992,1500,1500,1500,992,992,992,992,992,992,992,992,1012.72,22.9,-0.73,-4.57,-2.33,-0.09,-0.06,-0.06,-0.06
418.01,992,1500,1500,1500,992,992,992,992,992,992,992,992,1012.73,22.9,-0.87,-4.57,-2.33,-0.09,0.06,0.06,-0.13
419.01,992,1500,1500,1500,992,992,992,992,992,992,992,992,1012.72,22.9,-0.79,-4.57,-2.33,-0.09,-0.06,-0.13,-0.06
420.01,992,1500,1500,1500,992,992,992,992,992,992,992,992,1012.75,22.9,-1.04,-4.57,-2.33,-0.09,0.19,-0.06,0
421,992,1500,1500,1500,992,992,992,992,992,992,992,992,1012.71,22.9,-0.7,-4.57,-2.33,-0.09,-0.13,-0.06,0
422,992,1500,1500,1500,992,992,992,992,992,992,992,992,1012.74,22.9,-0.91,-4.57,-2.33,-0.09,0,0,0
423,992,1500,1500,1500,992,992,992,992,992,992,992,992,1012.73,22.89,-0.88,-4.57,-2.33,-0.09,-0.19,0.13,-0.06
424,992,1500,1500,1500,992,992,992,992,992,992,992,992,1012.73,22.9,-0.85,-4.57,-2.33,-0.09,-0.13,0,-0.06
425,992,1500,1500,1500,992,992,992,992,992,992,992,992,1012.71,22.9,-0.66,-4.57,-2.33,-0.09,0,0,-0.06
426,992,1500,1500,1500,992,992,992,992,992,992,992,992,1012.72,22.9,-0.77,-4.57,-2.33,-0.09,-0.06,0,-0.13
427,992,1500,1500,1500,992,992,992,992,992,992,992,992,1012.74,22.9,-0.92,-4.57,-2.33,-0.09,-0.06,0.06,0.06
428,992,1500,1500,1500,992,992,992,992,992,992,992,992,1012.68,22.9,-0.46,-4.57,-2.33,-0.09,0.19,0,0
429,992,1500,1500,1500,992,992,992,992,992,992,992,992,1012.72,22.9,-0.75,-4.57,-2.33,-0.09,-0.13,-0.06,0
430,992,1500,1500,1500,992,992,992,992,992,992,992,992,1012.7,22.9,-0.61,-4.57,-2.33,-0.09,0,0.06,0.06
431,992,1500,1500,1500,992,992,992,992,992,992,992,992,1012.69,22.9,-0.51,-4.57,-2.33,-0.09,-0.06,-0.06,-0.06
432,992,1500,1500,1500,992,992,992,992,992,992,992,992,1012.7,22.9,-0.61,-4.57,-2.33,-0.09,-0.13,0,0
433,992,1500,1500,1500,992,992,992,992,992,992,992,992,1012.72,22.9,-0.74,-4.57,-2.33,-0.09,-0.25,-0.19,-0.06
434,992,1500,1500,1500,992,992,992,992,992,992,992,992,1012.71,22.89,-0.66,-4.57,-2.33,-0.09,-0.25,-0.06,-0.06
435,992,1500,1500,1500,992,992,992,992,992,992,992,992,1012.69,22.9,-0.52,-4.57,-2.33,-0.09,0.06,-0.13,0
436,992,1500,1500,1500,992,992,992,992,992,992,992,992,1012.7,22.9,-0.58,-4.57,-2.33,-0.09,0.19,0,0
437.01,992,1500,1500,1500,992,992,992,992,992,992,992,992,1012.69,22.9,-0.5,-4.57,-2.33,-0.09,0,-0.13,0
438.01,992,1500,1500,1500,992,992,992,992,992,992,992,992,1012.7,22.9,-0.62,-4.57,-2.33,-0.09,-0.13,0.06,-0.06
439.01,992,1500,1500,1500,992,992,992,992,992,992,992,992,1012.72,22.9,-0.73,-4.57,-2.33,-0.09,-0.06,0,0
440.01,992,1500,1500,1500,992,992,992,992,992,992,992,992,1012.74,22.9,-0.9,-4.57,-2.33,-0.09,0.19,0,0
441.01,992,1500,1500,1500,992,992,992,992,992,992,992,992,1012.74,22.9,-0.96,-4.57,-2.33,-0.09,0.19,0.06,0.06
442.01,992,1500,1500,1500,992,992,992,992,992,992,992,992,1012.72,22.9,-0.75,-4.57,-2.33,-0.09,0.06,0,-0.06
443.01,992,1500,1500,1500,992,992,992,992,992,992,992,992,1012.69,22.9,-0.54,-4.57,-2.33,-0.09,0.25,-0.06,0.13
444,992,1500,1500,1500,992,992,992,992,992,992,992,992,1012.73,22.9,-0.87,-4.57,-2.33,-0.09,0.06,0,-0.06
445,992,1500,1500,1500,992,992,992,992,992,992,992,992,1012.69,22.9,-0.51,-4.57,-2.33,-0.09,-0.13,0,0
446,992,1500,1500,1500,992,992,992,992,992,992,992,992,1012.69,22.9,-0.49,-4.57,-2.33,-0.09,0.19,-0.13,0
447,992,1500,1500,1500,992,992,992,992,992,992,992,992,1012.7,22.9,-0.59,-4.57,-2.33,-0.09,-0.13,0.06,0.06
448,992,1500,1500,1500,992,992,992,992,992,992,992,992,1012.7,22.9,-0.61,-4.57,-2.33,-0.09,-0.19,-0.06,0
449,992,1500,1500,1500,992,992,992,992,992,992,992,992,1012.7,22.9,-0.61,-4.57,-2.33,-0.09,-0.19,-0.19,0.06
450,992,1500,1500,1500,992,992,992,992,992,992,992,992,1012.69,22.9,-0.52,-4.57,-2.33,-0.09,-0.06,-0.06,-0.06
451,992,1500,1500,1500,992,992,992,992,992,992,992,992,1012.69,22.91,-0.54,-4.57,-2.33,-0.09,0.37,0,0.06
452,992,1500,1500,1500,992,992,992,992,992,992,992,992,1012.67,22.9,-0.38,-4.57,-2.33,-0.09,0,0.06,0.06
453,992,1500,1500,1500,992,992,992,992,992,992,992,992,1012.69,22.9,-0.49,-4.57,-2.33,-0.09,0.13,0.06,0
454,992,1500,1500,1500,992,992,992,992,992,992,992,992,1012.69,22.9,-0.55,-4.57,-2.33,-0.09,0.06,0.06,0.06
455,992,1500,1500,1500,992,992,992,992,992,992,992,992,1012.68,22.91,-0.47,-4.57,-2.33,-0.09,0,0.13,-0.06
456,992,1500,1500,1500,992,992,992,992,992,992,992,992,1012.69,22.91,-0.51,-4.57,-2.33,-0.09,0.13,0,-0.13
457,992,1500,1500,1500,992,992,992,992,992,992,992,992,1012.71,22.91,-0.71,-4.57,-2.33,-0.09,-0.06,0.06,0
458,992,1500,1500,1500,992,992,992,992,992,992,992,992,1012.67,22.91,-0.38,-4.57,-2.33,-0.09,0.06,0,0
459,992,1500,1500,1500,992,992,992,992,992,992,992,992,1012.74,22.92,-0.91,-4.57,-2.33,-0.09,-0.06,0.06,0
460,992,1500,1500,1500,992,992,992,992,992,992,992,992,1012.7,22.92,-0.61,-4.57,-2.33,-0.09,0.06,-0.06,0.06
461,992,1500,1500,1500,992,992,992,992,992,992,992,992,1012.69,22.91,-0.48,-4.57,-2.33,-0.09,0,0.13,-0.06
462,992,1500,1500,1500,992,992,992,992,992,992,992,992,1012.71,22.92,-0.69,-4.57,-2.33,-0.09,0.06,0.06,0.06
463,992,1500,1500,1500,992,992,992,992,992,992,992,992,1012.67,22.92,-0.35,-4.57,-2.33,-0.09,0.13,0.06,0
464,992,1500,1500,1500,992,992,992,992,992,992,992,992,1012.74,22.92,-0.92,-4.57,-2.33,-0.09,0.06,0.06,0
465,992,1500,1500,1500,992,992,992,992,992,992,992,992,1012.71,22.92,-0.66,-4.57,-2.33,-0.09,-0.13,0.06,0.06
466,992,1500,1500,1500,992,992,992,992,992,992,992,992,1012.71,22.91,-0.69,-4.57,-2.33,-0.09,0.06,0.06,0.13
467,992,1500,1500,1500,992,992,992,992,992,992,992,992,1012.68,22.92,-0.45,-4.57,-2.33,-0.09,0.13,-0.06,0.06
468,992,1500,1500,1500,992,992,992,992,992,992,992,992,1012.71,22.92,-0.7,-4.57,-2.33,-0.09,0.06,0,0
469,992,1500,1500,1500,992,992,992,992,992,992,992,992,1012.69,22.93,-0.51,-4.57,-2.33,-0.09,0.13,-0.19,0.13
470,992,1500,1500,1500,992,992,992,992,992,992,992,992,1012.66,22.92,-0.23,-4.57,-2.33,-0.09,0,-0.13,0.13
471,992,1500,1500,1500,992,992,992,992,992,992,992,992,1012.7,22.92,-0.6,-4.57,-2.33,-0.09,0.19,0,0.06
472,992,1500,1500,1500,992,992,992,992,992,992,992,992,1012.7,22.92,-0.56,-4.57,-2.33,-0.09,0.06,0.06,0
473,992,1500,1500,1500,992,992,992,992,992,992,992,992,1012.68,22.92,-0.46,-4.57,-2.33,-0.09,0,0,0
474,992,1500,1500,1500,992,992,992,992,992,992,992,992,1012.7,22.92,-0.59,-4.57,-2.33,-0.09,-0.06,0,0.06
475,992,1500,1500,1500,992,992,992,992,992,992,992,992,1012.71,22.92,-0.72,-4.57,-2.33,-0.09,-0.06,0.06,0
476,992,1500,1500,1500,992,992,992,992,992,992,992,992,1012.73,22.92,-0.86,-4.57,-2.33,-0.09,0.13,-0.06,0.13
477,992,1500,1500,1500,992,992,992,992,992,992,992,992,1012.73,22.91,-0.85,-4.57,-2.33,-0.09,0,0.13,0
478,992,1500,1500,1500,992,992,992,992,992,992,992,992,1012.69,22.92,-0.55,-4.57,-2.33,-0.09,-0.13,0.06,0
479,992,1500,1500,1500,992,992,992,992,992,992,992,992,1012.68,22.92,-0.42,-4.57,-2.33,-0.09,-0.13,-0.13,-0.06
480,992,1500,1500,1500,992,992,992,992,992,992,992,992,1012.71,22.93,-0.65,-4.57,-2.33,-0.09,-0.06,0,0.06
481,992,1500,1500,1500,992,992,992,992,992,992,992,992,1012.72,22.93,-0.75,-4.57,-2.33,-0.09,-0.06,0.13,-0.06
482,992,1500,1500,1500,992,992,992,992,992,992,992,992,1012.69,22.92,-0.55,-4.57,-2.33,-0.09,-0.13,-0.06,0.13
483,992,1500,1500,1500,992,992,992,992,992,992,992,992,1012.69,22.92,-0.48,-4.57,-2.33,-0.09,0.19,0,0
484,992,1500,1500,1500,992,992,992,992,992,992,992,992,1012.7,22.92,-0.58,-4.57,-2.33,-0.09,0.13,-0.06,-0.06
485,992,1500,1500,1500,992,992,992,992,992,992,992,992,1012.7,22.92,-0.56,-4.57,-2.33,-0.09,0.13,0.13,0
486,992,1500,1500,1500,992,992,992,992,992,992,992,992,1012.74,22.93,-0.9,-4.57,-2.33,-0.09,0,0,0.06
487,992,1500,1500,1500,992,992,992,992,992,992,992,992,1012.7,22.92,-0.6,-4.57,-2.33,-0.09,0.13,0.13,-0.06
488,992,1500,1500,1500,992,992,992,992,992,992,992,992,1012.67,22.92,-0.38,-4.57,-2.33,-0.09,-0.13,0,0
489,992,1500,1500,1500,992,992,992,992,992,992,992,992,1012.72,22.92,-0.77,-4.57,-2.33,-0.09,-0.13,-0.13,-0.06
490,992,1500,1500,1500,992,992,992,992,992,992,992,992,1012.65,22.92,-0.2,-4.57,-2.33,-0.09,0.25,0,-0.06
491,992,1500,1500,1500,992,992,992,992,992,992,992,992,1012.68,22.92,-0.42,-4.57,-2.33,-0.09,0.06,0.06,0.06
492,992,1500,1500,1500,992,992,992,992,992,992,992,992,1012.66,22.92,-0.3,-4.57,-2.33,-0.09,0.13,0.06,0.06
493,992,1500,1500,1500,992,992,992,992,992,992,992,992,1012.68,22.91,-0.4,-4.57,-2.33,-0.09,-0.13,0.06,-0.06
494,992,1500,1500,1500,992,992,992,992,992,992,992,992,1012.68,22.93,-0.42,-4.57,-2.33,-0.09,-0.06,0.06,0.13
495,992,1500,1500,1500,992,992,992,992,992,992,992,992,1012.67,22.93,-0.37,-4.57,-2.33,-0.09,0.13,0.06,0
496.01,992,1500,1500,1500,992,992,992,992,992,992,992,992,1012.73,22.92,-0.86,-4.57,-2.33,-0.09,0.06,0,0
497,992,1500,1500,1500,992,992,992,992,992,992,992,992,1012.71,22.92,-0.67,-4.57,-2.33,-0.09,0.06,0.13,0.06
498.01,992,1500,1500,1500,992,992,992,992,992,992,992,992,1012.71,22.93,-0.69,-4.57,-2.33,-0.09,-0.06,0.06,0.06
499.01,992,1500,1500,1500,992,992,992,992,992,992,992,992,1012.72,22.92,-0.8,-4.57,-2.33,-0.09,0,0.13,0.06
500.01,992,1500,1500,1500,992,992,992,992,992,992,992,992,1012.73,22.93,-0.82,-4.57,-2.33,-0.09,-0.19,-0.06,0.06
501,992,1500,1500,1500,992,992,992,992,992,992,992,992,1012.71,22.93,-0.72,-4.57,-2.33,-0.09,0.06,0.13,0
502.01,992,1500,1500,1500,992,992,992,992,992,992,992,992,1012.7,22.93,-0.6,-4.57,-2.33,-0.09,0.06,0,-0.06
503,992,1500,1500,1500,992,992,992,992,992,992,992,992,1012.74,22.93,-0.97,-4.57,-2.33,-0.09,0.06,0.06,0.13
504,992,1500,1500,1500,992,992,992,992,992,992,992,992,1012.73,22.93,-0.81,-4.57,-2.33,-0.09,-0.06,-0.13,0
505,992,1500,1500,1500,992,992,992,992,992,992,992,992,1012.7,22.93,-0.6,-4.57,-2.33,-0.09,-0.06,0.06,0
506,992,1500,1500,1500,992,992,992,992,992,992,992,992,1012.71,22.93,-0.66,-4.57,-2.33,-0.09,0.13,0.06,0.06
507,992,1500,1500,1500,992,992,992,992,992,992,992,992,1012.71,22.92,-0.71,-4.57,-2.33,-0.09,0.13,0.19,0.06
508,992,1500,1500,1500,992,992,992,992,992,992,992,992,1012.71,22.93,-0.71,-4.57,-2.33,-0.09,-0.19,-0.06,-0.06
509.01,992,1500,1500,1500,992,992,992,992,992,992,992,992,1012.7,22.93,-0.63,-4.57,-2.33,-0.09,-0.06,0,0
510,992,1500,1500,1500,992,992,992,992,992,992,992,992,1012.75,22.93,-1.04,-4.57,-2.33,-0.09,0,0,0.13
511.01,992,1500,1500,1500,992,992,992,992,992,992,992,992,1012.74,22.93,-0.92,-4.57,-2.33,-0.09,0.13,0,0.06
512.01,992,1500,1500,1500,992,992,992,992,992,992,992,992,1012.74,22.93,-0.91,-4.57,-2.33,-0.09,-0.13,0,0
513.01,992,1500,1500,1500,992,992,992,992,992,992,992,992,1012.73,22.93,-0.87,-4.57,-2.33,-0.09,0.13,0.06,0.06
514.01,992,1500,1500,1500,992,992,992,992,992,992,992,992,1012.73,22.92,-0.88,-4.57,-2.33,-0.09,0,-0.13,0.06
515,992,1500,1500,1500,992,992,992,992,992,992,992,992,1012.73,22.93,-0.89,-4.57,-2.33,-0.09,0,-0.06,0
516,992,1500,1500,1500,992,992,992,992,992,992,992,992,1012.77,22.93,-1.21,-4.57,-2.33,-0.09,0.13,-0.06,0
517,992,1500,1500,1500,992,992,992,992,992,992,992,992,1012.73,22.93,-0.82,-4.57,-2.33,-0.09,0.06,-0.06,0.13
518,992,1500,1500,1500,992,992,992,992,992,992,992,992,1012.74,22.93,-0.95,-4.57,-2.33,-0.09,0.06,-0.06,0.06
519,992,1500,1500,1500,992,992,992,992,992,992,992,992,1012.75,22.93,-1.03,-4.57,-2.33,-0.09,0,0.06,-0.06
520,992,1500,1500,1500,992,992,992,992,992,992,992,992,1012.71,22.93,-0.66,-4.57,-2.33,-0.09,-0.06,0.06,-0.06
521,992,1500,1500,1500,992,992,992,992,992,992,992,992,1012.75,22.93,-0.99,-4.57,-2.33,-0.09,0,0.13,0.06
522,992,1500,1500,1500,992,992,992,992,992,992,992,992,1012.73,22.93,-0.83,-4.57,-2.33,-0.09,0.13,0,0
523,992,1500,1500,1500,992,992,992,992,992,992,992,992,1012.57,22.93,0.49,-4.57,-2.33,-0.09,0,0.06,0.13
524,992,1500,1500,1500,992,992,992,992,992,992,992,992,1012.64,22.93,-0.09,-4.57,-2.33,-0.09,0.06,-0.06,0.06
525,992,1500,1500,1500,992,992,992,992,992,992,992,992,1012.69,22.93,-0.5,-4.57,-2.33,-0.09,0.06,0.19,0
526,992,1500,1500,1500,992,992,992,992,992,992,992,992,1012.66,22.92,-0.28,-4.57,-2.33,-0.09,-0.25,-0.13,0
527,992,1500,1500,1500,992,992,992,992,992,992,992,992,1012.66,22.93,-0.27,-4.57,-2.33,-0.09,0.19,0,-0.13
528,992,1500,1500,1500,992,992,992,992,992,992,992,992,1012.66,22.92,-0.23,-4.57,-2.33,-0.09,0.13,0.06,-0.06
529,992,1500,1500,1500,992,992,992,992,992,992,992,992,1012.67,22.93,-0.37,-4.57,-2.33,-0.09,0.06,0,0
530,992,1500,1500,1500,992,992,992,992,992,992,992,992,1012.69,22.93,-0.54,-4.57,-2.33,-0.09,-0.13,-0.13,0.06
531,992,1500,1500,1500,992,992,992,992,992,992,992,992,1012.69,22.93,-0.53,-4.57,-2.33,-0.09,0.06,-0.06,0.06
532,992,1500,1500,1500,992,992,992,992,992,992,992,992,1012.7,22.93,-0.58,-4.57,-2.33,-0.09,0.06,0.13,0
533,992,1500,1500,1500,992,992,992,992,992,992,992,992,1012.63,22.92,-0.05,-4.57,-2.33,-0.09,0.13,0.06,0
534,992,1500,1500,1500,992,992,992,992,992,992,992,992,1012.68,22.92,-0.45,-4.57,-2.33,-0.09,-0.44,-0.13,0
535,992,1500,1500,1500,992,992,992,992,992,992,992,992,1012.65,22.91,-0.21,-4.57,-2.33,-0.09,0.06,0.06,0.06
536,992,1500,1500,1500,992,992,992,992,992,992,992,992,1012.64,22.91,-0.14,-4.57,-2.33,-0.09,-0.13,-0.19,0.06
537.01,992,1500,1500,1500,992,992,992,992,992,992,992,992,1012.69,22.92,-0.48,-4.57,-2.33,-0.09,-0.25,0.06,-0.06
538.01,992,1500,1500,1500,992,992,992,992,992,992,992,992,1012.7,22.91,-0.57,-4.57,-2.33,-0.09,-0.13,0.13,-0.06
539,992,1500,1500,1500,992,992,992,992,992,992,992,992,1012.69,22.91,-0.48,-4.57,-2.33,-0.09,0.13,-0.06,0.06
540.01,992,1500,1500,1500,992,992,992,992,992,992,992,992,1012.67,22.92,-0.32,-4.57,-2.33,-0.09,0.13,0.19,-0.06
541,992,1500,1500,1500,992,992,992,992,992,992,992,992,1012.72,22.93,-0.79,-4.57,-2.33,-0.09,0,0,-0.06
542,992,1500,1500,1500,992,992,992,992,992,992,992,992,1012.67,22.92,-0.35,-4.57,-2.33,-0.09,0.13,0,0
543,992,1500,1500,1500,992,992,992,992,992,992,992,992,1012.67,22.91,-0.32,-4.57,-2.33,-0.09,0.06,0.13,0
544,992,1500,1500,1500,992,992,992,992,992,992,992,992,1012.68,22.92,-0.39,-4.57,-2.33,-0.09,0.13,0,0.06
545,992,1500,1500,1500,992,992,992,992,992,992,992,992,1012.69,22.92,-0.53,-4.57,-2.33,-0.09,0,0.13,0.13
546,992,1500,1500,1500,992,992,992,992,992,992,992,992,1012.67,22.91,-0.38,-4.57,-2.33,-0.09,0,0.06,0
547,992,1500,1500,1500,992,992,992,992,992,992,992,992,1012.72,22.92,-0.75,-4.57,-2.33,-0.09,0.13,0,0.19
548,992,1500,1500,1500,992,992,992,992,992,992,992,992,1012.7,22.92,-0.59,-4.57,-2.33,-0.09,-0.06,0,0
549,992,1500,1500,1500,992,992,992,992,992,992,992,992,1012.67,22.92,-0.37,-4.57,-2.33,-0.09,0.13,-0.06,-0.06
550,992,1500,1500,1500,992,992,992,992,992,992,992,992,1012.7,22.92,-0.6,-4.57,-2.33,-0.09,-0.13,0.13,0.06
551,992,1500,1500,1500,992,992,992,992,992,992,992,992,1012.64,22.92,-0.08,-4.57,-2.33,-0.09,0,-0.06,-0.13
552,992,1500,1500,1500,992,992,992,992,992,992,992,992,1012.66,22.92,-0.28,-4.57,-2.33,-0.09,0,-0.13,0.06
553,992,1500,1500,1500,992,992,992,992,992,992,992,992,1012.67,22.92,-0.34,-4.57,-2.33,-0.09,0,-0.06,0
554,992,1500,1500,1500,992,992,992,992,992,992,992,992,1012.64,22.91,-0.13,-4.57,-2.33,-0.09,-0.13,-0.06,-0.06
555,992,1500,1500,1500,992,992,992,992,992,992,992,992,1012.68,22.91,-0.4,-4.57,-2.33,-0.09,0.06,0,-0.06
556,992,1500,1500,1500,992,992,992,992,992,992,992,992,1012.68,22.92,-0.46,-4.57,-2.33,-0.09,0.19,0.13,0
557.01,992,1500,1500,1500,992,992,992,992,992,992,992,992,1012.67,22.9,-0.36,-4.57,-2.33,-0.09,0,0.06,-0.06
558.01,992,1500,1500,1500,992,992,992,992,992,992,992,992,1012.67,22.9,-0.32,-4.57,-2.33,-0.09,-0.19,0.06,0.06
559.01,992,1500,1500,1500,992,992,992,992,992,992,992,992,1012.71,22.91,-0.72,-4.57,-2.33,-0.09,0,0.13,-0.06
560.01,992,1500,1500,1500,992,992,992,992,992,992,992,992,1012.68,22.9,-0.4,-4.57,-2.33,-0.09,0,0.06,-0.06
561.01,992,1500,1500,1500,992,992,992,992,992,992,992,992,1012.7,22.9,-0.61,-4.57,-2.33,-0.09,-0.13,0,0
562,992,1500,1500,1500,992,992,992,992,992,992,992,992,1012.66,22.9,-0.3,-4.57,-2.33,-0.09,0.06,-0.06,0.06
