Time (sec),RXIN 0 (us),RXIN 1 (us),RXIN 2 (us),RXIN 3 (us),RXIN 4 (us),RXIN 5 (us),PWMOUT 0 (us),PWMOUT 1 (us),PWMOUT 2 (us),PWMOUT 3 (us),PWMOUT 4 (us),PWMOUT 5 (us),Latitude (deg),Longitude (deg),Altitude (m),Pressure (hPa),Pressure (Pa),Pressure Altitude (m),Temperature (C),Roll (deg),Pitch (deg),Yaw (deg),Roll Rate (rad/s),Pitch Rate (rad/s),Yaw Rate (rad/s)
3.16,992,1500,1500,1500,992,992,992,992,992,992,992,992,-99,-99,-99,101.95,1019.5,3.72206918483964,19.58,0,0,0,0,0,0
3.53,992,1500,1500,1500,992,992,992,992,992,992,992,992,-99,-99,-99,101.79,1017.9,16.9668761084284,19.58,-4.69,-8.76,-0.36,-0.06,-0.13,-0.06
3.91,992,1500,1500,1500,992,992,992,992,992,992,992,992,-99,-99,-99,101.79,1017.9,16.9668761084284,19.58,-4.69,-8.76,-0.36,-0.06,-0.06,0
4.27,992,1500,1500,1500,992,992,992,992,992,992,992,992,-99,-99,-99,101.9,1019,7.85926218056033,19.39,-4.69,-8.76,-0.36,0.06,0.06,0
4.64,992,1500,1500,1500,992,992,992,992,992,992,992,992,-99,-99,-99,101.9,1019,7.85926218056033,19.39,-4.69,-8.76,-0.36,0,0.06,0.13
5.02,992,1500,1500,1500,992,992,992,992,992,992,992,992,-99,-99,-99,101.74,1017.4,21.1093354133369,19.39,-4.69,-8.76,-0.36,0,-0.19,0.13
6,992,1500,1500,1500,992,992,992,992,992,992,992,992,-99,-99,-99,101.79,1017.9,16.9668761084284,19.58,-4.69,-8.76,-0.36,0,-0.06,0.06
7.01,992,1500,1500,1500,992,992,992,992,992,992,992,992,-99,-99,-99,101.79,1017.9,16.9668761084284,19.58,-4.69,-8.76,-0.36,-0.13,0,0
8.01,992,1500,1500,1500,992,992,992,992,992,992,992,992,-99,-99,-99,101.95,1019.5,3.72206918483964,19.58,-4.69,-8.76,-0.36,0.06,0.06,0
9.01,992,1500,1500,1500,992,992,992,992,992,992,992,992,-99,-99,-99,101.79,1017.9,16.9668761084284,19.58,-4.69,-8.76,-0.36,0,-0.06,0
10.01,992,1500,1500,1500,992,992,992,992,992,992,992,992,-99,-99,-99,101.62,1016.2,31.0579676267139,19.58,-4.69,-8.76,-0.36,-0.19,-0.13,-0.06
11.01,992,1500,1500,1500,992,992,992,992,992,992,992,992,-99,-99,-99,101.79,1017.9,16.9668761084284,19.58,-4.69,-8.76,-0.36,-0.13,-0.19,0.13
12.01,992,1500,1500,1500,992,992,992,992,992,992,992,992,-99,-99,-99,101.62,1016.2,31.0579676267139,19.58,-4.69,-8.76,-0.36,0.06,0.13,0
13.01,992,1500,1500,1500,992,992,992,992,992,992,992,992,-99,-99,-99,101.95,1019.5,3.72206918483964,19.58,-4.69,-8.76,-0.36,0,0,0
14.01,992,1500,1500,1500,992,992,992,992,992,992,992,992,-99,-99,-99,101.83,1018.3,13.6540948127124,19.77,-4.69,-8.76,-0.36,-0.06,-0.06,-0.06
15,992,1500,1500,1500,992,992,992,992,992,992,992,992,-99,-99,-99,101.95,1019.5,3.72206918483964,19.58,-4.69,-8.76,-0.36,0.06,0.06,0.13
16.01,992,1500,1500,1500,992,992,992,992,992,992,992,992,-99,-99,-99,101.62,1016.2,31.0579676267139,19.58,-4.69,-8.76,-0.36,-0.06,0.06,0.13
17,992,1500,1500,1500,992,992,992,992,992,992,992,992,-99,-99,-99,101.79,1017.9,16.9668761084284,19.58,-4.69,-8.76,-0.36,0,-0.06,0.06
18,992,1500,1500,1500,992,992,992,992,992,992,992,992,-99,-99,-99,101.62,1016.2,31.0579676267139,19.58,-4.69,-8.76,-0.36,0.13,0.06,0
19,992,1500,1500,1500,992,992,992,992,992,992,992,992,-99,-99,-99,101.62,1016.2,31.0579676267139,19.58,-4.69,-8.76,-0.36,-0.06,0,-0.13
20,992,1500,1500,1500,992,992,992,992,992,992,992,992,-99,-99,-99,101.9,1019,7.85926218056033,19.39,-4.69,-8.76,-0.36,0,0.06,0.06
21,992,1500,1500,1500,992,992,992,992,992,992,992,992,-99,-99,-99,101.95,1019.5,3.72206918483964,19.58,-4.69,-8.76,-0.36,-0.13,0,0.06
22,992,1500,1500,1500,992,992,992,992,992,992,992,992,-99,-99,-99,101.79,1017.9,16.9668761084284,19.58,-4.69,-8.76,-0.36,-0.06,0.06,0
23,992,1500,1500,1500,992,992,992,992,992,992,992,992,-99,-99,-99,101.79,1017.9,16.9668761084284,19.58,-4.69,-8.76,-0.36,0,0.06,0
24,992,1500,1500,1500,992,992,992,992,992,992,992,992,-99,-99,-99,101.79,1017.9,16.9668761084284,19.58,-4.69,-8.76,-0.36,0.06,0,-0.06
25,992,1500,1500,1500,992,992,992,992,992,992,992,992,-99,-99,-99,101.79,1017.9,16.9668761084284,19.58,-4.69,-8.76,-0.36,0.19,0,0.06
26.01,992,1500,1500,1500,992,992,992,992,992,992,992,992,-99,-99,-99,101.79,1017.9,16.9668761084284,19.58,-4.69,-8.76,-0.36,0.06,-0.13,0.06
27.01,992,1500,1500,1500,992,992,992,992,992,992,992,992,-99,-99,-99,101.79,1017.9,16.9668761084284,19.58,-4.69,-8.76,-0.36,0.06,-0.06,0.13
28,992,1500,1500,1500,992,992,992,992,992,992,992,992,-99,-99,-99,101.74,1017.4,21.1093354133369,19.39,-4.69,-8.76,-0.36,0.06,-0.13,0
29.01,992,1500,1500,1500,992,992,992,992,992,992,992,992,-99,-99,-99,101.95,1019.5,3.72206918483964,19.58,-4.69,-8.76,-0.36,0.06,0,0.06
30.01,992,1500,1500,1500,992,992,992,992,992,992,992,992,-99,-99,-99,101.79,1017.9,16.9668761084284,19.58,-4.69,-8.76,-0.36,-0.13,-0.13,-0.06
31.01,992,1500,1500,1500,992,992,992,992,992,992,992,992,-99,-99,-99,101.62,1016.2,31.0579676267139,19.58,-4.69,-8.76,-0.36,-0.13,0,-0.06
32.01,992,1500,1500,1500,992,992,992,992,992,992,992,992,-99,-99,-99,101.79,1017.9,16.9668761084284,19.58,-4.69,-8.76,-0.36,0,-0.06,0.06
33.01,992,1500,1500,1500,992,992,992,992,992,992,992,992,-99,-99,-99,101.83,1018.3,13.6540948127124,19.77,-4.69,-8.76,-0.36,-0.06,-0.13,0
34.01,992,1500,1500,1500,992,992,992,992,992,992,992,992,-99,-99,-99,101.79,1017.9,16.9668761084284,19.58,-4.69,-8.76,-0.36,0.13,0,0
35.01,992,1500,1500,1500,992,992,992,992,992,992,992,992,-99,-99,-99,101.95,1019.5,3.72206918483964,19.58,-4.69,-8.76,-0.36,-0.13,0.06,0.06
36.01,992,1500,1500,1500,992,992,992,992,992,992,992,992,-99,-99,-99,101.62,1016.2,31.0579676267139,19.58,-4.69,-8.76,-0.36,0.06,0,-0.06
37,992,1500,1500,1500,992,992,992,992,992,992,992,992,-99,-99,-99,101.58,1015.8,34.3762923319299,19.39,-4.69,-8.76,-0.36,-0.19,0.13,0.06
38,992,1500,1500,1500,992,992,992,992,992,992,992,992,-99,-99,-99,101.83,1018.3,13.6540948127124,19.77,-4.69,-8.76,-0.36,-0.06,-0.06,0.06
39,992,1500,1500,1500,992,992,992,992,992,992,992,992,-99,-99,-99,101.79,1017.9,16.9668761084284,19.58,-4.69,-8.76,-0.36,-0.13,-0.06,0
40,992,1500,1500,1500,992,992,992,992,992,992,992,992,-99,-99,-99,101.62,1016.2,31.0579676267139,19.58,-4.69,-8.76,-0.36,-0.19,-0.19,-0.06
41,992,1500,1500,1500,992,992,992,992,992,992,992,992,-99,-99,-99,101.79,1017.9,16.9668761084284,19.58,-4.69,-8.76,-0.36,0.06,-0.13,0
42,992,1500,1500,1500,992,992,992,992,992,992,992,992,-99,-99,-99,101.74,1017.4,21.1093354133369,19.39,-4.69,-8.76,-0.36,0.13,-0.06,0
43,992,1500,1500,1500,992,992,992,992,992,992,992,992,-99,-99,-99,101.95,1019.5,3.72206918483964,19.58,-4.69,-8.76,-0.36,-0.13,-0.06,0
44,992,1500,1500,1500,992,992,992,992,992,992,992,992,-99,-99,-99,101.62,1016.2,31.0579676267139,19.58,-4.69,-8.76,-0.36,-0.06,0.06,0.06
45,992,1500,1500,1500,992,992,992,992,992,992,992,992,-99,-99,-99,101.79,1017.9,16.9668761084284,19.58,-4.69,-8.76,-0.36,-0.13,0.06,0
46,992,1500,1500,1500,992,992,992,992,992,992,992,992,-99,-99,-99,101.62,1016.2,31.0579676267139,19.58,-4.69,-8.76,-0.36,0.06,0.06,0.19
47.01,992,1500,1500,1500,992,992,992,992,992,992,992,992,-99,-99,-99,101.62,1016.2,31.0579676267139,19.58,-4.69,-8.76,-0.36,-0.25,-0.13,-0.06
48,992,1500,1500,1500,992,992,992,992,992,992,992,992,-99,-99,-99,101.95,1019.5,3.72206918483964,19.58,-4.69,-8.76,-0.36,-0.13,0.06,0.06
49,992,1500,1500,1500,992,992,992,992,992,992,992,992,-99,-99,-99,101.79,1017.9,16.9668761084284,19.58,-4.69,-8.76,-0.36,0.06,-0.13,0.06
50,992,1500,1500,1500,992,992,992,992,992,992,992,992,-99,-99,-99,101.79,1017.9,16.9668761084284,19.58,-4.69,-8.76,-0.36,0,0.06,0
51,992,1500,1500,1500,992,992,992,992,992,992,992,992,-99,-99,-99,101.79,1017.9,16.9668761084284,19.58,-4.69,-8.76,-0.36,0,-0.13,0
52.01,992,1500,1500,1500,992,992,992,992,992,992,992,992,-99,-99,-99,101.79,1017.9,16.9668761084284,19.58,-4.69,-8.76,-0.36,0,-0.06,-0.06
53.01,992,1500,1500,1500,992,992,992,992,992,992,992,992,-99,-99,-99,101.95,1019.5,3.72206918483964,19.58,-4.69,-8.76,-0.36,0.06,0.06,0.06
54.01,992,1500,1500,1500,992,992,992,992,992,992,992,992,-99,-99,-99,101.95,1019.5,3.72206918483964,19.58,-4.69,-8.76,-0.36,0,0.06,0.06
55.01,992,1500,1500,1500,992,992,992,992,992,992,992,992,-99,-99,-99,101.79,1017.9,16.9668761084284,19.58,-4.69,-8.76,-0.36,0.19,-0.13,-0.06
56.01,992,1500,1500,1500,992,992,992,992,992,992,992,992,-99,-99,-99,101.9,1019,7.85926218056033,19.39,-4.69,-8.76,-0.36,0.06,0,0.06
57.01,992,1500,1500,1500,992,992,992,992,992,992,992,992,-99,-99,-99,101.62,1016.2,31.0579676267139,19.58,-4.69,-8.76,-0.36,0.06,-0.06,0.13
58.01,992,1500,1500,1500,992,992,992,992,992,992,992,992,-99,-99,-99,101.79,1017.9,16.9668761084284,19.58,-4.69,-8.76,-0.36,0.13,-0.13,-0.06
59.01,992,1500,1500,1500,992,992,992,992,992,992,992,992,-99,-99,-99,101.58,1015.8,34.3762923319299,19.39,-4.69,-8.76,-0.36,0,0.13,0
60.01,992,1500,1500,1500,992,992,992,992,992,992,992,992,-99,-99,-99,101.79,1017.9,16.9668761084284,19.58,-4.69,-8.76,-0.36,0.31,0,0
61.01,992,1500,1500,1500,992,992,992,992,992,992,992,992,-99,-99,-99,101.62,1016.2,31.0579676267139,19.58,-4.69,-8.76,-0.36,0.06,0,0.06
62.01,992,1500,1500,1500,992,992,992,992,992,992,992,992,-99,-99,-99,101.67,1016.7,26.9115487459297,19.77,-4.69,-8.76,-0.36,0.19,-0.06,0.06
63.01,992,1500,1500,1500,992,992,992,992,992,992,992,992,-99,-99,-99,101.95,1019.5,3.72206918483964,19.58,-4.69,-8.76,-0.36,0.06,-0.06,0.13
64.01,992,1500,1500,1500,992,992,992,992,992,992,992,992,-99,-99,-99,101.79,1017.9,16.9668761084284,19.58,-4.69,-8.76,-0.36,-0.13,0.13,-0.06
65,992,1500,1500,1500,992,992,992,992,992,992,992,992,-99,-99,-99,101.79,1017.9,16.9668761084284,19.58,-4.69,-8.76,-0.36,-0.13,0,-0.06
66,992,1500,1500,1500,992,992,992,992,992,992,992,992,-99,-99,-99,101.79,1017.9,16.9668761084284,19.58,-4.69,-8.76,-0.36,0,0.06,0
67,992,1500,1500,1500,992,992,992,992,992,992,992,992,-99,-99,-99,101.79,1017.9,16.9668761084284,19.58,-4.69,-8.76,-0.36,0.25,-0.06,0
68,992,1500,1500,1500,992,992,992,992,992,992,992,992,-99,-99,-99,101.79,1017.9,16.9668761084284,19.58,-4.69,-8.76,-0.36,0.25,0.19,-0.06
69,992,1500,1500,1500,992,992,992,992,992,992,992,992,-99,-99,-99,101.74,1017.4,21.1093354133369,19.39,-4.69,-8.76,-0.36,0.13,-0.06,0.13
70,992,1500,1500,1500,992,992,992,992,992,992,992,992,-99,-99,-99,101.79,1017.9,16.9668761084284,19.58,-4.69,-8.76,-0.36,0.06,0,0.13
71,992,1500,1500,1500,992,992,992,992,992,992,992,992,-99,-99,-99,101.62,1016.2,31.0579676267139,19.58,-4.69,-8.76,-0.36,0.06,0,0
72,992,1500,1500,1500,992,992,992,992,992,992,992,992,-99,-99,-99,101.62,1016.2,31.0579676267139,19.58,-4.69,-8.76,-0.36,-0.13,0.06,0
73,992,1500,1500,1500,992,992,992,992,992,992,992,992,-99,-99,-99,101.74,1017.4,21.1093354133369,19.39,-4.69,-8.76,-0.36,-0.06,0.06,0
74,992,1500,1500,1500,992,992,992,992,992,992,992,992,-99,-99,-99,101.74,1017.4,21.1093354133369,19.39,-4.69,-8.76,-0.36,-0.19,-0.13,0.06
75,992,1500,1500,1500,992,992,992,992,992,992,992,992,-99,-99,-99,101.79,1017.9,16.9668761084284,19.58,-4.69,-8.76,-0.36,0,-0.13,0
76,992,1500,1500,1500,992,992,992,992,992,992,992,992,-99,-99,-99,101.79,1017.9,16.9668761084284,19.58,-4.69,-8.76,-0.36,0.06,-0.06,0.13
77,992,1500,1500,1500,992,992,992,992,992,992,992,992,-99,-99,-99,101.74,1017.4,21.1093354133369,19.39,-4.69,-8.76,-0.36,0.13,-0.06,0
78,992,1500,1500,1500,992,992,992,992,992,992,992,992,-99,-99,-99,101.79,1017.9,16.9668761084284,19.58,-4.69,-8.76,-0.36,-0.06,0,0.06
79.01,992,1500,1500,1500,992,992,992,992,992,992,992,992,-99,-99,-99,101.74,1017.4,21.1093354133369,19.39,-4.69,-8.76,-0.36,-0.13,0,0
80.01,992,1500,1500,1500,992,992,992,992,992,992,992,992,-99,-99,-99,101.79,1017.9,16.9668761084284,19.58,-4.69,-8.76,-0.36,0,0,0.06
81.01,992,1500,1500,1500,992,992,992,992,992,992,992,992,-99,-99,-99,101.79,1017.9,16.9668761084284,19.58,-4.69,-8.76,-0.36,-0.06,0.06,0
82.01,992,1500,1500,1500,992,992,992,992,992,992,992,992,-99,-99,-99,101.79,1017.9,16.9668761084284,19.58,-4.69,-8.76,-0.36,0.19,0,0.06
83.01,992,1500,1500,1500,992,992,992,992,992,992,992,992,-99,-99,-99,101.79,1017.9,16.9668761084284,19.58,-4.69,-8.76,-0.36,0,0.13,0
84.01,992,1500,1500,1500,992,992,992,992,992,992,992,992,-99,-99,-99,101.79,1017.9,16.9668761084284,19.58,-4.69,-8.76,-0.36,0,-0.06,0.06
85.01,992,1500,1500,1500,992,992,992,992,992,992,992,992,-99,-99,-99,101.79,1017.9,16.9668761084284,19.58,-4.69,-8.76,-0.36,0.13,0.13,0.13
86.01,992,1500,1500,1500,992,992,992,992,992,992,992,992,-99,-99,-99,101.79,1017.9,16.9668761084284,19.58,-4.69,-8.76,-0.36,0,0,0.06
87.01,992,1500,1500,1500,992,992,992,992,992,992,992,992,-99,-99,-99,101.79,1017.9,16.9668761084284,19.58,-4.69,-8.76,-0.36,0.06,-0.06,-0.06
88.01,992,1500,1500,1500,992,992,992,992,992,992,992,992,-99,-99,-99,101.79,1017.9,16.9668761084284,19.58,-4.69,-8.76,-0.36,0.19,-0.06,0.06
89.01,992,1500,1500,1500,992,992,992,992,992,992,992,992,-99,-99,-99,101.79,1017.9,16.9668761084284,19.58,-4.69,-8.76,-0.36,-0.06,0.06,0
90.01,992,1500,1500,1500,992,992,992,992,992,992,992,992,-99,-99,-99,101.83,1018.3,13.6540948127124,19.77,-4.69,-8.76,-0.36,0,-0.19,0.13
91.01,992,1500,1500,1500,992,992,992,992,992,992,992,992,-99,-99,-99,101.58,1015.8,34.3762923319299,19.39,-4.69,-8.76,-0.36,0,0,0
92.01,992,1500,1500,1500,992,992,992,992,992,992,992,992,-99,-99,-99,101.95,1019.5,3.72206918483964,19.58,-4.69,-8.76,-0.36,0.06,0.25,0
93.01,992,1500,1500,1500,992,992,992,992,992,992,992,992,-99,-99,-99,101.95,1019.5,3.72206918483964,19.58,-4.69,-8.76,-0.36,-0.06,-0.13,0.06
94,992,1500,1500,1500,992,992,992,992,992,992,992,992,-99,-99,-99,101.95,1019.5,3.72206918483964,19.58,-4.69,-8.76,-0.36,0.06,-0.13,0.13
95,992,1500,1500,1500,992,992,992,992,992,992,992,992,-99,-99,-99,101.79,1017.9,16.9668761084284,19.58,-4.69,-8.76,-0.36,0.06,0.06,-0.06
96,992,1500,1500,1500,992,992,992,992,992,992,992,992,-99,-99,-99,101.83,1018.3,13.6540948127124,19.77,-4.69,-8.76,-0.36,-0.06,0,0
97,992,1500,1500,1500,992,992,992,992,992,992,992,992,-99,-99,-99,101.79,1017.9,16.9668761084284,19.58,-4.69,-8.76,-0.36,-0.06,0,0.13
98,992,1500,1500,1500,992,992,992,992,992,992,992,992,-99,-99,-99,101.79,1017.9,16.9668761084284,19.58,-4.69,-8.76,-0.36,-0.06,-0.06,0
99,992,1500,1500,1500,992,992,992,992,992,992,992,992,-99,-99,-99,101.79,1017.9,16.9668761084284,19.58,-4.69,-8.76,-0.36,0.06,0.13,0.06
100,992,1500,1500,1500,992,992,992,992,992,992,992,992,-99,-99,-99,101.79,1017.9,16.9668761084284,19.58,-4.69,-8.76,-0.36,0.13,0.13,0.13
101,992,1500,1500,1500,992,992,992,992,992,992,992,992,-99,-99,-99,101.83,1018.3,13.6540948127124,19.77,-4.69,-8.76,-0.36,0.25,0,0
102,992,1500,1500,1500,992,992,992,992,992,992,992,992,-99,-99,-99,101.83,1018.3,13.6540948127124,19.77,-4.69,-8.76,-0.36,0.19,-0.13,0.13
103,992,1500,1500,1500,992,992,992,992,992,992,992,992,-99,-99,-99,101.79,1017.9,16.9668761084284,19.58,-4.69,-8.76,-0.36,0.31,0,-0.06
104,992,1500,1500,1500,992,992,992,992,992,992,992,992,-99,-99,-99,101.79,1017.9,16.9668761084284,19.58,-4.69,-8.76,-0.36,-0.06,-0.06,-0.06
105,992,1500,1500,1500,992,992,992,992,992,992,992,992,-99,-99,-99,101.79,1017.9,16.9668761084284,19.58,-4.69,-8.76,-0.36,-0.25,0,0
106,992,1500,1500,1500,992,992,992,992,992,992,992,992,-99,-99,-99,101.79,1017.9,16.9668761084284,19.58,-4.69,-8.76,-0.36,-0.06,-0.06,0.06
107,992,1500,1500,1500,992,992,992,992,992,992,992,992,-99,-99,-99,101.79,1017.9,16.9668761084284,19.58,-4.69,-8.76,-0.36,0,-0.06,0
108,992,1500,1500,1500,992,992,992,992,992,992,992,992,-99,-99,-99,101.79,1017.9,16.9668761084284,19.58,-4.69,-8.76,-0.36,0.06,0.06,-0.06
109.01,992,1500,1500,1500,992,992,992,992,992,992,992,992,-99,-99,-99,101.79,1017.9,16.9668761084284,19.58,-4.69,-8.76,-0.36,0.19,0,-0.06
110.01,992,1500,1500,1500,992,992,992,992,992,992,992,992,-99,-99,-99,101.74,1017.4,21.1093354133369,19.39,-4.69,-8.76,-0.36,-0.19,0.19,-0.06
111.01,992,1500,1500,1500,992,992,992,992,992,992,992,992,-99,-99,-99,101.62,1016.2,31.0579676267139,19.58,-4.69,-8.76,-0.36,0.13,0.06,0
112.01,992,1500,1500,1500,992,992,992,992,992,992,992,992,-99,-99,-99,101.9,1019,7.85926218056033,19.39,-4.69,-8.76,-0.36,-0.06,-0.06,0.06
113.01,992,1500,1500,1500,992,992,992,992,992,992,992,992,-99,-99,-99,101.79,1017.9,16.9668761084284,19.58,-4.69,-8.76,-0.36,0,0.06,-0.13
114.01,992,1500,1500,1500,992,992,992,992,992,992,992,992,-99,-99,-99,101.79,1017.9,16.9668761084284,19.58,-4.69,-8.76,-0.36,0.25,0.13,0
115.01,992,1500,1500,1500,992,992,992,992,992,992,992,992,-99,-99,-99,101.62,1016.2,31.0579676267139,19.58,-4.69,-8.76,-0.36,0.13,0.13,-0.06
116.01,992,1500,1500,1500,992,992,992,992,992,992,992,992,-99,-99,-99,101.74,1017.4,21.1093354133369,19.39,-4.69,-8.76,-0.36,-0.13,-0.06,0.06
117.01,992,1500,1500,1500,992,992,992,992,992,992,992,992,-99,-99,-99,101.74,1017.4,21.1093354133369,19.39,-4.69,-8.76,-0.36,0,0,0
118.01,992,1500,1500,1500,992,992,992,992,992,992,992,992,-99,-99,-99,101.95,1019.5,3.72206918483964,19.58,-4.69,-8.76,-0.36,0.06,0.06,0
119.01,992,1500,1500,1500,992,992,992,992,992,992,992,992,-99,-99,-99,101.95,1019.5,3.72206918483964,19.58,-4.69,-8.76,-0.36,0.19,0.06,0
120.01,992,1500,1500,1500,992,992,992,992,992,992,992,992,-99,-99,-99,101.79,1017.9,16.9668761084284,19.58,-4.69,-8.76,-0.36,-0.06,0,0
121.01,992,1500,1500,1500,992,992,992,992,992,992,992,992,-99,-99,-99,101.79,1017.9,16.9668761084284,19.58,-4.69,-8.76,-0.36,-0.13,0,0.06
122.01,992,1500,1500,1500,992,992,992,992,992,992,992,992,-99,-99,-99,101.74,1017.4,21.1093354133369,19.39,-4.69,-8.76,-0.36,-0.06,-0.06,0
123.01,992,1500,1500,1500,992,992,992,992,992,992,992,992,-99,-99,-99,101.95,1019.5,3.72206918483964,19.58,-4.69,-8.76,-0.36,0.06,0.06,0.06
124.01,992,1500,1500,1500,992,992,992,992,992,992,992,992,-99,-99,-99,101.62,1016.2,31.0579676267139,19.58,-4.69,-8.76,-0.36,0,-0.13,-0.06
125,992,1500,1500,1500,992,992,992,992,992,992,992,992,-99,-99,-99,101.95,1019.5,3.72206918483964,19.58,-4.69,-8.76,-0.36,0,-0.06,0.06
126,992,1500,1500,1500,992,992,992,992,992,992,992,992,-99,-99,-99,101.74,1017.4,21.1093354133369,19.39,-4.69,-8.76,-0.36,0,0.06,0.06
127,992,1500,1500,1500,992,992,992,992,992,992,992,992,-99,-99,-99,101.95,1019.5,3.72206918483964,19.58,-4.69,-8.76,-0.36,0.13,0,0
128,992,1500,1500,1500,992,992,992,992,992,992,992,992,-99,-99,-99,101.79,1017.9,16.9668761084284,19.58,-4.69,-8.76,-0.36,0.19,0.06,0
129,992,1500,1500,1500,992,992,992,992,992,992,992,992,-99,-99,-99,101.74,1017.4,21.1093354133369,19.39,-4.69,-8.76,-0.36,0.13,-0.06,0.13
130,992,1500,1500,1500,992,992,992,992,992,992,992,992,-99,-99,-99,101.74,1017.4,21.1093354133369,19.39,-4.69,-8.76,-0.36,0.06,0.06,0.06
131,992,1500,1500,1500,992,992,992,992,992,992,992,992,-99,-99,-99,101.79,1017.9,16.9668761084284,19.58,-4.69,-8.76,-0.36,0.06,-0.06,-0.06
132,992,1500,1500,1500,992,992,992,992,992,992,992,992,-99,-99,-99,101.79,1017.9,16.9668761084284,19.58,-4.69,-8.76,-0.36,0,0.13,-0.06
133,992,1500,1500,1500,992,992,992,992,992,992,992,992,-99,-99,-99,101.79,1017.9,16.9668761084284,19.58,-4.69,-8.76,-0.36,-0.06,0.06,-0.13
134,992,1500,1500,1500,992,992,992,992,992,992,992,992,-99,-99,-99,101.95,1019.5,3.72206918483964,19.58,-4.69,-8.76,-0.36,0.25,0.19,0.06
135,992,1500,1500,1500,992,992,992,992,992,992,992,992,-99,-99,-99,101.79,1017.9,16.9668761084284,19.58,-4.69,-8.76,-0.36,0,-0.06,0.06
136,992,1500,1500,1500,992,992,992,992,992,992,992,992,-99,-99,-99,101.95,1019.5,3.72206918483964,19.58,-4.69,-8.76,-0.36,-0.06,0,-0.06
137,992,1500,1500,1500,992,992,992,992,992,992,992,992,-99,-99,-99,101.62,1016.2,31.0579676267139,19.58,-4.69,-8.76,-0.36,0,0.13,-0.06
138,992,1500,1500,1500,992,992,992,992,992,992,992,992,-99,-99,-99,101.62,1016.2,31.0579676267139,19.58,-4.69,-8.76,-0.36,0,-0.06,0.06
139,992,1500,1500,1500,992,992,992,992,992,992,992,992,-99,-99,-99,101.95,1019.5,3.72206918483964,19.58,-4.69,-8.76,-0.36,-0.19,0.06,0
140,992,1500,1500,1500,992,992,992,992,992,992,992,992,-99,-99,-99,101.95,1019.5,3.72206918483964,19.58,-4.69,-8.76,-0.36,0.13,0,-0.06
141,992,1500,1500,1500,992,992,992,992,992,992,992,992,-99,-99,-99,101.79,1017.9,16.9668761084284,19.58,-4.69,-8.76,-0.36,0.13,-0.13,-0.06
142,992,1500,1500,1500,992,992,992,992,992,992,992,992,-99,-99,-99,101.79,1017.9,16.9668761084284,19.58,-4.69,-8.76,-0.36,-0.06,0.19,-0.13
143,992,1500,1500,1500,992,992,992,992,992,992,992,992,-99,-99,-99,101.79,1017.9,16.9668761084284,19.58,-4.69,-8.76,-0.36,0.19,-0.13,0.06
144,992,1500,1500,1500,992,992,992,992,992,992,992,992,-99,-99,-99,101.62,1016.2,31.0579676267139,19.58,-4.69,-8.76,-0.36,0.06,0,0.06
145.01,992,1500,1500,1500,992,992,992,992,992,992,992,992,-99,-99,-99,101.79,1017.9,16.9668761084284,19.58,-4.69,-8.76,-0.36,0.13,0.06,-0.06
146.01,992,1500,1500,1500,992,992,992,992,992,992,992,992,-99,-99,-99,101.79,1017.9,16.9668761084284,19.58,-4.69,-8.76,-0.36,-0.06,-0.06,-0.06
147.01,992,1500,1500,1500,992,992,992,992,992,992,992,992,-99,-99,-99,101.74,1017.4,21.1093354133369,19.39,-4.69,-8.76,-0.36,0.13,-0.13,0.19
148.01,992,1500,1500,1500,992,992,992,992,992,992,992,992,-99,-99,-99,101.62,1016.2,31.0579676267139,19.58,-4.69,-8.76,-0.36,0.06,0,0.13
149.01,992,1500,1500,1500,992,992,992,992,992,992,992,992,-99,-99,-99,101.79,1017.9,16.9668761084284,19.58,-4.69,-8.76,-0.36,0.06,-0.06,-0.13
150.01,992,1500,1500,1500,992,992,992,992,992,992,992,992,-99,-99,-99,101.79,1017.9,16.9668761084284,19.58,-4.69,-8.76,-0.36,0,0.06,-0.06
151.01,992,1500,1500,1500,992,992,992,992,992,992,992,992,-99,-99,-99,101.79,1017.9,16.9668761084284,19.58,-4.69,-8.76,-0.36,0.06,0.19,0
152.01,992,1500,1500,1500,992,992,992,992,992,992,992,992,-99,-99,-99,101.79,1017.9,16.9668761084284,19.58,-4.69,-8.76,-0.36,0,0,0
153.01,992,1500,1500,1500,992,992,992,992,992,992,992,992,-99,-99,-99,101.95,1019.5,3.72206918483964,19.58,-4.69,-8.76,-0.36,0.13,-0.06,0
154.01,992,1500,1500,1500,992,992,992,992,992,992,992,992,-99,-99,-99,101.74,1017.4,21.1093354133369,19.39,-4.69,-8.76,-0.36,-0.19,0,-0.06
155.01,992,1500,1500,1500,992,992,992,992,992,992,992,992,-99,-99,-99,101.62,1016.2,31.0579676267139,19.58,-4.69,-8.76,-0.36,0,0.13,0
156.01,992,1500,1500,1500,992,992,992,992,992,992,992,992,-99,-99,-99,101.62,1016.2,31.0579676267139,19.58,-4.69,-8.76,-0.36,-0.06,-0.06,0
157,992,1500,1500,1500,992,992,992,992,992,992,992,992,-99,-99,-99,101.62,1016.2,31.0579676267139,19.58,-4.69,-8.76,-0.36,-0.19,-0.06,-0.06
158,992,1500,1500,1500,992,992,992,992,992,992,992,992,-99,-99,-99,101.79,1017.9,16.9668761084284,19.58,-4.69,-8.76,-0.36,0.19,-0.06,0
159,992,1500,1500,1500,992,992,992,992,992,992,992,992,-99,-99,-99,101.79,1017.9,16.9668761084284,19.58,-4.69,-8.76,-0.36,0.06,0.13,0
160,992,1500,1500,1500,992,992,992,992,992,992,992,992,-99,-99,-99,101.79,1017.9,16.9668761084284,19.58,-4.69,-8.76,-0.36,0.06,0,-0.06
161,992,1500,1500,1500,992,992,992,992,992,992,992,992,-99,-99,-99,101.74,1017.4,21.1093354133369,19.39,-4.69,-8.76,-0.36,-0.19,0.13,0.13
162,992,1500,1500,1500,992,992,992,992,992,992,992,992,-99,-99,-99,101.83,1018.3,13.6540948127124,19.77,-4.69,-8.76,-0.36,0,-0.06,0
163,992,1500,1500,1500,992,992,992,992,992,992,992,992,-99,-99,-99,101.79,1017.9,16.9668761084284,19.58,-4.69,-8.76,-0.36,-0.06,0.06,0.13
164,992,1500,1500,1500,992,992,992,992,992,992,992,992,-99,-99,-99,101.95,1019.5,3.72206918483964,19.58,-4.69,-8.76,-0.36,0,0.19,0.06
165,992,1500,1500,1500,992,992,992,992,992,992,992,992,-99,-99,-99,101.79,1017.9,16.9668761084284,19.58,-4.69,-8.76,-0.36,0,-0.13,-0.06
166.01,992,1500,1500,1500,992,992,992,992,992,992,992,992,-99,-99,-99,101.79,1017.9,16.9668761084284,19.58,-4.69,-8.76,-0.36,0.06,0,0.06
167,992,1500,1500,1500,992,992,992,992,992,992,992,992,-99,-99,-99,101.79,1017.9,16.9668761084284,19.58,-4.69,-8.76,-0.36,0.06,0,0.06
168,992,1500,1500,1500,992,992,992,992,992,992,992,992,-99,-99,-99,101.62,1016.2,31.0579676267139,19.58,-4.69,-8.76,-0.36,0,0,0
169,992,1500,1500,1500,992,992,992,992,992,992,992,992,-99,-99,-99,101.74,1017.4,21.1093354133369,19.39,-4.69,-8.76,-0.36,0,0.06,-0.06
170,992,1500,1500,1500,992,992,992,992,992,992,992,992,-99,-99,-99,101.9,1019,7.85926218056033,19.39,-4.69,-8.76,-0.36,0.13,-0.13,0
171,992,1500,1500,1500,992,992,992,992,992,992,992,992,-99,-99,-99,101.9,1019,7.85926218056033,19.39,-4.69,-8.76,-0.36,-0.06,-0.13,0
172,992,1500,1500,1500,992,992,992,992,992,992,992,992,-99,-99,-99,101.74,1017.4,21.1093354133369,19.39,-4.69,-8.76,-0.36,0,0.19,0.06
173,992,1500,1500,1500,992,992,992,992,992,992,992,992,-99,-99,-99,101.79,1017.9,16.9668761084284,19.58,-4.69,-8.76,-0.36,-0.06,-0.06,0.13
174,992,1500,1500,1500,992,992,992,992,992,992,992,992,-99,-99,-99,101.79,1017.9,16.9668761084284,19.58,-4.69,-8.76,-0.36,-0.25,-0.06,-0.06
175,992,1500,1500,1500,992,992,992,992,992,992,992,992,-99,-99,-99,101.79,1017.9,16.9668761084284,19.58,-4.69,-8.76,-0.36,0.13,-0.13,0.06
176,992,1500,1500,1500,992,992,992,992,992,992,992,992,-99,-99,-99,101.9,1019,7.85926218056033,19.39,-4.69,-8.76,-0.36,0.06,0.13,-0.06
177,992,1500,1500,1500,992,992,992,992,992,992,992,992,-99,-99,-99,101.58,1015.8,34.3762923319299,19.39,-4.69,-8.76,-0.36,-0.19,0,0.06
178,992,1500,1500,1500,992,992,992,992,992,992,992,992,-99,-99,-99,101.95,1019.5,3.72206918483964,19.58,-4.69,-8.76,-0.36,-0.06,0,0
179.01,992,1500,1500,1500,992,992,992,992,992,992,992,992,-99,-99,-99,101.74,1017.4,21.1093354133369,19.39,-4.69,-8.76,-0.36,0,0,-0.06
180.01,992,1500,1500,1500,992,992,992,992,992,992,992,992,-99,-99,-99,101.79,1017.9,16.9668761084284,19.58,-4.69,-8.76,-0.36,-0.13,-0.06,-0.06
181.01,992,1500,1500,1500,992,992,992,992,992,992,992,992,-99,-99,-99,101.62,1016.2,31.0579676267139,19.58,-4.69,-8.76,-0.36,-0.13,0.13,0
182.01,992,1500,1500,1500,992,992,992,992,992,992,992,992,-99,-99,-99,101.83,1018.3,13.6540948127124,19.77,-4.69,-8.76,-0.36,0.13,-0.13,-0.06
183.01,992,1500,1500,1500,992,992,992,992,992,992,992,992,-99,-99,-99,101.9,1019,7.85926218056033,19.39,-4.69,-8.76,-0.36,0.13,-0.06,0.06
184.01,992,1500,1500,1500,992,992,992,992,992,992,992,992,-99,-99,-99,101.79,1017.9,16.9668761084284,19.58,-4.69,-8.76,-0.36,-0.13,-0.13,0
185.01,992,1500,1500,1500,992,992,992,992,992,992,992,992,-99,-99,-99,101.62,1016.2,31.0579676267139,19.58,-4.69,-8.76,-0.36,0,0.13,0
186.01,992,1500,1500,1500,992,992,992,992,992,992,992,992,-99,-99,-99,101.79,1017.9,16.9668761084284,19.58,-4.69,-8.76,-0.36,0.13,0,0
187.01,992,1500,1500,1500,992,992,992,992,992,992,992,992,-99,-99,-99,101.79,1017.9,16.9668761084284,19.58,-4.69,-8.76,-0.36,-0.13,0,0
188.01,992,1500,1500,1500,992,992,992,992,992,992,992,992,-99,-99,-99,101.9,1019,7.85926218056033,19.39,-4.69,-8.76,-0.36,-0.19,-0.13,0.06
189.01,992,1500,1500,1500,992,992,992,992,992,992,992,992,-99,-99,-99,101.9,1019,7.85926218056033,19.39,-4.69,-8.76,-0.36,0.31,0.13,0.06
190.01,992,1500,1500,1500,992,992,992,992,992,992,992,992,-99,-99,-99,101.79,1017.9,16.9668761084284,19.58,-4.69,-8.76,-0.36,0.13,0,0
191.01,992,1500,1500,1500,992,992,992,992,992,992,992,992,-99,-99,-99,101.79,1017.9,16.9668761084284,19.58,-4.69,-8.76,-0.36,0.13,-0.06,0.06
192.01,992,1500,1500,1500,992,992,992,992,992,992,992,992,-99,-99,-99,101.7,1017,24.4244899198904,19.21,-4.69,-8.76,-0.36,0.13,-0.06,0
193,992,1500,1500,1500,992,992,992,992,992,992,992,992,-99,-99,-99,101.74,1017.4,21.1093354133369,19.39,-4.69,-8.76,-0.36,-0.06,-0.13,0
194,992,1500,1500,1500,992,992,992,992,992,992,992,992,-99,-99,-99,101.79,1017.9,16.9668761084284,19.58,-4.69,-8.76,-0.36,0.19,0.13,0.06
195,992,1500,1500,1500,992,992,992,992,992,992,992,992,-99,-99,-99,101.79,1017.9,16.9668761084284,19.58,-4.69,-8.76,-0.36,0.13,-0.13,-0.06
196,992,1500,1500,1500,992,992,992,992,992,992,992,992,-99,-99,-99,101.79,1017.9,16.9668761084284,19.58,-4.69,-8.76,-0.36,0,0,-0.06
197,992,1500,1500,1500,992,992,992,992,992,992,992,992,-99,-99,-99,101.74,1017.4,21.1093354133369,19.39,-4.69,-8.76,-0.36,0,0,0
198,992,1500,1500,1500,992,992,992,992,992,992,992,992,-99,-99,-99,101.62,1016.2,31.0579676267139,19.58,-4.69,-8.76,-0.36,0,-0.19,0.06
199,992,1500,1500,1500,992,992,992,992,992,992,992,992,-99,-99,-99,101.79,1017.9,16.9668761084284,19.58,-4.69,-8.76,-0.36,-0.06,0.06,0
200,992,1500,1500,1500,992,992,992,992,992,992,992,992,-99,-99,-99,101.62,1016.2,31.0579676267139,19.58,-4.69,-8.76,-0.36,-0.06,0.06,0
201,992,1500,1500,1500,992,992,992,992,992,992,992,992,-99,-99,-99,101.95,1019.5,3.72206918483964,19.58,-4.69,-8.76,-0.36,0,0.06,0.06
202,992,1500,1500,1500,992,992,992,992,992,992,992,992,-99,-99,-99,101.79,1017.9,16.9668761084284,19.58,-4.69,-8.76,-0.36,-0.06,0.06,0.06
203,992,1500,1500,1500,992,992,992,992,992,992,992,992,-99,-99,-99,101.79,1017.9,16.9668761084284,19.58,-4.69,-8.76,-0.36,-0.06,-0.06,0.06
204,992,1500,1500,1500,992,992,992,992,992,992,992,992,-99,-99,-99,101.79,1017.9,16.9668761084284,19.58,-4.69,-8.76,-0.36,0.13,0.06,0.13
205,992,1500,1500,1500,992,992,992,992,992,992,992,992,-99,-99,-99,101.79,1017.9,16.9668761084284,19.58,-4.69,-8.76,-0.36,-0.25,0,0.06
206,992,1500,1500,1500,992,992,992,992,992,992,992,992,-99,-99,-99,101.7,1017,24.4244899198904,19.21,-4.69,-8.76,-0.36,0.06,0.06,0
207,992,1500,1500,1500,992,992,992,992,992,992,992,992,-99,-99,-99,101.79,1017.9,16.9668761084284,19.58,-4.69,-8.76,-0.36,0,-0.06,-0.06
208,992,1500,1500,1500,992,992,992,992,992,992,992,992,-99,-99,-99,101.74,1017.4,21.1093354133369,19.39,-4.69,-8.76,-0.36,-0.19,-0.06,-0.06
209,992,1500,1500,1500,992,992,992,992,992,992,992,992,-99,-99,-99,101.79,1017.9,16.9668761084284,19.58,-4.69,-8.76,-0.36,0,-0.06,0
210,992,1500,1500,1500,992,992,992,992,992,992,992,992,-99,-99,-99,101.79,1017.9,16.9668761084284,19.58,-4.69,-8.76,-0.36,-0.13,-0.13,-0.13
211,992,1500,1500,1500,992,992,992,992,992,992,992,992,-99,-99,-99,101.79,1017.9,16.9668761084284,19.58,-4.69,-8.76,-0.36,-0.13,0.06,0
212.01,992,1500,1500,1500,992,992,992,992,992,992,992,992,-99,-99,-99,101.79,1017.9,16.9668761084284,19.58,-4.69,-8.76,-0.36,-0.19,0.06,0.06
213.01,992,1500,1500,1500,992,992,992,992,992,992,992,992,-99,-99,-99,101.62,1016.2,31.0579676267139,19.58,-4.69,-8.76,-0.36,-0.06,0.06,0.13
214.01,992,1500,1500,1500,992,992,992,992,992,992,992,992,-99,-99,-99,101.95,1019.5,3.72206918483964,19.58,-4.69,-8.76,-0.36,-0.06,-0.06,-0.13
215.01,992,1500,1500,1500,992,992,992,992,992,992,992,992,-99,-99,-99,101.58,1015.8,34.3762923319299,19.39,-4.69,-8.76,-0.36,-0.19,-0.06,-0.06
216.01,992,1500,1500,1500,992,992,992,992,992,992,992,992,-99,-99,-99,101.79,1017.9,16.9668761084284,19.58,-4.69,-8.76,-0.36,0,-0.06,0.13
217.01,992,1500,1500,1500,992,992,992,992,992,992,992,992,-99,-99,-99,101.74,1017.4,21.1093354133369,19.39,-4.69,-8.76,-0.36,-0.06,0.06,0
218.01,992,1500,1500,1500,992,992,992,992,992,992,992,992,-99,-99,-99,101.79,1017.9,16.9668761084284,19.58,-4.69,-8.76,-0.36,0,-0.06,0.06
219.01,992,1500,1500,1500,992,992,992,992,992,992,992,992,-99,-99,-99,101.95,1019.5,3.72206918483964,19.58,-4.69,-8.76,-0.36,-0.06,0.06,0
220.01,992,1500,1500,1500,992,992,992,992,992,992,992,992,-99,-99,-99,101.74,1017.4,21.1093354133369,19.39,-4.69,-8.76,-0.36,0,-0.06,0
221.01,992,1500,1500,1500,992,992,992,992,992,992,992,992,-99,-99,-99,101.79,1017.9,16.9668761084284,19.58,-4.69,-8.76,-0.36,0.06,0.13,0.06
222.01,992,1500,1500,1500,992,992,992,992,992,992,992,992,-99,-99,-99,101.62,1016.2,31.0579676267139,19.58,-4.69,-8.76,-0.36,-0.06,0,-0.13
223.01,992,1500,1500,1500,992,992,992,992,992,992,992,992,-99,-99,-99,101.79,1017.9,16.9668761084284,19.58,-4.69,-8.76,-0.36,0.06,0,0.06
224.01,992,1500,1500,1500,992,992,992,992,992,992,992,992,-99,-99,-99,101.79,1017.9,16.9668761084284,19.58,-4.69,-8.76,-0.36,0.13,-0.06,-0.06
225.01,992,1500,1500,1500,992,992,992,992,992,992,992,992,-99,-99,-99,101.74,1017.4,21.1093354133369,19.39,-4.69,-8.76,-0.36,-0.13,0,0.06
226,992,1500,1500,1500,992,992,992,992,992,992,992,992,-99,-99,-99,101.62,1016.2,31.0579676267139,19.58,-4.69,-8.76,-0.36,0.06,-0.06,0.06
227,992,1500,1500,1500,992,992,992,992,992,992,992,992,-99,-99,-99,101.95,1019.5,3.72206918483964,19.58,-4.69,-8.76,-0.36,0,-0.06,0.06
228,992,1500,1500,1500,992,992,992,992,992,992,992,992,-99,-99,-99,101.79,1017.9,16.9668761084284,19.58,-4.69,-8.76,-0.36,-0.06,-0.06,0
229,992,1500,1500,1500,992,992,992,992,992,992,992,992,-99,-99,-99,101.74,1017.4,21.1093354133369,19.39,-4.69,-8.76,-0.36,0,0,0.06
230,992,1500,1500,1500,992,992,992,992,992,992,992,992,-99,-99,-99,101.83,1018.3,13.6540948127124,19.77,-4.69,-8.76,-0.36,0.06,0,0.06
231,992,1500,1500,1500,992,992,992,992,992,992,992,992,-99,-99,-99,101.74,1017.4,21.1093354133369,19.39,-4.69,-8.76,-0.36,0.25,0.06,0
232,992,1500,1500,1500,992,992,992,992,992,992,992,992,-99,-99,-99,101.79,1017.9,16.9668761084284,19.58,-4.69,-8.76,-0.36,0,0,0.06
233,992,1500,1500,1500,992,992,992,992,992,992,992,992,-99,-99,-99,101.95,1019.5,3.72206918483964,19.58,-4.69,-8.76,-0.36,0.13,-0.06,0.06
234,992,1500,1500,1500,992,992,992,992,992,992,992,992,-99,-99,-99,101.62,1016.2,31.0579676267139,19.58,-4.69,-8.76,-0.36,0,0.13,0
235,992,1500,1500,1500,992,992,992,992,992,992,992,992,-99,-99,-99,101.62,1016.2,31.0579676267139,19.58,-4.69,-8.76,-0.36,0.19,-0.19,0
236,992,1500,1500,1500,992,992,992,992,992,992,992,992,-99,-99,-99,101.79,1017.9,16.9668761084284,19.58,-4.69,-8.76,-0.36,0.13,0.06,0.06
237,992,1500,1500,1500,992,992,992,992,992,992,992,992,-99,-99,-99,101.95,1019.5,3.72206918483964,19.58,-4.69,-8.76,-0.36,0.19,-0.19,0.06
238,992,1500,1500,1500,992,992,992,992,992,992,992,992,-99,-99,-99,101.95,1019.5,3.72206918483964,19.58,-4.69,-8.76,-0.36,-0.19,-0.06,-0.06
239,992,1500,1500,1500,992,992,992,992,992,992,992,992,-99,-99,-99,101.74,1017.4,21.1093354133369,19.39,-4.69,-8.76,-0.36,0.13,-0.06,0.13
240,992,1500,1500,1500,992,992,992,992,992,992,992,992,-99,-99,-99,101.95,1019.5,3.72206918483964,19.58,-4.69,-8.76,-0.36,0.13,0.06,0
241,992,1500,1500,1500,992,992,992,992,992,992,992,992,-99,-99,-99,101.79,1017.9,16.9668761084284,19.58,-4.69,-8.76,-0.36,-0.13,0.06,0
242,992,1500,1500,1500,992,992,992,992,992,992,992,992,-99,-99,-99,101.79,1017.9,16.9668761084284,19.58,-4.69,-8.76,-0.36,-0.13,-0.06,-0.06
243,992,1500,1500,1500,992,992,992,992,992,992,992,992,-99,-99,-99,101.79,1017.9,16.9668761084284,19.58,-4.69,-8.76,-0.36,0.06,0,0.13
244.01,992,1500,1500,1500,992,992,992,992,992,992,992,992,-99,-99,-99,101.95,1019.5,3.72206918483964,19.58,-4.69,-8.76,-0.36,0.19,0.19,0.06
245.01,992,1500,1500,1500,992,992,992,992,992,992,992,992,-99,-99,-99,101.99,1019.9,0.413497569611544,19.77,-4.69,-8.76,-0.36,0.25,0.06,0.13
246.01,992,1500,1500,1500,992,992,992,992,992,992,992,992,-99,-99,-99,101.79,1017.9,16.9668761084284,19.58,-4.69,-8.76,-0.36,-0.06,-0.25,0
247.01,992,1500,1500,1500,992,992,992,992,992,992,992,992,-99,-99,-99,101.95,1019.5,3.72206918483964,19.58,-4.69,-8.76,-0.36,-0.06,0,-0.06
248.01,992,1500,1500,1500,992,992,992,992,992,992,992,992,-99,-99,-99,101.79,1017.9,16.9668761084284,19.58,-4.69,-8.76,-0.36,-0.13,-0.13,-0.06
249.01,992,1500,1500,1500,992,992,992,992,992,992,992,992,-99,-99,-99,101.74,1017.4,21.1093354133369,19.39,-4.69,-8.76,-0.36,-0.06,0,-0.13
250.01,992,1500,1500,1500,992,992,992,992,992,992,992,992,-99,-99,-99,101.79,1017.9,16.9668761084284,19.58,-4.69,-8.76,-0.36,-0.13,-0.06,0
251.01,992,1500,1500,1500,992,992,992,992,992,992,992,992,-99,-99,-99,101.95,1019.5,3.72206918483964,19.58,-4.69,-8.76,-0.36,-0.25,0.13,0
252.01,992,1500,1500,1500,992,992,992,992,992,992,992,992,-99,-99,-99,101.62,1016.2,31.0579676267139,19.58,-4.69,-8.76,-0.36,0.13,0,0
253,992,1500,1500,1500,992,992,992,992,992,992,992,992,-99,-99,-99,101.9,1019,7.85926218056033,19.39,-4.69,-8.76,-0.36,0.13,-0.06,0
254,992,1500,1500,1500,992,992,992,992,992,992,992,992,-99,-99,-99,101.58,1015.8,34.3762923319299,19.39,-4.69,-8.76,-0.36,-0.31,0,0.13
255,992,1500,1500,1500,992,992,992,992,992,992,992,992,-99,-99,-99,101.62,1016.2,31.0579676267139,19.58,-4.69,-8.76,-0.36,-0.06,-0.06,0.06
256,992,1500,1500,1500,992,992,992,992,992,992,992,992,-99,-99,-99,101.95,1019.5,3.72206918483964,19.58,-4.69,-8.76,-0.36,-0.06,0.13,0
257,992,1500,1500,1500,992,992,992,992,992,992,992,992,-99,-99,-99,101.79,1017.9,16.9668761084284,19.58,-4.69,-8.76,-0.36,0.13,-0.06,0
258,992,1500,1500,1500,992,992,992,992,992,992,992,992,-99,-99,-99,101.95,1019.5,3.72206918483964,19.58,-4.69,-8.76,-0.36,0,0,0.06
259,992,1500,1500,1500,992,992,992,992,992,992,992,992,-99,-99,-99,101.79,1017.9,16.9668761084284,19.58,-4.69,-8.76,-0.36,0.19,-0.06,0.13
260,992,1500,1500,1500,992,992,992,992,992,992,992,992,-99,-99,-99,101.62,1016.2,31.0579676267139,19.58,-4.69,-8.76,-0.36,-0.13,-0.06,-0.06
261,992,1500,1500,1500,992,992,992,992,992,992,992,992,-99,-99,-99,101.79,1017.9,16.9668761084284,19.58,-4.69,-8.76,-0.36,-0.19,-0.06,0.06
262,992,1500,1500,1500,992,992,992,992,992,992,992,992,-99,-99,-99,101.54,1015.4,37.6956752763608,19.21,-4.69,-8.76,-0.36,0.13,0,0.13
263,992,1500,1500,1500,992,992,992,992,992,992,992,992,-99,-99,-99,101.79,1017.9,16.9668761084284,19.58,-4.69,-8.76,-0.36,0,0,0.06
264,992,1500,1500,1500,992,992,992,992,992,992,992,992,-99,-99,-99,101.95,1019.5,3.72206918483964,19.58,-4.69,-8.76,-0.36,0.13,0,0.06
265,992,1500,1500,1500,992,992,992,992,992,992,992,992,-99,-99,-99,101.74,1017.4,21.1093354133369,19.39,-4.69,-8.76,-0.36,-0.06,0,-0.06
266,992,1500,1500,1500,992,992,992,992,992,992,992,992,-99,-99,-99,101.9,1019,7.85926218056033,19.39,-4.69,-8.76,-0.36,-0.13,0.13,0
267,992,1500,1500,1500,992,992,992,992,992,992,992,992,-99,-99,-99,101.95,1019.5,3.72206918483964,19.58,-4.69,-8.76,-0.36,-0.13,0,0.06
268.01,992,1500,1500,1500,992,992,992,992,992,992,992,992,-99,-99,-99,101.79,1017.9,16.9668761084284,19.58,-4.69,-8.76,-0.36,-0.06,0,-0.06
269.01,992,1500,1500,1500,992,992,992,992,992,992,992,992,-99,-99,-99,101.79,1017.9,16.9668761084284,19.58,-4.69,-8.76,-0.36,0.19,0.06,0
270.01,992,1500,1500,1500,992,992,992,992,992,992,992,992,-99,-99,-99,101.74,1017.4,21.1093354133369,19.39,-4.69,-8.76,-0.36,0.06,0.06,0.06
271.01,992,1500,1500,1500,992,992,992,992,992,992,992,992,-99,-99,-99,101.74,1017.4,21.1093354133369,19.39,-4.69,-8.76,-0.36,0,0,0.06
272.01,992,1500,1500,1500,992,992,992,992,992,992,992,992,-99,-99,-99,101.9,1019,7.85926218056033,19.39,-4.69,-8.76,-0.36,0,-0.06,0
273.01,992,1500,1500,1500,992,992,992,992,992,992,992,992,-99,-99,-99,101.95,1019.5,3.72206918483964,19.58,-4.69,-8.76,-0.36,0,0,0
274.01,992,1500,1500,1500,992,992,992,992,992,992,992,992,-99,-99,-99,101.79,1017.9,16.9668761084284,19.58,-4.69,-8.76,-0.36,0,0,0.06
275.01,992,1500,1500,1500,992,992,992,992,992,992,992,992,-99,-99,-99,101.74,1017.4,21.1093354133369,19.39,-4.69,-8.76,-0.36,0,-0.06,0
276.01,992,1500,1500,1500,992,992,992,992,992,992,992,992,-99,-99,-99,101.79,1017.9,16.9668761084284,19.58,-4.69,-8.76,-0.36,0,0.19,0.06
277.01,992,1500,1500,1500,992,992,992,992,992,992,992,992,-99,-99,-99,101.79,1017.9,16.9668761084284,19.58,-4.69,-8.76,-0.36,0.13,0.19,0
278.01,992,1500,1500,1500,992,992,992,992,992,992,992,992,-99,-99,-99,101.79,1017.9,16.9668761084284,19.58,-4.69,-8.76,-0.36,0.06,0.06,-0.13
279.01,992,1500,1500,1500,992,992,992,992,992,992,992,992,-99,-99,-99,101.79,1017.9,16.9668761084284,19.58,-4.69,-8.76,-0.36,0.13,-0.13,0.06
280,992,1500,1500,1500,992,992,992,992,992,992,992,992,-99,-99,-99,101.79,1017.9,16.9668761084284,19.58,-4.69,-8.76,-0.36,0.19,0.06,0.13
281,992,1500,1500,1500,992,992,992,992,992,992,992,992,-99,-99,-99,101.79,1017.9,16.9668761084284,19.58,-4.69,-8.76,-0.36,-0.06,0.06,0
282,992,1500,1500,1500,992,992,992,992,992,992,992,992,-99,-99,-99,101.74,1017.4,21.1093354133369,19.39,-4.69,-8.76,-0.36,-0.13,0,-0.13
283,992,1500,1500,1500,992,992,992,992,992,992,992,992,-99,-99,-99,101.74,1017.4,21.1093354133369,19.39,-4.69,-8.76,-0.36,-0.13,0,-0.06
284,992,1500,1500,1500,992,992,992,992,992,992,992,992,-99,-99,-99,101.62,1016.2,31.0579676267139,19.58,-4.69,-8.76,-0.36,0,-0.06,0.06
285,992,1500,1500,1500,992,992,992,992,992,992,992,992,-99,-99,-99,101.62,1016.2,31.0579676267139,19.58,-4.69,-8.76,-0.36,0.13,0.13,0.06
286,992,1500,1500,1500,992,992,992,992,992,992,992,992,-99,-99,-99,101.62,1016.2,31.0579676267139,19.58,-4.69,-8.76,-0.36,0.06,0,-0.06
287,992,1500,1500,1500,992,992,992,992,992,992,992,992,-99,-99,-99,101.79,1017.9,16.9668761084284,19.58,-4.69,-8.76,-0.36,-0.06,-0.06,0
288,992,1500,1500,1500,992,992,992,992,992,992,992,992,-99,-99,-99,101.79,1017.9,16.9668761084284,19.58,-4.69,-8.76,-0.36,-0.06,0.06,0
289,992,1500,1500,1500,992,992,992,992,992,992,992,992,-99,-99,-99,101.79,1017.9,16.9668761084284,19.58,-4.69,-8.76,-0.36,0,0.13,0
290,992,1500,1500,1500,992,992,992,992,992,992,992,992,-99,-99,-99,101.58,1015.8,34.3762923319299,19.39,-4.69,-8.76,-0.36,0.13,0,0
291,992,1500,1500,1500,992,992,992,992,992,992,992,992,-99,-99,-99,101.79,1017.9,16.9668761084284,19.58,-4.69,-8.76,-0.36,-0.13,0,0
292,992,1500,1500,1500,992,992,992,992,992,992,992,992,-99,-99,-99,101.79,1017.9,16.9668761084284,19.58,-4.69,-8.76,-0.36,0.13,0.06,0.13
293,992,1500,1500,1500,992,992,992,992,992,992,992,992,-99,-99,-99,101.95,1019.5,3.72206918483964,19.58,-4.69,-8.76,-0.36,0.06,0,0
294,992,1500,1500,1500,992,992,992,992,992,992,992,992,-99,-99,-99,101.74,1017.4,21.1093354133369,19.39,-4.69,-8.76,-0.36,0.06,0,0
295,992,1500,1500,1500,992,992,992,992,992,992,992,992,-99,-99,-99,101.95,1019.5,3.72206918483964,19.58,-4.69,-8.76,-0.36,0.06,-0.06,0
296,992,1500,1500,1500,992,992,992,992,992,992,992,992,-99,-99,-99,101.95,1019.5,3.72206918483964,19.58,-4.69,-8.76,-0.36,0.06,0.06,0
297,992,1500,1500,1500,992,992,992,992,992,992,992,992,-99,-99,-99,101.79,1017.9,16.9668761084284,19.58,-4.69,-8.76,-0.36,0.25,0.06,0
298.01,992,1500,1500,1500,992,992,992,992,992,992,992,992,-99,-99,-99,101.79,1017.9,16.9668761084284,19.58,-4.69,-8.76,-0.36,-0.06,-0.06,0.06
299.01,992,1500,1500,1500,992,992,992,992,992,992,992,992,-99,-99,-99,101.62,1016.2,31.0579676267139,19.58,-4.69,-8.76,-0.36,0.19,-0.13,0.06
300.01,992,1500,1500,1500,992,992,992,992,992,992,992,992,-99,-99,-99,101.62,1016.2,31.0579676267139,19.58,-4.69,-8.76,-0.36,0.13,0,0
301.01,992,1500,1500,1500,992,992,992,992,992,992,992,992,-99,-99,-99,101.9,1019,7.85926218056033,19.39,-4.69,-8.76,-0.36,0.19,0,0
302.01,992,1500,1500,1500,992,992,992,992,992,992,992,992,-99,-99,-99,101.95,1019.5,3.72206918483964,19.58,-4.69,-8.76,-0.36,0.19,-0.06,0.13
303.01,992,1500,1500,1500,992,992,992,992,992,992,992,992,-99,-99,-99,101.79,1017.9,16.9668761084284,19.58,-4.69,-8.76,-0.36,-0.06,0,-0.13
304.01,992,1500,1500,1500,992,992,992,992,992,992,992,992,-99,-99,-99,101.62,1016.2,31.0579676267139,19.58,-4.69,-8.76,-0.36,0.06,0.06,0.13
305.01,992,1500,1500,1500,992,992,992,992,992,992,992,992,-99,-99,-99,101.79,1017.9,16.9668761084284,19.58,-4.69,-8.76,-0.36,-0.06,0.25,0
306.01,992,1500,1500,1500,992,992,992,992,992,992,992,992,-99,-99,-99,101.58,1015.8,34.3762923319299,19.39,-4.69,-8.76,-0.36,0.19,-0.06,0
307.01,992,1500,1500,1500,992,992,992,992,992,992,992,992,-99,-99,-99,101.74,1017.4,21.1093354133369,19.39,-4.69,-8.76,-0.36,0,0.06,0.06
308,992,1500,1500,1500,992,992,992,992,992,992,992,992,-99,-99,-99,101.58,1015.8,34.3762923319299,19.39,-4.69,-8.76,-0.36,-0.06,-0.13,-0.13
309,992,1500,1500,1500,992,992,992,992,992,992,992,992,-99,-99,-99,101.7,1017,24.4244899198904,19.21,-4.69,-8.76,-0.36,-0.13,-0.06,0
310,992,1500,1500,1500,992,992,992,992,992,992,992,992,-99,-99,-99,101.79,1017.9,16.9668761084284,19.58,-4.69,-8.76,-0.36,0.31,-0.06,0.06
311,992,1500,1500,1500,992,992,992,992,992,992,992,992,-99,-99,-99,101.9,1019,7.85926218056033,19.39,-4.69,-8.76,-0.36,0.13,0.19,0.06
312.01,992,1500,1500,1500,992,992,992,992,992,992,992,992,-99,-99,-99,101.9,1019,7.85926218056033,19.39,-4.69,-8.76,-0.36,-0.06,0.13,0.06
313,992,1500,1500,1500,992,992,992,992,992,992,992,992,-99,-99,-99,101.95,1019.5,3.72206918483964,19.58,-4.69,-8.76,-0.36,-0.19,-0.06,0
314,992,1500,1500,1500,992,992,992,992,992,992,992,992,-99,-99,-99,101.74,1017.4,21.1093354133369,19.39,-4.69,-8.76,-0.36,0,0,0.06
315,992,1500,1500,1500,992,992,992,992,992,992,992,992,-99,-99,-99,101.79,1017.9,16.9668761084284,19.58,-4.69,-8.76,-0.36,0.13,-0.06,0.19
316,992,1500,1500,1500,992,992,992,992,992,992,992,992,-99,-99,-99,101.9,1019,7.85926218056033,19.39,-4.69,-8.76,-0.36,-0.13,0,0
317,992,1500,1500,1500,992,992,992,992,992,992,992,992,-99,-99,-99,101.79,1017.9,16.9668761084284,19.58,-4.69,-8.76,-0.36,0.19,-0.06,0
318,992,1500,1500,1500,992,992,992,992,992,992,992,992,-99,-99,-99,101.7,1017,24.4244899198904,19.21,-4.69,-8.76,-0.36,0.13,-0.19,-0.06
319,992,1500,1500,1500,992,992,992,992,992,992,992,992,-99,-99,-99,101.79,1017.9,16.9668761084284,19.58,-4.69,-8.76,-0.36,0.19,0.06,-0.06
320,992,1500,1500,1500,992,992,992,992,992,992,992,992,-99,-99,-99,101.79,1017.9,16.9668761084284,19.58,-4.69,-8.76,-0.36,0.19,0,0.06
321,992,1500,1500,1500,992,992,992,992,992,992,992,992,-99,-99,-99,101.95,1019.5,3.72206918483964,19.58,-4.69,-8.76,-0.36,0.25,0.13,0.06
322,992,1500,1500,1500,992,992,992,992,992,992,992,992,-99,-99,-99,101.95,1019.5,3.72206918483964,19.58,-4.69,-8.76,-0.36,-0.13,0.06,0
323,992,1500,1500,1500,992,992,992,992,992,992,992,992,-99,-99,-99,101.79,1017.9,16.9668761084284,19.58,-4.69,-8.76,-0.36,-0.19,-0.06,0
324.01,992,1500,1500,1500,992,992,992,992,992,992,992,992,-99,-99,-99,101.79,1017.9,16.9668761084284,19.58,-4.69,-8.76,-0.36,0.13,-0.06,0
325.01,992,1500,1500,1500,992,992,992,992,992,992,992,992,-99,-99,-99,101.74,1017.4,21.1093354133369,19.39,-4.69,-8.76,-0.36,-0.19,-0.13,0.06
326,992,1500,1500,1500,992,992,992,992,992,992,992,992,-99,-99,-99,101.95,1019.5,3.72206918483964,19.58,-4.69,-8.76,-0.36,0,-0.06,0.13
327.01,992,1500,1500,1500,992,992,992,992,992,992,992,992,-99,-99,-99,101.58,1015.8,34.3762923319299,19.39,-4.69,-8.76,-0.36,-0.19,-0.06,-0.06
328.01,992,1500,1500,1500,992,992,992,992,992,992,992,992,-99,-99,-99,101.79,1017.9,16.9668761084284,19.58,-4.69,-8.76,-0.36,0.06,0.13,0.06
329.01,992,1500,1500,1500,992,992,992,992,992,992,992,992,-99,-99,-99,101.58,1015.8,34.3762923319299,19.39,-4.69,-8.76,-0.36,0.06,0,0.06
330.01,992,1500,1500,1500,992,992,992,992,992,992,992,992,-99,-99,-99,101.9,1019,7.85926218056033,19.39,-4.69,-8.76,-0.36,0,0.13,-0.06
331.01,992,1500,1500,1500,992,992,992,992,992,992,992,992,-99,-99,-99,101.74,1017.4,21.1093354133369,19.39,-4.69,-8.76,-0.36,0.13,-0.06,0
332.01,992,1500,1500,1500,992,992,992,992,992,992,992,992,-99,-99,-99,101.74,1017.4,21.1093354133369,19.39,-4.69,-8.76,-0.36,0.13,0.06,0
333,992,1500,1500,1500,992,992,992,992,992,992,992,992,-99,-99,-99,101.9,1019,7.85926218056033,19.39,-4.69,-8.76,-0.36,0.19,0.06,0.06
334.01,992,1500,1500,1500,992,992,992,992,992,992,992,992,-99,-99,-99,101.62,1016.2,31.0579676267139,19.58,-4.69,-8.76,-0.36,0,0.06,0
335.01,992,1500,1500,1500,992,992,992,992,992,992,992,992,-99,-99,-99,101.95,1019.5,3.72206918483964,19.58,-4.69,-8.76,-0.36,0.31,-0.13,0.06
336.01,992,1500,1500,1500,992,992,992,992,992,992,992,992,-99,-99,-99,101.79,1017.9,16.9668761084284,19.58,-4.69,-8.76,-0.36,0,-0.06,0.06
337,992,1500,1500,1500,992,992,992,992,992,992,992,992,-99,-99,-99,101.58,1015.8,34.3762923319299,19.39,-4.69,-8.76,-0.36,-0.13,-0.06,-0.06
338,992,1500,1500,1500,992,992,992,992,992,992,992,992,-99,-99,-99,101.95,1019.5,3.72206918483964,19.58,-4.69,-8.76,-0.36,0.13,0.06,0.06
339,992,1500,1500,1500,992,992,992,992,992,992,992,992,-99,-99,-99,101.62,1016.2,31.0579676267139,19.58,-4.69,-8.76,-0.36,-0.06,0.13,0
340,992,1500,1500,1500,992,992,992,992,992,992,992,992,-99,-99,-99,101.79,1017.9,16.9668761084284,19.58,-4.69,-8.76,-0.36,0.13,0.19,0.19
341,992,1500,1500,1500,992,992,992,992,992,992,992,992,-99,-99,-99,101.79,1017.9,16.9668761084284,19.58,-4.69,-8.76,-0.36,0,0,0
342,992,1500,1500,1500,992,992,992,992,992,992,992,992,-99,-99,-99,101.95,1019.5,3.72206918483964,19.58,-4.69,-8.76,-0.36,0.13,-0.06,0
343,992,1500,1500,1500,992,992,992,992,992,992,992,992,-99,-99,-99,101.62,1016.2,31.0579676267139,19.58,-4.69,-8.76,-0.36,0,0.06,0
344,992,1500,1500,1500,992,992,992,992,992,992,992,992,-99,-99,-99,101.79,1017.9,16.9668761084284,19.58,-4.69,-8.76,-0.36,0.06,0,0
345,992,1500,1500,1500,992,992,992,992,992,992,992,992,-99,-99,-99,101.9,1019,7.85926218056033,19.39,-4.69,-8.76,-0.36,0,0,0
346,992,1500,1500,1500,992,992,992,992,992,992,992,992,-99,-99,-99,101.74,1017.4,21.1093354133369,19.39,-4.69,-8.76,-0.36,-0.06,0.25,-0.06
347.01,992,1500,1500,1500,992,992,992,992,992,992,992,992,-99,-99,-99,101.86,1018.6,11.1702002688761,19.21,-4.69,-8.76,-0.36,0.25,-0.06,-0.13
348,992,1500,1500,1500,992,992,992,992,992,992,992,992,-99,-99,-99,101.79,1017.9,16.9668761084284,19.58,-4.69,-8.76,-0.36,0.13,-0.06,0
349,992,1500,1500,1500,992,992,992,992,992,992,992,992,-99,-99,-99,101.79,1017.9,16.9668761084284,19.58,-4.69,-8.76,-0.36,0.13,0,0.06
350,992,1500,1500,1500,992,992,992,992,992,992,992,992,-99,-99,-99,101.62,1016.2,31.0579676267139,19.58,-4.69,-8.76,-0.36,0.13,-0.06,0.06
351,992,1500,1500,1500,992,992,992,992,992,992,992,992,-99,-99,-99,101.79,1017.9,16.9668761084284,19.58,-4.69,-8.76,-0.36,-0.13,0.06,0
352,992,1500,1500,1500,992,992,992,992,992,992,992,992,-99,-99,-99,101.74,1017.4,21.1093354133369,19.39,-4.69,-8.76,-0.36,0.06,-0.06,0.06
353,992,1500,1500,1500,992,992,992,992,992,992,992,992,-99,-99,-99,101.79,1017.9,16.9668761084284,19.58,-4.69,-8.76,-0.36,-0.06,0.06,0
354,992,1500,1500,1500,992,992,992,992,992,992,992,992,-99,-99,-99,101.58,1015.8,34.3762923319299,19.39,-4.69,-8.76,-0.36,0,-0.13,0
355.01,992,1500,1500,1500,992,992,992,992,992,992,992,992,-99,-99,-99,101.62,1016.2,31.0579676267139,19.58,-4.69,-8.76,-0.36,-0.06,0,0
356,992,1500,1500,1500,992,992,992,992,992,992,992,992,-99,-99,-99,101.95,1019.5,3.72206918483964,19.58,-4.69,-8.76,-0.36,0.19,0,0
357,992,1500,1500,1500,992,992,992,992,992,992,992,992,-99,-99,-99,101.79,1017.9,16.9668761084284,19.58,-4.69,-8.76,-0.36,0.13,0,0
358,992,1500,1500,1500,992,992,992,992,992,992,992,992,-99,-99,-99,101.95,1019.5,3.72206918483964,19.58,-4.69,-8.76,-0.36,0,0,0.06
359.01,992,1500,1500,1500,992,992,992,992,992,992,992,992,-99,-99,-99,101.79,1017.9,16.9668761084284,19.58,-4.69,-8.76,-0.36,-0.13,0.06,-0.06
360.01,992,1500,1500,1500,992,992,992,992,992,992,992,992,-99,-99,-99,101.79,1017.9,16.9668761084284,19.58,-4.69,-8.76,-0.36,-0.25,0,-0.06
361.01,992,1500,1500,1500,992,992,992,992,992,992,992,992,-99,-99,-99,101.74,1017.4,21.1093354133369,19.39,-4.69,-8.76,-0.36,0.06,0.06,0
362.01,992,1500,1500,1500,992,992,992,992,992,992,992,992,-99,-99,-99,101.95,1019.5,3.72206918483964,19.58,-4.69,-8.76,-0.36,0.06,0,-0.06
363.01,992,1500,1500,1500,992,992,992,992,992,992,992,992,-99,-99,-99,101.62,1016.2,31.0579676267139,19.58,-4.69,-8.76,-0.36,-0.13,0,-0.06
364.01,992,1500,1500,1500,992,992,992,992,992,992,992,992,-99,-99,-99,101.95,1019.5,3.72206918483964,19.58,-4.69,-8.76,-0.36,-0.19,-0.06,0
365.01,992,1500,1500,1500,992,992,992,992,992,992,992,992,-99,-99,-99,101.95,1019.5,3.72206918483964,19.58,-4.69,-8.76,-0.36,0.25,0,0
366.01,992,1500,1500,1500,992,992,992,992,992,992,992,992,-99,-99,-99,101.62,1016.2,31.0579676267139,19.58,-4.69,-8.76,-0.36,-0.06,-0.06,0.06
367.01,992,1500,1500,1500,992,992,992,992,992,992,992,992,-99,-99,-99,101.95,1019.5,3.72206918483964,19.58,-4.69,-8.76,-0.36,0.19,-0.06,-0.13
368.01,992,1500,1500,1500,992,992,992,992,992,992,992,992,-99,-99,-99,101.95,1019.5,3.72206918483964,19.58,-4.69,-8.76,-0.36,-0.13,0,0
369.01,992,1500,1500,1500,992,992,992,992,992,992,992,992,-99,-99,-99,101.9,1019,7.85926218056033,19.39,-4.69,-8.76,-0.36,0,0,-0.06
370.01,992,1500,1500,1500,992,992,992,992,992,992,992,992,-99,-99,-99,101.95,1019.5,3.72206918483964,19.58,-4.69,-8.76,-0.36,0,0.06,0.13
371.01,992,1500,1500,1500,992,992,992,992,992,992,992,992,-99,-99,-99,101.95,1019.5,3.72206918483964,19.58,-4.69,-8.76,-0.36,0,0.06,0
372.01,992,1500,1500,1500,992,992,992,992,992,992,992,992,-99,-99,-99,101.79,1017.9,16.9668761084284,19.58,-4.69,-8.76,-0.36,0,0.06,0.06
373,992,1500,1500,1500,992,992,992,992,992,992,992,992,-99,-99,-99,101.74,1017.4,21.1093354133369,19.39,-4.69,-8.76,-0.36,0.06,0.06,0.06
374,992,1500,1500,1500,992,992,992,992,992,992,992,992,-99,-99,-99,101.74,1017.4,21.1093354133369,19.39,-4.69,-8.76,-0.36,0.13,0.06,0.06
375,992,1500,1500,1500,992,992,992,992,992,992,992,992,-99,-99,-99,101.79,1017.9,16.9668761084284,19.58,-4.69,-8.76,-0.36,0,0,0
376,992,1500,1500,1500,992,992,992,992,992,992,992,992,-99,-99,-99,101.9,1019,7.85926218056033,19.39,-4.69,-8.76,-0.36,0,-0.13,0
377,992,1500,1500,1500,992,992,992,992,992,992,992,992,-99,-99,-99,101.79,1017.9,16.9668761084284,19.58,-4.69,-8.76,-0.36,0,0.06,0
378,992,1500,1500,1500,992,992,992,992,992,992,992,992,-99,-99,-99,101.95,1019.5,3.72206918483964,19.58,-4.69,-8.76,-0.36,0.06,0,0.06
379,992,1500,1500,1500,992,992,992,992,992,992,992,992,-99,-99,-99,101.9,1019,7.85926218056033,19.39,-4.69,-8.76,-0.36,0.06,0.06,0.19
380,992,1500,1500,1500,992,992,992,992,992,992,992,992,-99,-99,-99,101.79,1017.9,16.9668761084284,19.58,-4.69,-8.76,-0.36,0.13,0.06,-0.06
381,992,1500,1500,1500,992,992,992,992,992,992,992,992,-99,-99,-99,101.79,1017.9,16.9668761084284,19.58,-4.69,-8.76,-0.36,0.19,-0.06,0.06
382,992,1500,1500,1500,992,992,992,992,992,992,992,992,-99,-99,-99,101.54,1015.4,37.6956752763608,19.21,-4.69,-8.76,-0.36,-0.06,0.06,0.06
383,992,1500,1500,1500,992,992,992,992,992,992,992,992,-99,-99,-99,101.62,1016.2,31.0579676267139,19.58,-4.69,-8.76,-0.36,0.06,0.06,0
384,992,1500,1500,1500,992,992,992,992,992,992,992,992,-99,-99,-99,101.74,1017.4,21.1093354133369,19.39,-4.69,-8.76,-0.36,-0.06,0.19,0
385,992,1500,1500,1500,992,992,992,992,992,992,992,992,-99,-99,-99,101.79,1017.9,16.9668761084284,19.58,-4.69,-8.76,-0.36,-0.06,0.13,0.13
386,992,1500,1500,1500,992,992,992,992,992,992,992,992,-99,-99,-99,101.74,1017.4,21.1093354133369,19.39,-4.69,-8.76,-0.36,0,0,0
387,992,1500,1500,1500,992,992,992,992,992,992,992,992,-99,-99,-99,101.74,1017.4,21.1093354133369,19.39,-4.69,-8.76,-0.36,0.06,0,-0.06
388,992,1500,1500,1500,992,992,992,992,992,992,992,992,-99,-99,-99,101.74,1017.4,21.1093354133369,19.39,-4.69,-8.76,-0.36,-0.13,-0.13,-0.19
389,992,1500,1500,1500,992,992,992,992,992,992,992,992,-99,-99,-99,101.74,1017.4,21.1093354133369,19.39,-4.69,-8.76,-0.36,0.13,-0.06,0.13
390,992,1500,1500,1500,992,992,992,992,992,992,992,992,-99,-99,-99,101.79,1017.9,16.9668761084284,19.58,-4.69,-8.76,-0.36,0.06,0.13,0
391,992,1500,1500,1500,992,992,992,992,992,992,992,992,-99,-99,-99,101.58,1015.8,34.3762923319299,19.39,-4.69,-8.76,-0.36,0.06,0,-0.06
392,992,1500,1500,1500,992,992,992,992,992,992,992,992,-99,-99,-99,101.9,1019,7.85926218056033,19.39,-4.69,-8.76,-0.36,-0.19,0,0
393.01,992,1500,1500,1500,992,992,992,992,992,992,992,992,-99,-99,-99,101.74,1017.4,21.1093354133369,19.39,-4.69,-8.76,-0.36,0,-0.19,0.13
394,992,1500,1500,1500,992,992,992,992,992,992,992,992,-99,-99,-99,101.79,1017.9,16.9668761084284,19.58,-4.69,-8.76,-0.36,0.13,0.13,0.13
395,992,1500,1500,1500,992,992,992,992,992,992,992,992,-99,-99,-99,101.9,1019,7.85926218056033,19.39,-4.69,-8.76,-0.36,0.19,0,0
396,992,1500,1500,1500,992,992,992,992,992,992,992,992,-99,-99,-99,101.9,1019,7.85926218056033,19.39,-4.69,-8.76,-0.36,0,0.13,-0.06
397,992,1500,1500,1500,992,992,992,992,992,992,992,992,-99,-99,-99,101.9,1019,7.85926218056033,19.39,-4.69,-8.76,-0.36,0.06,-0.06,0
398,992,1500,1500,1500,992,992,992,992,992,992,992,992,-99,-99,-99,101.7,1017,24.4244899198904,19.21,-4.69,-8.76,-0.36,0,0.13,0.06
399,992,1500,1500,1500,992,992,992,992,992,992,992,992,-99,-99,-99,101.79,1017.9,16.9668761084284,19.58,-4.69,-8.76,-0.36,0,0,0
400,992,1500,1500,1500,992,992,992,992,992,992,992,992,-99,-99,-99,101.79,1017.9,16.9668761084284,19.58,-4.69,-8.76,-0.36,-0.25,-0.06,0.06
401,992,1500,1500,1500,992,992,992,992,992,992,992,992,-99,-99,-99,101.79,1017.9,16.9668761084284,19.58,-4.69,-8.76,-0.36,-0.31,-0.13,0
402.01,992,1500,1500,1500,992,992,992,992,992,992,992,992,-99,-99,-99,101.62,1016.2,31.0579676267139,19.58,-4.69,-8.76,-0.36,-0.06,-0.19,-0.06
403.01,992,1500,1500,1500,992,992,992,992,992,992,992,992,-99,-99,-99,101.9,1019,7.85926218056033,19.39,-4.69,-8.76,-0.36,-0.25,0.06,-0.06
404.01,992,1500,1500,1500,992,992,992,992,992,992,992,992,-99,-99,-99,101.62,1016.2,31.0579676267139,19.58,-4.69,-8.76,-0.36,0.06,0.06,0
405.01,992,1500,1500,1500,992,992,992,992,992,992,992,992,-99,-99,-99,101.74,1017.4,21.1093354133369,19.39,-4.69,-8.76,-0.36,-0.06,0,0.06
406.01,992,1500,1500,1500,992,992,992,992,992,992,992,992,-99,-99,-99,101.74,1017.4,21.1093354133369,19.39,-4.69,-8.76,-0.36,0,0.13,0
407.01,992,1500,1500,1500,992,992,992,992,992,992,992,992,-99,-99,-99,101.58,1015.8,34.3762923319299,19.39,-4.69,-8.76,-0.36,-0.31,0,0.13
408.01,992,1500,1500,1500,992,992,992,992,992,992,992,992,-99,-99,-99,101.95,1019.5,3.72206918483964,19.58,-4.69,-8.76,-0.36,0.19,0.13,0
409.01,992,1500,1500,1500,992,992,992,992,992,992,992,992,-99,-99,-99,101.62,1016.2,31.0579676267139,19.58,-4.69,-8.76,-0.36,0.19,0,0
410.01,992,1500,1500,1500,992,992,992,992,992,992,992,992,-99,-99,-99,101.79,1017.9,16.9668761084284,19.58,-4.69,-8.76,-0.36,0.06,-0.06,0.06
411.01,992,1500,1500,1500,992,992,992,992,992,992,992,992,-99,-99,-99,101.62,1016.2,31.0579676267139,19.58,-4.69,-8.76,-0.36,0,0,-0.06
412.01,992,1500,1500,1500,992,992,992,992,992,992,992,992,-99,-99,-99,101.9,1019,7.85926218056033,19.39,-4.69,-8.76,-0.36,-0.13,0,0.06
413.01,992,1500,1500,1500,992,992,992,992,992,992,992,992,-99,-99,-99,101.62,1016.2,31.0579676267139,19.58,-4.69,-8.76,-0.36,0.13,-0.06,0
414.01,992,1500,1500,1500,992,992,992,992,992,992,992,992,-99,-99,-99,101.74,1017.4,21.1093354133369,19.39,-4.69,-8.76,-0.36,0,-0.06,0
415.01,992,1500,1500,1500,992,992,992,992,992,992,992,992,-99,-99,-99,101.79,1017.9,16.9668761084284,19.58,-4.69,-8.76,-0.36,-0.19,0,0.06
416.01,992,1500,1500,1500,992,992,992,992,992,992,992,992,-99,-99,-99,101.7,1017,24.4244899198904,19.21,-4.69,-8.76,-0.36,0.06,0.06,0
417.01,992,1500,1500,1500,992,992,992,992,992,992,992,992,-99,-99,-99,101.58,1015.8,34.3762923319299,19.39,-4.69,-8.76,-0.36,0,0.13,-0.06
418,992,1500,1500,1500,992,992,992,992,992,992,992,992,-99,-99,-99,101.79,1017.9,16.9668761084284,19.58,-4.69,-8.76,-0.36,0.06,0.13,-0.06
419,992,1500,1500,1500,992,992,992,992,992,992,992,992,-99,-99,-99,101.74,1017.4,21.1093354133369,19.39,-4.69,-8.76,-0.36,-0.19,0.06,0.06
420,992,1500,1500,1500,992,992,992,992,992,992,992,992,-99,-99,-99,101.58,1015.8,34.3762923319299,19.39,-4.69,-8.76,-0.36,0.13,0,0
421,992,1500,1500,1500,992,992,992,992,992,992,992,992,-99,-99,-99,101.74,1017.4,21.1093354133369,19.39,-4.69,-8.76,-0.36,0,0.06,0
422,992,1500,1500,1500,992,992,992,992,992,992,992,992,-99,-99,-99,101.74,1017.4,21.1093354133369,19.39,-4.69,-8.76,-0.36,-0.06,-0.13,-0.06
423,992,1500,1500,1500,992,992,992,992,992,992,992,992,-99,-99,-99,101.79,1017.9,16.9668761084284,19.58,-4.69,-8.76,-0.36,-0.06,-0.06,-0.06
424,992,1500,1500,1500,992,992,992,992,992,992,992,992,-99,-99,-99,101.62,1016.2,31.0579676267139,19.58,-4.69,-8.76,-0.36,0.13,0.13,-0.06
425,992,1500,1500,1500,992,992,992,992,992,992,992,992,-99,-99,-99,101.79,1017.9,16.9668761084284,19.58,-4.69,-8.76,-0.36,0,-0.13,0
426,992,1500,1500,1500,992,992,992,992,992,992,992,992,-99,-99,-99,101.58,1015.8,34.3762923319299,19.39,-4.69,-8.76,-0.36,0.06,-0.13,0
427,992,1500,1500,1500,992,992,992,992,992,992,992,992,-99,-99,-99,101.86,1018.6,11.1702002688761,19.21,-4.69,-8.76,-0.36,0,-0.13,0.06
428,992,1500,1500,1500,992,992,992,992,992,992,992,992,-99,-99,-99,101.9,1019,7.85926218056033,19.39,-4.69,-8.76,-0.36,-0.25,-0.19,-0.13
429,992,1500,1500,1500,992,992,992,992,992,992,992,992,-99,-99,-99,101.9,1019,7.85926218056033,19.39,-4.69,-8.76,-0.36,-0.19,0.06,0.06
430,992,1500,1500,1500,992,992,992,992,992,992,992,992,-99,-99,-99,101.62,1016.2,31.0579676267139,19.58,-4.69,-8.76,-0.36,0.06,-0.13,0
431,992,1500,1500,1500,992,992,992,992,992,992,992,992,-99,-99,-99,101.79,1017.9,16.9668761084284,19.58,-4.69,-8.76,-0.36,0,-0.19,0
432,992,1500,1500,1500,992,992,992,992,992,992,992,992,-99,-99,-99,101.9,1019,7.85926218056033,19.39,-4.69,-8.76,-0.36,0,0,-0.13
433,992,1500,1500,1500,992,992,992,992,992,992,992,992,-99,-99,-99,101.79,1017.9,16.9668761084284,19.58,-4.69,-8.76,-0.36,0,0.06,0
434,992,1500,1500,1500,992,992,992,992,992,992,992,992,-99,-99,-99,101.86,1018.6,11.1702002688761,19.21,-4.69,-8.76,-0.36,0,-0.13,0
435,992,1500,1500,1500,992,992,992,992,992,992,992,992,-99,-99,-99,101.74,1017.4,21.1093354133369,19.39,-4.69,-8.76,-0.36,0,-0.13,-0.06
436,992,1500,1500,1500,992,992,992,992,992,992,992,992,-99,-99,-99,101.79,1017.9,16.9668761084284,19.58,-4.69,-8.76,-0.36,0.13,0.06,0
437,992,1500,1500,1500,992,992,992,992,992,992,992,992,-99,-99,-99,101.74,1017.4,21.1093354133369,19.39,-4.69,-8.76,-0.36,-0.06,-0.06,0.06
