Time (sec) ,Sense X(m) ,Sense Y(m) ,Sense Z(m) ,Sense Roll (deg) ,Sense Pitch (deg) ,Sense Compass (deg) ,Sense U(m/s) ,Sense V(m/s) ,Sense W(m/s) ,Sense P(rad/s) ,Sense Q(rad/s) ,Sense R(rad/s) ,Sense Mx(Gauss) ,Sense My(Gauss) ,Sense Mz(Gauss) ,Sense GPS Latitude (deg) ,Sense GPS Longitude (deg) ,Sense GPS Altitude (m) ,Sense GPS Heading (deg) ,Sense IMU Heading (deg) ,Sense Analog 1 (V) ,Sense Analog 2 (V) ,Sense Analog 3 (V) ,Sense Analog 4 (V) ,Sense Analog 5 (V) ,Sense Analog 6 (V) ,Sense Pressure (Pa) ,Sense Pressure Altitude (m) ,Sense Temperature (C) ,RC Channel #1 ,RC Channel #2 ,RC Channel #3 ,RC Channel #4 ,RC Channel #5 ,PWM Hardware Out 1 ,PWM Hardware Out 2 ,PWM Hardware Out 3 
 0.000000,6871393.000000,0.000000,-0.000000,0.000000,0.000000,0.000000,0.000000,0.000000,0.000000,0.200000,0.200000,0.200000,0.000000,0.000000,0.000000,0.000000,0.000000,500000.000000,0.000000,0.000000,-99.000000,-99.000000,-99.000000,-99.000000,-99.000000,-99.000000,1013.250000,0.000000,25.500000,992,1500,1500,1500,992,1500,1500,1500
0.010100,6871393.000000,0.000000,-0.000000,0.118104,0.119029,0.114643,0.000000,0.000000,0.000000,0.211770,0.215846,0.199743,0.000000,0.000000,0.000000,0.000000,0.000000,500000.000000,0.000000,0.114643,-99.000000,-99.000000,-99.000000,-99.000000,-99.000000,-99.000000,1013.250000,0.000000,25.500000,992,1500,1500,1500,992,1501,1503,1500
0.020200,6871393.000000,0.000000,-0.000000,0.244348,0.248126,0.230558,0.000000,0.000000,0.000000,0.223189,0.231532,0.199449,0.000000,0.000000,0.000000,0.000000,0.000000,500000.000000,0.000000,0.230558,-99.000000,-99.000000,-99.000000,-99.000000,-99.000000,-99.000000,1013.250000,0.000000,25.500000,992,1500,1500,1500,992,1501,1503,1500
0.030300,6871393.000000,0.000000,-0.000000,0.377341,0.385946,0.346635,0.000000,0.000000,0.000000,0.234156,0.246904,0.199118,0.000000,0.000000,0.000000,0.000000,0.000000,500000.000000,0.000000,0.346635,-99.000000,-99.000000,-99.000000,-99.000000,-99.000000,-99.000000,1013.250000,0.000000,25.500000,992,1500,1500,1500,992,1501,1503,1500
0.040300,6871393.000000,0.000000,-0.000000,0.515430,0.530808,0.461754,0.000000,0.000000,0.000000,0.244586,0.261821,0.198753,0.000000,0.000000,0.000000,0.000000,0.000000,500000.000000,0.000000,0.461754,-99.000000,-99.000000,-99.000000,-99.000000,-99.000000,-99.000000,1013.250000,0.000000,25.500000,992,1500,1500,1500,992,1501,1502,1500
0.050300,6871393.000000,0.000000,-0.000000,0.659678,0.683849,0.577100,0.000000,0.000000,0.000000,0.254607,0.276442,0.198351,0.000000,0.000000,0.000000,0.000000,0.000000,500000.000000,0.000000,0.577100,-99.000000,-99.000000,-99.000000,-99.000000,-99.000000,-99.000000,1013.250000,0.000000,25.500000,992,1500,1500,1500,992,1501,1502,1500
0.060300,6871393.000000,0.000000,-0.000000,0.809875,0.844890,0.692708,0.000000,0.000000,0.000000,0.264234,0.290774,0.197910,0.000000,0.000000,0.000000,0.000000,0.000000,500000.000000,0.000000,0.692708,-99.000000,-99.000000,-99.000000,-99.000000,-99.000000,-99.000000,1013.250000,0.000000,25.500000,992,1500,1500,1500,992,1501,1502,1500
0.070300,6871393.000000,0.000000,-0.000000,0.965816,1.013755,0.808613,0.000000,0.000000,0.000000,0.273484,0.304822,0.197431,0.000000,0.000000,0.000000,0.000000,0.000000,500000.000000,0.000000,0.808613,-99.000000,-99.000000,-99.000000,-99.000000,-99.000000,-99.000000,1013.250000,0.000000,25.500000,992,1500,1500,1500,992,1501,1502,1500
0.080300,6871393.000000,0.000000,-0.000000,1.127308,1.190271,0.924851,0.000000,0.000000,0.000000,0.282371,0.318592,0.196912,0.000000,0.000000,0.000000,0.000000,0.000000,500000.000000,0.000000,0.924851,-99.000000,-99.000000,-99.000000,-99.000000,-99.000000,-99.000000,1013.250000,0.000000,25.500000,992,1500,1500,1500,992,1501,1502,1500
0.090300,6871393.000000,0.000000,-0.000000,1.294166,1.374268,1.041458,0.000000,0.000000,0.000000,0.290910,0.332089,0.196353,0.000000,0.000000,0.000000,0.000000,0.000000,500000.000000,0.000000,1.041458,-99.000000,-99.000000,-99.000000,-99.000000,-99.000000,-99.000000,1013.250000,0.000000,25.500000,992,1500,1500,1500,992,1501,1502,1500
0.100300,6871393.000000,0.000000,-0.000000,1.466211,1.565583,1.158472,0.000000,0.000000,0.000000,0.299113,0.345318,0.195755,0.000000,0.000000,0.000000,0.000000,0.000000,500000.000000,0.000000,1.158472,-99.000000,-99.000000,-99.000000,-99.000000,-99.000000,-99.000000,1013.250000,0.000000,25.500000,992,1500,1500,1500,992,1501,1502,1500
0.110300,6871393.000000,0.000000,-0.000000,1.643275,1.764051,1.275928,0.000000,0.000000,0.000000,0.306995,0.358286,0.195116,0.000000,0.000000,0.000000,0.000000,0.000000,500000.000000,0.000000,1.275928,-99.000000,-99.000000,-99.000000,-99.000000,-99.000000,-99.000000,1013.250000,0.000000,25.500000,992,1500,1500,1500,992,1501,1502,1500
0.120300,6871393.000000,0.000000,-0.000000,1.825194,1.969515,1.393864,0.000000,0.000000,0.000000,0.314567,0.370996,0.194437,0.000000,0.000000,0.000000,0.000000,0.000000,500000.000000,0.000000,1.393864,-99.000000,-99.000000,-99.000000,-99.000000,-99.000000,-99.000000,1013.250000,0.000000,25.500000,992,1500,1500,1500,992,1501,1502,1500
0.130400,6871393.000000,0.000000,-0.000000,2.013705,2.183975,1.513504,0.000000,0.000000,0.000000,0.321913,0.383579,0.193711,0.000000,0.000000,0.000000,0.000000,0.000000,500000.000000,0.000000,1.513504,-99.000000,-99.000000,-99.000000,-99.000000,-99.000000,-99.000000,1013.250000,0.000000,25.500000,992,1500,1500,1500,992,1500,1502,1500
0.140500,6871393.000000,0.000000,-0.000000,2.206859,2.405230,1.633707,0.000000,0.000000,0.000000,0.328969,0.395746,0.192944,0.000000,0.000000,0.000000,0.000000,0.000000,500000.000000,0.000000,1.633707,-99.000000,-99.000000,-99.000000,-99.000000,-99.000000,-99.000000,1013.250000,0.000000,25.500000,992,1500,1500,1500,992,1500,1502,1500
0.150600,6871393.000000,0.000000,-0.000000,2.404511,2.632918,1.754505,0.000000,0.000000,0.000000,0.335745,0.407189,0.192137,0.000000,0.000000,0.000000,0.000000,0.000000,500000.000000,0.000000,1.754505,-99.000000,-99.000000,-99.000000,-99.000000,-99.000000,-99.000000,1013.250000,0.000000,25.500000,992,1500,1500,1500,992,1500,1502,1500
0.160700,6871393.000000,0.000000,-0.000000,2.606522,2.866619,1.875921,0.000000,0.000000,0.000000,0.342252,0.417941,0.191291,0.000000,0.000000,0.000000,0.000000,0.000000,500000.000000,0.000000,1.875921,-99.000000,-99.000000,-99.000000,-99.000000,-99.000000,-99.000000,1013.250000,0.000000,25.500000,992,1500,1500,1500,992,1500,1502,1500
0.170800,6871393.000000,0.000000,-0.000000,2.812758,3.105936,1.997981,0.000000,0.000000,0.000000,0.348502,0.428045,0.190407,0.000000,0.000000,0.000000,0.000000,0.000000,500000.000000,0.000000,1.997981,-99.000000,-99.000000,-99.000000,-99.000000,-99.000000,-99.000000,1013.250000,0.000000,25.500000,992,1500,1500,1500,992,1500,1502,1500
0.180900,6871393.000000,0.000000,-0.000000,3.023090,3.350497,2.120706,0.000000,0.000000,0.000000,0.354504,0.437540,0.189487,0.000000,0.000000,0.000000,0.000000,0.000000,500000.000000,0.000000,2.120706,-99.000000,-99.000000,-99.000000,-99.000000,-99.000000,-99.000000,1013.250000,0.000000,25.500000,992,1500,1500,1500,992,1500,1501,1500
0.191000,6871393.000000,0.000000,-0.000000,3.237396,3.599949,2.244117,0.000000,0.000000,0.000000,0.360268,0.446460,0.188531,0.000000,0.000000,0.000000,0.000000,0.000000,500000.000000,0.000000,2.244117,-99.000000,-99.000000,-99.000000,-99.000000,-99.000000,-99.000000,1013.250000,0.000000,25.500000,992,1500,1500,1500,992,1500,1501,1500
0.201100,6871393.000000,0.000000,-0.000000,3.455559,3.853963,2.368234,0.000000,0.000000,0.000000,0.365804,0.454836,0.187542,0.000000,0.000000,0.000000,0.000000,0.000000,500000.000000,0.000000,2.368234,-99.000000,-99.000000,-99.000000,-99.000000,-99.000000,-99.000000,1013.250000,0.000000,25.500000,992,1500,1500,1500,992,1500,1501,1500
0.211200,6871393.000000,0.000000,-0.000000,3.677465,4.112223,2.493076,0.000000,0.000000,0.000000,0.371121,0.462699,0.186519,0.000000,0.000000,0.000000,0.000000,0.000000,500000.000000,0.000000,2.493076,-99.000000,-99.000000,-99.000000,-99.000000,-99.000000,-99.000000,1013.250000,0.000000,25.500000,992,1500,1500,1500,992,1500,1501,1500
0.221300,6871393.000000,0.000000,-0.000000,3.903007,4.374434,2.618660,0.000000,0.000000,0.000000,0.376227,0.470075,0.185465,0.000000,0.000000,0.000000,0.000000,0.000000,500000.000000,0.000000,2.618660,-99.000000,-99.000000,-99.000000,-99.000000,-99.000000,-99.000000,1013.250000,0.000000,25.500000,992,1500,1500,1500,992,1500,1501,1500
0.231400,6871393.000000,0.000000,-0.000000,4.132082,4.640312,2.745002,0.000000,0.000000,0.000000,0.381130,0.476988,0.184380,0.000000,0.000000,0.000000,0.000000,0.000000,500000.000000,0.000000,2.745002,-99.000000,-99.000000,-99.000000,-99.000000,-99.000000,-99.000000,1013.250000,0.000000,25.500000,992,1500,1500,1500,992,1500,1501,1500
0.241500,6871393.000000,0.000000,-0.000000,4.364590,4.909590,2.872117,0.000000,0.000000,0.000000,0.385840,0.483464,0.183266,0.000000,0.000000,0.000000,0.000000,0.000000,500000.000000,0.000000,2.872117,-99.000000,-99.000000,-99.000000,-99.000000,-99.000000,-99.000000,1013.250000,0.000000,25.500000,992,1500,1500,1500,992,1500,1501,1500
0.251600,6871393.000000,0.000000,-0.000000,4.600437,5.182013,3.000018,0.000000,0.000000,0.000000,0.390363,0.489522,0.182124,0.000000,0.000000,0.000000,0.000000,0.000000,500000.000000,0.000000,3.000018,-99.000000,-99.000000,-99.000000,-99.000000,-99.000000,-99.000000,1013.250000,0.000000,25.500000,992,1500,1500,1500,992,1500,1501,1500
0.261700,6871393.000000,0.000000,-0.000000,4.839532,5.457339,3.128718,0.000000,0.000000,0.000000,0.394706,0.495183,0.180955,0.000000,0.000000,0.000000,0.000000,0.000000,500000.000000,0.000000,3.128718,-99.000000,-99.000000,-99.000000,-99.000000,-99.000000,-99.000000,1013.250000,0.000000,25.500000,992,1500,1500,1500,992,1500,1501,1500
0.271800,6871393.000000,0.000000,-0.000000,5.081789,5.735338,3.258229,0.000000,0.000000,0.000000,0.398878,0.500465,0.179761,0.000000,0.000000,0.000000,0.000000,0.000000,500000.000000,0.000000,3.258229,-99.000000,-99.000000,-99.000000,-99.000000,-99.000000,-99.000000,1013.250000,0.000000,25.500000,992,1500,1500,1500,992,1500,1501,1500
0.281900,6871393.000000,0.000000,-0.000000,5.327123,6.015787,3.388561,0.000000,0.000000,0.000000,0.402884,0.505386,0.178541,0.000000,0.000000,0.000000,0.000000,0.000000,500000.000000,0.000000,3.388561,-99.000000,-99.000000,-99.000000,-99.000000,-99.000000,-99.000000,1013.250000,0.000000,25.500000,992,1500,1500,1500,992,1500,1501,1500
0.292000,6871393.000000,0.000000,-0.000000,5.575455,6.298479,3.519724,0.000000,0.000000,0.000000,0.406732,0.509962,0.177298,0.000000,0.000000,0.000000,0.000000,0.000000,500000.000000,0.000000,3.519724,-99.000000,-99.000000,-99.000000,-99.000000,-99.000000,-99.000000,1013.250000,0.000000,25.500000,992,1500,1500,1500,992,1500,1501,1500
0.302100,6871393.000000,0.000000,-0.000000,5.826710,6.583210,3.651725,0.000000,0.000000,0.000000,0.410427,0.514208,0.176033,0.000000,0.000000,0.000000,0.000000,0.000000,500000.000000,0.000000,3.651725,-99.000000,-99.000000,-99.000000,-99.000000,-99.000000,-99.000000,1013.250000,0.000000,25.500000,992,1500,1500,1500,992,1500,1501,1500
0.312200,6871393.000000,0.000000,-0.000000,6.080813,6.869789,3.784573,0.000000,0.000000,0.000000,0.413975,0.518139,0.174746,0.000000,0.000000,0.000000,0.000000,0.000000,500000.000000,0.000000,3.784573,-99.000000,-99.000000,-99.000000,-99.000000,-99.000000,-99.000000,1013.250000,0.000000,25.500000,992,1500,1500,1500,992,1500,1501,1500
0.322300,6871393.000000,0.000000,-0.000000,6.337694,7.158033,3.918274,0.000000,0.000000,0.000000,0.417384,0.521768,0.173438,0.000000,0.000000,0.000000,0.000000,0.000000,500000.000000,0.000000,3.918274,-99.000000,-99.000000,-99.000000,-99.000000,-99.000000,-99.000000,1013.250000,0.000000,25.500000,992,1500,1500,1500,992,1500,1501,1500
0.332400,6871393.000000,0.000000,-0.000000,6.597287,7.447764,4.052833,0.000000,0.000000,0.000000,0.420657,0.525108,0.172112,0.000000,0.000000,0.000000,0.000000,0.000000,500000.000000,0.000000,4.052833,-99.000000,-99.000000,-99.000000,-99.000000,-99.000000,-99.000000,1013.250000,0.000000,25.500000,992,1500,1500,1500,992,1500,1500,1500
0.342500,6871393.000000,0.000000,-0.000000,6.859526,7.738814,4.188256,0.000000,0.000000,0.000000,0.423800,0.528170,0.170767,0.000000,0.000000,0.000000,0.000000,0.000000,500000.000000,0.000000,4.188256,-99.000000,-99.000000,-99.000000,-99.000000,-99.000000,-99.000000,1013.250000,0.000000,25.500000,992,1500,1500,1500,992,1500,1500,1500
0.352600,6871393.000000,0.000000,-0.000000,7.124350,8.031021,4.324546,0.000000,0.000000,0.000000,0.426819,0.530967,0.169405,0.000000,0.000000,0.000000,0.000000,0.000000,500000.000000,0.000000,4.324546,-99.000000,-99.000000,-99.000000,-99.000000,-99.000000,-99.000000,1013.250000,0.000000,25.500000,992,1500,1500,1500,992,1500,1500,1500
0.362700,6871393.000000,0.000000,-0.000000,7.391699,8.324229,4.461705,0.000000,0.000000,0.000000,0.429718,0.533508,0.168026,0.000000,0.000000,0.000000,0.000000,0.000000,500000.000000,0.000000,4.461705,-99.000000,-99.000000,-99.000000,-99.000000,-99.000000,-99.000000,1013.250000,0.000000,25.500000,992,1500,1500,1500,992,1500,1500,1500
0.372800,6871393.000000,0.000000,-0.000000,7.661517,8.618291,4.599737,0.000000,0.000000,0.000000,0.432503,0.535805,0.166632,0.000000,0.000000,0.000000,0.000000,0.000000,500000.000000,0.000000,4.599737,-99.000000,-99.000000,-99.000000,-99.000000,-99.000000,-99.000000,1013.250000,0.000000,25.500000,992,1500,1500,1500,992,1500,1500,1500
0.382900,6871393.000000,0.000000,-0.000000,7.933748,8.913062,4.738642,0.000000,0.000000,0.000000,0.435177,0.537865,0.165223,0.000000,0.000000,0.000000,0.000000,0.000000,500000.000000,0.000000,4.738642,-99.000000,-99.000000,-99.000000,-99.000000,-99.000000,-99.000000,1013.250000,0.000000,25.500000,992,1500,1500,1500,992,1500,1500,1500
0.393000,6871393.000000,0.000000,-0.000000,8.208341,9.208405,4.878421,0.000000,0.000000,0.000000,0.437745,0.539700,0.163801,0.000000,0.000000,0.000000,0.000000,0.000000,500000.000000,0.000000,4.878421,-99.000000,-99.000000,-99.000000,-99.000000,-99.000000,-99.000000,1013.250000,0.000000,25.500000,992,1500,1500,1500,992,1500,1500,1500
0.403100,6871393.000000,0.000000,-0.000000,8.485243,9.504188,5.019074,0.000000,0.000000,0.000000,0.440211,0.541317,0.162366,0.000000,0.000000,0.000000,0.000000,0.000000,500000.000000,0.000000,5.019074,-99.000000,-99.000000,-99.000000,-99.000000,-99.000000,-99.000000,1013.250000,0.000000,25.500000,992,1500,1500,1500,992,1500,1500,1500
0.413200,6871393.000000,0.000000,-0.000000,8.764407,9.800284,5.160599,0.000000,0.000000,0.000000,0.442580,0.542724,0.160919,0.000000,0.000000,0.000000,0.000000,0.000000,500000.000000,0.000000,5.160599,-99.000000,-99.000000,-99.000000,-99.000000,-99.000000,-99.000000,1013.250000,0.000000,25.500000,992,1500,1500,1500,992,1500,1500,1500
0.423300,6871393.000000,0.000000,-0.000000,9.045786,10.096570,5.302995,0.000000,0.000000,0.000000,0.444855,0.543930,0.159461,0.000000,0.000000,0.000000,0.000000,0.000000,500000.000000,0.000000,5.302995,-99.000000,-99.000000,-99.000000,-99.000000,-99.000000,-99.000000,1013.250000,0.000000,25.500000,992,1500,1500,1500,992,1500,1500,1500
0.433400,6871393.000000,0.000000,-0.000000,9.329335,10.392930,5.446259,0.000000,0.000000,0.000000,0.447040,0.544942,0.157992,0.000000,0.000000,0.000000,0.000000,0.000000,500000.000000,0.000000,5.446259,-99.000000,-99.000000,-99.000000,-99.000000,-99.000000,-99.000000,1013.250000,0.000000,25.500000,992,1500,1500,1500,992,1500,1500,1500
0.443500,6871393.000000,0.000000,-0.000000,9.615010,10.689250,5.590389,0.000000,0.000000,0.000000,0.449138,0.545767,0.156514,0.000000,0.000000,0.000000,0.000000,0.000000,500000.000000,0.000000,5.590389,-99.000000,-99.000000,-99.000000,-99.000000,-99.000000,-99.000000,1013.250000,0.000000,25.500000,992,1500,1500,1500,992,1500,1500,1500
0.453600,6871393.000000,0.000000,-0.000000,9.902769,10.985422,5.735380,0.000000,0.000000,0.000000,0.451153,0.546411,0.155028,0.000000,0.000000,0.000000,0.000000,0.000000,500000.000000,0.000000,5.735380,-99.000000,-99.000000,-99.000000,-99.000000,-99.000000,-99.000000,1013.250000,0.000000,25.500000,992,1500,1500,1500,992,1500,1500,1500
0.463700,6871393.000000,0.000000,-0.000000,10.192572,11.281340,5.881227,0.000000,0.000000,0.000000,0.453088,0.546883,0.153533,0.000000,0.000000,0.000000,0.000000,0.000000,500000.000000,0.000000,5.881227,-99.000000,-99.000000,-99.000000,-99.000000,-99.000000,-99.000000,1013.250000,0.000000,25.500000,992,1500,1500,1500,992,1500,1500,1500
0.473800,6871393.000000,0.000000,-0.000000,10.484380,11.576903,6.027925,0.000000,0.000000,0.000000,0.454947,0.547186,0.152031,0.000000,0.000000,0.000000,0.000000,0.000000,500000.000000,0.000000,6.027925,-99.000000,-99.000000,-99.000000,-99.000000,-99.000000,-99.000000,1013.250000,0.000000,25.500000,992,1500,1500,1500,992,1500,1500,1500
0.483900,6871393.000000,0.000000,-0.000000,10.778154,11.872016,6.175469,0.000000,0.000000,0.000000,0.456732,0.547329,0.150522,0.000000,0.000000,0.000000,0.000000,0.000000,500000.000000,0.000000,6.175469,-99.000000,-99.000000,-99.000000,-99.000000,-99.000000,-99.000000,1013.250000,0.000000,25.500000,992,1500,1500,1500,992,1500,1500,1500
0.494000,6871393.000000,0.000000,-0.000000,11.073858,12.166584,6.323852,0.000000,0.000000,0.000000,0.458446,0.547316,0.149007,0.000000,0.000000,0.000000,0.000000,0.000000,500000.000000,0.000000,6.323852,-99.000000,-99.000000,-99.000000,-99.000000,-99.000000,-99.000000,1013.250000,0.000000,25.500000,992,1500,1500,1500,992,1500,1500,1500
0.504100,6871393.000000,0.000000,0.000000,11.371456,12.460517,6.473067,0.000000,0.000000,0.000000,0.460092,0.547152,0.147487,0.000000,0.000000,0.000000,0.000000,0.000000,500000.000000,0.000000,6.473067,-99.000000,-99.000000,-99.000000,-99.000000,-99.000000,-99.000000,1013.250000,-0.000000,25.500000,992,1500,1500,1500,992,1500,1500,1500
0.514200,6871393.000000,0.000000,0.000000,11.670915,12.753728,6.623105,0.000000,0.000000,0.000000,0.461673,0.546844,0.145962,0.000000,0.000000,0.000000,0.000000,0.000000,500000.000000,0.000000,6.623105,-99.000000,-99.000000,-99.000000,-99.000000,-99.000000,-99.000000,1013.250000,-0.000000,25.500000,992,1500,1500,1500,992,1500,1500,1500
0.524300,6871393.000000,0.000000,0.000000,11.972200,13.046135,6.773958,0.000000,0.000000,0.000000,0.463192,0.546396,0.144433,0.000000,0.000000,0.000000,0.000000,0.000000,500000.000000,0.000000,6.773958,-99.000000,-99.000000,-99.000000,-99.000000,-99.000000,-99.000000,1013.250000,-0.000000,25.500000,992,1500,1500,1500,992,1500,1500,1500
0.534400,6871393.000000,0.000000,0.000000,12.275279,13.337656,6.925617,0.000000,0.000000,0.000000,0.464650,0.545813,0.142901,0.000000,0.000000,0.000000,0.000000,0.000000,500000.000000,0.000000,6.925617,-99.000000,-99.000000,-99.000000,-99.000000,-99.000000,-99.000000,1013.250000,-0.000000,25.500000,992,1500,1500,1500,992,1500,1500,1500
0.544500,6871393.000000,0.000000,0.000000,12.580121,13.628214,7.078074,0.000000,0.000000,0.000000,0.466050,0.545100,0.141366,0.000000,0.000000,0.000000,0.000000,0.000000,500000.000000,0.000000,7.078074,-99.000000,-99.000000,-99.000000,-99.000000,-99.000000,-99.000000,1013.250000,-0.000000,25.500000,992,1500,1500,1500,992,1500,1500,1500
0.554600,6871393.000000,0.000000,0.000000,12.886694,13.917735,7.231316,0.000000,0.000000,0.000000,0.467395,0.544261,0.139828,0.000000,0.000000,0.000000,0.000000,0.000000,500000.000000,0.000000,7.231316,-99.000000,-99.000000,-99.000000,-99.000000,-99.000000,-99.000000,1013.250000,-0.000000,25.500000,992,1500,1500,1500,992,1500,1500,1500
0.564700,6871393.000000,0.000000,0.000000,13.194968,14.206146,7.385334,0.000000,0.000000,0.000000,0.468687,0.543301,0.138289,0.000000,0.000000,0.000000,0.000000,0.000000,500000.000000,0.000000,7.385334,-99.000000,-99.000000,-99.000000,-99.000000,-99.000000,-99.000000,1013.250000,-0.000000,25.500000,992,1500,1500,1500,992,1500,1500,1500
0.574800,6871393.000000,0.000000,0.000000,13.504915,14.493380,7.540117,0.000000,0.000000,0.000000,0.469928,0.542224,0.136749,0.000000,0.000000,0.000000,0.000000,0.000000,500000.000000,0.000000,7.540117,-99.000000,-99.000000,-99.000000,-99.000000,-99.000000,-99.000000,1013.250000,-0.000000,25.500000,992,1500,1500,1500,992,1500,1500,1500
0.584900,6871393.000000,0.000000,0.000000,13.816505,14.779368,7.695651,0.000000,0.000000,0.000000,0.471119,0.541033,0.135207,0.000000,0.000000,0.000000,0.000000,0.000000,500000.000000,0.000000,7.695651,-99.000000,-99.000000,-99.000000,-99.000000,-99.000000,-99.000000,1013.250000,-0.000000,25.500000,992,1500,1500,1500,992,1500,1500,1500
0.595000,6871393.000000,0.000000,0.000000,14.129710,15.064048,7.851926,0.000000,0.000000,0.000000,0.472263,0.539733,0.133666,0.000000,0.000000,0.000000,0.000000,0.000000,500000.000000,0.000000,7.851926,-99.000000,-99.000000,-99.000000,-99.000000,-99.000000,-99.000000,1013.250000,-0.000000,25.500000,992,1500,1500,1500,992,1500,1500,1500
0.605100,6871393.000000,0.000000,0.000000,14.444502,15.347357,8.008927,0.000000,0.000000,0.000000,0.473362,0.538328,0.132124,0.000000,0.000000,0.000000,0.000000,0.000000,500000.000000,0.000000,8.008927,-99.000000,-99.000000,-99.000000,-99.000000,-99.000000,-99.000000,1013.250000,-0.000000,25.500000,992,1500,1500,1500,992,1500,1500,1500
0.615200,6871393.000000,0.000000,0.000000,14.760856,15.629236,8.166642,0.000000,0.000000,0.000000,0.474418,0.536820,0.130583,0.000000,0.000000,0.000000,0.000000,0.000000,500000.000000,0.000000,8.166642,-99.000000,-99.000000,-99.000000,-99.000000,-99.000000,-99.000000,1013.250000,-0.000000,25.500000,992,1500,1500,1500,992,1500,1500,1500
0.625300,6871393.000000,0.000000,0.000000,15.078743,15.909629,8.325056,0.000000,0.000000,0.000000,0.475431,0.535215,0.129044,0.000000,0.000000,0.000000,0.000000,0.000000,500000.000000,0.000000,8.325056,-99.000000,-99.000000,-99.000000,-99.000000,-99.000000,-99.000000,1013.250000,-0.000000,25.500000,992,1500,1500,1500,992,1500,1500,1500
0.635400,6871393.000000,0.000000,0.000000,15.398137,16.188481,8.484155,0.000000,0.000000,0.000000,0.476404,0.533514,0.127506,0.000000,0.000000,0.000000,0.000000,0.000000,500000.000000,0.000000,8.484155,-99.000000,-99.000000,-99.000000,-99.000000,-99.000000,-99.000000,1013.250000,-0.000000,25.500000,992,1500,1500,1500,992,1500,1500,1500
0.645500,6871393.000000,0.000000,0.000000,15.719014,16.465739,8.643924,0.000000,0.000000,0.000000,0.477339,0.531722,0.125970,0.000000,0.000000,0.000000,0.000000,0.000000,500000.000000,0.000000,8.643924,-99.000000,-99.000000,-99.000000,-99.000000,-99.000000,-99.000000,1013.250000,-0.000000,25.500000,992,1500,1500,1500,992,1500,1500,1500
0.655600,6871393.000000,0.000000,0.000000,16.041347,16.741352,8.804348,0.000000,0.000000,0.000000,0.478237,0.529841,0.124436,0.000000,0.000000,0.000000,0.000000,0.000000,500000.000000,0.000000,8.804348,-99.000000,-99.000000,-99.000000,-99.000000,-99.000000,-99.000000,1013.250000,-0.000000,25.500000,992,1500,1500,1500,992,1500,1500,1500
0.665700,6871393.000000,0.000000,0.000000,16.365111,17.015273,8.965409,0.000000,0.000000,0.000000,0.479099,0.527874,0.122905,0.000000,0.000000,0.000000,0.000000,0.000000,500000.000000,0.000000,8.965409,-99.000000,-99.000000,-99.000000,-99.000000,-99.000000,-99.000000,1013.250000,-0.000000,25.500000,992,1500,1500,1500,992,1500,1500,1500
0.675800,6871393.000000,0.000000,0.000000,16.690281,17.287454,9.127093,0.000000,0.000000,0.000000,0.479927,0.525826,0.121377,0.000000,0.000000,0.000000,0.000000,0.000000,500000.000000,0.000000,9.127093,-99.000000,-99.000000,-99.000000,-99.000000,-99.000000,-99.000000,1013.250000,-0.000000,25.500000,992,1500,1500,1500,992,1500,1500,1500
0.685900,6871393.000000,0.000000,0.000000,17.016834,17.557852,9.289382,0.000000,0.000000,0.000000,0.480723,0.523697,0.119852,0.000000,0.000000,0.000000,0.000000,0.000000,500000.000000,0.000000,9.289382,-99.000000,-99.000000,-99.000000,-99.000000,-99.000000,-99.000000,1013.250000,-0.000000,25.500000,992,1500,1500,1500,992,1500,1500,1500
0.696000,6871393.000000,0.000000,0.000000,17.344743,17.826423,9.452258,0.000000,0.000000,0.000000,0.481486,0.521492,0.118332,0.000000,0.000000,0.000000,0.000000,0.000000,500000.000000,0.000000,9.452258,-99.000000,-99.000000,-99.000000,-99.000000,-99.000000,-99.000000,1013.250000,-0.000000,25.500000,992,1500,1500,1500,992,1500,1500,1500
0.706100,6871393.000000,0.000000,0.000000,17.673986,18.093127,9.615704,0.000000,0.000000,0.000000,0.482220,0.519213,0.116815,0.000000,0.000000,0.000000,0.000000,0.000000,500000.000000,0.000000,9.615704,-99.000000,-99.000000,-99.000000,-99.000000,-99.000000,-99.000000,1013.250000,-0.000000,25.500000,992,1500,1500,1500,992,1500,1500,1500
0.716200,6871393.000000,0.000000,0.000000,18.004538,18.357924,9.779702,0.000000,0.000000,0.000000,0.482924,0.516863,0.115303,0.000000,0.000000,0.000000,0.000000,0.000000,500000.000000,0.000000,9.779702,-99.000000,-99.000000,-99.000000,-99.000000,-99.000000,-99.000000,1013.250000,-0.000000,25.500000,992,1500,1500,1500,992,1500,1500,1500
0.726300,6871393.000000,0.000000,0.000000,18.336375,18.620777,9.944233,0.000000,0.000000,0.000000,0.483601,0.514443,0.113796,0.000000,0.000000,0.000000,0.000000,0.000000,500000.000000,0.000000,9.944233,-99.000000,-99.000000,-99.000000,-99.000000,-99.000000,-99.000000,1013.250000,-0.000000,25.500000,992,1500,1500,1500,992,1500,1500,1500
0.736400,6871393.000000,0.000000,0.000000,18.669474,18.881651,10.109277,0.000000,0.000000,0.000000,0.484250,0.511958,0.112294,0.000000,0.000000,0.000000,0.000000,0.000000,500000.000000,0.000000,10.109277,-99.000000,-99.000000,-99.000000,-99.000000,-99.000000,-99.000000,1013.250000,-0.000000,25.500000,992,1500,1500,1500,992,1500,1500,1500
0.746500,6871393.000000,0.000000,0.000000,19.003810,19.140512,10.274816,0.000000,0.000000,0.000000,0.484874,0.509408,0.110798,0.000000,0.000000,0.000000,0.000000,0.000000,500000.000000,0.000000,10.274816,-99.000000,-99.000000,-99.000000,-99.000000,-99.000000,-99.000000,1013.250000,-0.000000,25.500000,992,1500,1500,1500,992,1500,1500,1500
0.756600,6871393.000000,0.000000,0.000000,19.339361,19.397326,10.440829,0.000000,0.000000,0.000000,0.485474,0.506797,0.109307,0.000000,0.000000,0.000000,0.000000,0.000000,500000.000000,0.000000,10.440829,-99.000000,-99.000000,-99.000000,-99.000000,-99.000000,-99.000000,1013.250000,-0.000000,25.500000,992,1500,1500,1500,992,1500,1499,1500
0.766700,6871393.000000,0.000000,0.000000,19.676102,19.652064,10.607297,0.000000,0.000000,0.000000,0.486049,0.504127,0.107822,0.000000,0.000000,0.000000,0.000000,0.000000,500000.000000,0.000000,10.607297,-99.000000,-99.000000,-99.000000,-99.000000,-99.000000,-99.000000,1013.250000,-0.000000,25.500000,992,1500,1500,1500,992,1500,1499,1500
0.776800,6871393.000000,0.000000,0.000000,20.014011,19.904695,10.774198,0.000000,0.000000,0.000000,0.486602,0.501399,0.106343,0.000000,0.000000,0.000000,0.000000,0.000000,500000.000000,0.000000,10.774198,-99.000000,-99.000000,-99.000000,-99.000000,-99.000000,-99.000000,1013.250000,-0.000000,25.500000,992,1500,1500,1500,992,1500,1499,1500
0.786900,6871393.000000,0.000000,0.000000,20.353063,20.155193,10.941512,0.000000,0.000000,0.000000,0.487133,0.498617,0.104871,0.000000,0.000000,0.000000,0.000000,0.000000,500000.000000,0.000000,10.941512,-99.000000,-99.000000,-99.000000,-99.000000,-99.000000,-99.000000,1013.250000,-0.000000,25.500000,992,1500,1500,1500,992,1500,1499,1500
0.797000,6871393.000000,0.000000,0.000000,20.693236,20.403530,11.109217,0.000000,0.000000,0.000000,0.487642,0.495782,0.103405,0.000000,0.000000,0.000000,0.000000,0.000000,500000.000000,0.000000,11.109217,-99.000000,-99.000000,-99.000000,-99.000000,-99.000000,-99.000000,1013.250000,-0.000000,25.500000,992,1500,1500,1500,992,1500,1499,1500
0.807100,6871393.000000,0.000000,0.000000,21.034506,20.649682,11.277292,0.000000,0.000000,0.000000,0.488132,0.492896,0.101946,0.000000,0.000000,0.000000,0.000000,0.000000,500000.000000,0.000000,11.277292,-99.000000,-99.000000,-99.000000,-99.000000,-99.000000,-99.000000,1013.250000,-0.000000,25.500000,992,1500,1500,1500,992,1500,1499,1500
0.817200,6871393.000000,0.000000,0.000000,21.376849,20.893624,11.445714,0.000000,0.000000,0.000000,0.488602,0.489962,0.100495,0.000000,0.000000,0.000000,0.000000,0.000000,500000.000000,0.000000,11.445714,-99.000000,-99.000000,-99.000000,-99.000000,-99.000000,-99.000000,1013.250000,-0.000000,25.500000,992,1500,1500,1500,992,1500,1499,1500
0.827300,6871393.000000,0.000000,0.000000,21.720243,21.135336,11.614462,0.000000,0.000000,0.000000,0.489054,0.486980,0.099051,0.000000,0.000000,0.000000,0.000000,0.000000,500000.000000,0.000000,11.614462,-99.000000,-99.000000,-99.000000,-99.000000,-99.000000,-99.000000,1013.250000,-0.000000,25.500000,992,1500,1500,1500,992,1500,1499,1500
0.837400,6871393.000000,0.000000,0.000000,22.064663,21.374796,11.783511,0.000000,0.000000,0.000000,0.489487,0.483954,0.097614,0.000000,0.000000,0.000000,0.000000,0.000000,500000.000000,0.000000,11.783511,-99.000000,-99.000000,-99.000000,-99.000000,-99.000000,-99.000000,1013.250000,-0.000000,25.500000,992,1500,1500,1500,992,1500,1499,1500
0.847500,6871393.000000,0.000000,0.000000,22.410086,21.611984,11.952841,0.000000,0.000000,0.000000,0.489904,0.480885,0.096185,0.000000,0.000000,0.000000,0.000000,0.000000,500000.000000,0.000000,11.952841,-99.000000,-99.000000,-99.000000,-99.000000,-99.000000,-99.000000,1013.250000,-0.000000,25.500000,992,1500,1500,1500,992,1500,1499,1500
0.857600,6871393.000000,0.000000,0.000000,22.756489,21.846882,12.122426,0.000000,0.000000,0.000000,0.490304,0.477775,0.094765,0.000000,0.000000,0.000000,0.000000,0.000000,500000.000000,0.000000,12.122426,-99.000000,-99.000000,-99.000000,-99.000000,-99.000000,-99.000000,1013.250000,-0.000000,25.500000,992,1500,1500,1500,992,1500,1499,1500
0.867700,6871393.000000,0.000000,0.000000,23.103848,22.079473,12.292244,0.000000,0.000000,0.000000,0.490688,0.474625,0.093352,0.000000,0.000000,0.000000,0.000000,0.000000,500000.000000,0.000000,12.292244,-99.000000,-99.000000,-99.000000,-99.000000,-99.000000,-99.000000,1013.250000,-0.000000,25.500000,992,1500,1500,1500,992,1500,1499,1500
0.877800,6871393.000000,0.000000,0.000000,23.452139,22.309741,12.462271,0.000000,0.000000,0.000000,0.491057,0.471437,0.091948,0.000000,0.000000,0.000000,0.000000,0.000000,500000.000000,0.000000,12.462271,-99.000000,-99.000000,-99.000000,-99.000000,-99.000000,-99.000000,1013.250000,-0.000000,25.500000,992,1500,1500,1500,992,1500,1499,1500
0.887900,6871393.000000,0.000000,0.000000,23.801339,22.537672,12.632484,0.000000,0.000000,0.000000,0.491411,0.468213,0.090552,0.000000,0.000000,0.000000,0.000000,0.000000,500000.000000,0.000000,12.632484,-99.000000,-99.000000,-99.000000,-99.000000,-99.000000,-99.000000,1013.250000,-0.000000,25.500000,992,1500,1500,1500,992,1500,1499,1500
0.898000,6871393.000000,0.000000,0.000000,24.151424,22.763251,12.802856,0.000000,0.000000,0.000000,0.491752,0.464955,0.089165,0.000000,0.000000,0.000000,0.000000,0.000000,500000.000000,0.000000,12.802856,-99.000000,-99.000000,-99.000000,-99.000000,-99.000000,-99.000000,1013.250000,-0.000000,25.500000,992,1500,1500,1500,992,1500,1499,1500
0.908100,6871393.000000,0.000000,0.000000,24.502371,22.986468,12.973365,0.000000,0.000000,0.000000,0.492078,0.461664,0.087786,0.000000,0.000000,0.000000,0.000000,0.000000,500000.000000,0.000000,12.973365,-99.000000,-99.000000,-99.000000,-99.000000,-99.000000,-99.000000,1013.250000,-0.000000,25.500000,992,1500,1500,1500,992,1500,1499,1500
0.918200,6871393.000000,0.000000,0.000000,24.854154,23.207310,13.143985,0.000000,0.000000,0.000000,0.492392,0.458341,0.086417,0.000000,0.000000,0.000000,0.000000,0.000000,500000.000000,0.000000,13.143985,-99.000000,-99.000000,-99.000000,-99.000000,-99.000000,-99.000000,1013.250000,-0.000000,25.500000,992,1500,1500,1500,992,1500,1499,1500
0.928300,6871393.000000,0.000000,0.000000,25.206751,23.425767,13.314692,0.000000,0.000000,0.000000,0.492694,0.454989,0.085057,0.000000,0.000000,0.000000,0.000000,0.000000,500000.000000,0.000000,13.314692,-99.000000,-99.000000,-99.000000,-99.000000,-99.000000,-99.000000,1013.250000,-0.000000,25.500000,992,1500,1500,1500,992,1500,1499,1500
0.938400,6871393.000000,0.000000,0.000000,25.560138,23.641831,13.485460,0.000000,0.000000,0.000000,0.492983,0.451608,0.083705,0.000000,0.000000,0.000000,0.000000,0.000000,500000.000000,0.000000,13.485460,-99.000000,-99.000000,-99.000000,-99.000000,-99.000000,-99.000000,1013.250000,-0.000000,25.500000,992,1500,1500,1500,992,1500,1499,1500
0.948500,6871393.000000,0.000000,0.000000,25.914289,23.855492,13.656264,0.000000,0.000000,0.000000,0.493261,0.448201,0.082364,0.000000,0.000000,0.000000,0.000000,0.000000,500000.000000,0.000000,13.656264,-99.000000,-99.000000,-99.000000,-99.000000,-99.000000,-99.000000,1013.250000,-0.000000,25.500000,992,1500,1500,1500,992,1500,1499,1500
0.958600,6871393.000000,0.000000,0.000000,26.269182,24.066745,13.827079,0.000000,0.000000,0.000000,0.493528,0.444768,0.081031,0.000000,0.000000,0.000000,0.000000,0.000000,500000.000000,0.000000,13.827079,-99.000000,-99.000000,-99.000000,-99.000000,-99.000000,-99.000000,1013.250000,-0.000000,25.500000,992,1500,1500,1500,992,1500,1499,1500
0.968700,6871393.000000,0.000000,0.000000,26.624792,24.275583,13.997879,0.000000,0.000000,0.000000,0.493784,0.441310,0.079709,0.000000,0.000000,0.000000,0.000000,0.000000,500000.000000,0.000000,13.997879,-99.000000,-99.000000,-99.000000,-99.000000,-99.000000,-99.000000,1013.250000,-0.000000,25.500000,992,1500,1500,1500,992,1500,1499,1500
0.978800,6871393.000000,0.000000,0.000000,26.981095,24.482002,14.168638,0.000000,0.000000,0.000000,0.494031,0.437831,0.078396,0.000000,0.000000,0.000000,0.000000,0.000000,500000.000000,0.000000,14.168638,-99.000000,-99.000000,-99.000000,-99.000000,-99.000000,-99.000000,1013.250000,-0.000000,25.500000,992,1500,1500,1500,992,1500,1499,1500
0.988900,6871393.000000,0.000000,0.000000,27.338067,24.685996,14.339331,0.000000,0.000000,0.000000,0.494267,0.434329,0.077092,0.000000,0.000000,0.000000,0.000000,0.000000,500000.000000,0.000000,14.339331,-99.000000,-99.000000,-99.000000,-99.000000,-99.000000,-99.000000,1013.250000,-0.000000,25.500000,992,1500,1500,1500,992,1500,1499,1500
0.999000,6871393.000000,0.000000,0.000000,27.695683,24.887564,14.509932,0.000000,0.000000,0.000000,0.494494,0.430808,0.075799,0.000000,0.000000,0.000000,0.000000,0.000000,500000.000000,0.000000,14.509932,-99.000000,-99.000000,-99.000000,-99.000000,-99.000000,-99.000000,1013.250000,-0.000000,25.500000,992,1500,1500,1500,992,1500,1499,1500
1.009100,6871388.779155,7616.178441,0.000000,28.053919,25.086702,90.183662,7615.417942,0.000000,0.000000,0.494712,0.427267,0.074516,0.000000,0.000000,0.000000,0.000000,0.063506,500000.000002,90.031753,14.680414,-99.000000,-99.000000,-99.000000,-99.000000,-99.000000,-99.000000,1013.250000,-0.000000,25.500000,992,1500,1500,1500,992,1500,1499,1500
1.019200,6871388.779155,7616.178441,0.000000,28.412750,25.283410,90.354000,7615.417942,0.000000,0.000000,0.494922,0.423709,0.073242,0.000000,0.000000,0.000000,0.000000,0.063506,500000.000002,90.031753,14.850752,-99.000000,-99.000000,-99.000000,-99.000000,-99.000000,-99.000000,1013.250000,-0.000000,25.500000,992,1500,1500,1500,992,1500,1499,1500
1.029300,6871388.779155,7616.178441,0.000000,28.772153,25.477687,90.524167,7615.417942,0.000000,0.000000,0.495123,0.420135,0.071979,0.000000,0.000000,0.000000,0.000000,0.063506,500000.000002,90.031753,15.020920,-99.000000,-99.000000,-99.000000,-99.000000,-99.000000,-99.000000,1013.250000,-0.000000,25.500000,992,1500,1500,1500,992,1500,1499,1500
1.039400,6871388.779155,7616.178441,0.000000,29.132103,25.669533,90.694138,7615.417942,0.000000,0.000000,0.495316,0.416545,0.070726,0.000000,0.000000,0.000000,0.000000,0.063506,500000.000002,90.031753,15.190891,-99.000000,-99.000000,-99.000000,-99.000000,-99.000000,-99.000000,1013.250000,-0.000000,25.500000,992,1500,1500,1500,992,1500,1499,1500
1.049500,6871388.779155,7616.178441,0.000000,29.492575,25.858950,90.863887,7615.417942,0.000000,0.000000,0.495502,0.412941,0.069483,0.000000,0.000000,0.000000,0.000000,0.063506,500000.000002,90.031753,15.360639,-99.000000,-99.000000,-99.000000,-99.000000,-99.000000,-99.000000,1013.250000,-0.000000,25.500000,992,1500,1500,1500,992,1500,1499,1500
1.059600,6871388.779155,7616.178441,0.000000,29.853545,26.045940,91.033386,7615.417942,0.000000,0.000000,0.495680,0.409324,0.068251,0.000000,0.000000,0.000000,0.000000,0.063506,500000.000002,90.031753,15.530138,-99.000000,-99.000000,-99.000000,-99.000000,-99.000000,-99.000000,1013.250000,-0.000000,25.500000,992,1500,1500,1500,992,1500,1499,1500
1.069700,6871388.779155,7616.178441,0.000000,30.214988,26.230506,91.202609,7615.417942,0.000000,0.000000,0.495851,0.405694,0.067029,0.000000,0.000000,0.000000,0.000000,0.063506,500000.000002,90.031753,15.699362,-99.000000,-99.000000,-99.000000,-99.000000,-99.000000,-99.000000,1013.250000,-0.000000,25.500000,992,1500,1500,1500,992,1500,1499,1500
1.079800,6871388.779155,7616.178441,0.000000,30.576881,26.412651,91.371532,7615.417942,0.000000,0.000000,0.496016,0.402054,0.065818,0.000000,0.000000,0.000000,0.000000,0.063506,500000.000002,90.031753,15.868284,-99.000000,-99.000000,-99.000000,-99.000000,-99.000000,-99.000000,1013.250000,-0.000000,25.500000,992,1500,1500,1500,992,1500,1499,1500
1.089900,6871388.779155,7616.178441,0.000000,30.939199,26.592380,91.540127,7615.417942,0.000000,0.000000,0.496173,0.398405,0.064617,0.000000,0.000000,0.000000,0.000000,0.063506,500000.000002,90.031753,16.036879,-99.000000,-99.000000,-99.000000,-99.000000,-99.000000,-99.000000,1013.250000,-0.000000,25.500000,992,1500,1500,1500,992,1500,1499,1500
1.100000,6871388.779155,7616.178441,0.000000,31.301917,26.769698,91.708368,7615.417942,0.000000,0.000000,0.496325,0.394746,0.063427,0.000000,0.000000,0.000000,0.000000,0.063506,500000.000002,90.031753,16.205121,-99.000000,-99.000000,-99.000000,-99.000000,-99.000000,-99.000000,1013.250000,-0.000000,25.500000,992,1500,1500,1500,992,1500,1499,1500
1.110100,6871388.779155,7616.178441,0.000000,31.665011,26.944610,91.876230,7615.417942,0.000000,0.000000,0.496471,0.391079,0.062247,0.000000,0.000000,0.000000,0.000000,0.063506,500000.000002,90.031753,16.372982,-99.000000,-99.000000,-99.000000,-99.000000,-99.000000,-99.000000,1013.250000,-0.000000,25.500000,992,1500,1500,1500,992,1500,1499,1500
1.120200,6871388.779155,7616.178441,0.000000,32.028458,27.117125,92.043686,7615.417942,0.000000,0.000000,0.496610,0.387406,0.061078,0.000000,0.000000,0.000000,0.000000,0.063506,500000.000002,90.031753,16.540438,-99.000000,-99.000000,-99.000000,-99.000000,-99.000000,-99.000000,1013.250000,-0.000000,25.500000,992,1500,1500,1500,992,1500,1499,1500
1.130300,6871388.779155,7616.178441,0.000000,32.392232,27.287247,92.210710,7615.417942,0.000000,0.000000,0.496745,0.383726,0.059920,0.000000,0.000000,0.000000,0.000000,0.063506,500000.000002,90.031753,16.707463,-99.000000,-99.000000,-99.000000,-99.000000,-99.000000,-99.000000,1013.250000,-0.000000,25.500000,992,1500,1500,1500,992,1500,1499,1500
1.140400,6871388.779155,7616.178441,0.000000,32.756309,27.454987,92.377278,7615.417942,0.000000,0.000000,0.496874,0.380042,0.058773,0.000000,0.000000,0.000000,0.000000,0.063506,500000.000002,90.031753,16.874030,-99.000000,-99.000000,-99.000000,-99.000000,-99.000000,-99.000000,1013.250000,-0.000000,25.500000,992,1500,1500,1500,992,1500,1499,1500
1.150500,6871388.779155,7616.178441,0.000000,33.120666,27.620351,92.543362,7615.417942,0.000000,0.000000,0.496998,0.376353,0.057636,0.000000,0.000000,0.000000,0.000000,0.063506,500000.000002,90.031753,17.040115,-99.000000,-99.000000,-99.000000,-99.000000,-99.000000,-99.000000,1013.250000,-0.000000,25.500000,992,1500,1500,1500,992,1500,1499,1500
1.160600,6871388.779155,7616.178441,0.000000,33.485279,27.783350,92.708939,7615.417942,0.000000,0.000000,0.497117,0.372662,0.056510,0.000000,0.000000,0.000000,0.000000,0.063506,500000.000002,90.031753,17.205691,-99.000000,-99.000000,-99.000000,-99.000000,-99.000000,-99.000000,1013.250000,-0.000000,25.500000,992,1500,1500,1500,992,1500,1499,1500
1.170700,6871388.779155,7616.178441,0.000000,33.850124,27.943994,92.873981,7615.417942,0.000000,0.000000,0.497231,0.368968,0.055395,0.000000,0.000000,0.000000,0.000000,0.063506,500000.000002,90.031753,17.370734,-99.000000,-99.000000,-99.000000,-99.000000,-99.000000,-99.000000,1013.250000,-0.000000,25.500000,992,1500,1500,1500,992,1500,1499,1500
1.180800,6871388.779155,7616.178441,0.000000,34.215176,28.102292,93.038465,7615.417942,0.000000,0.000000,0.497340,0.365272,0.054291,0.000000,0.000000,0.000000,0.000000,0.063506,500000.000002,90.031753,17.535218,-99.000000,-99.000000,-99.000000,-99.000000,-99.000000,-99.000000,1013.250000,-0.000000,25.500000,992,1500,1500,1500,992,1500,1499,1500
1.190900,6871388.779155,7616.178441,0.000000,34.580413,28.258256,93.202365,7615.417942,0.000000,0.000000,0.497446,0.361576,0.053198,0.000000,0.000000,0.000000,0.000000,0.063506,500000.000002,90.031753,17.699118,-99.000000,-99.000000,-99.000000,-99.000000,-99.000000,-99.000000,1013.250000,-0.000000,25.500000,992,1500,1500,1500,992,1500,1499,1500
1.201000,6871388.779155,7616.178441,0.000000,34.945811,28.411898,93.365657,7615.417942,0.000000,0.000000,0.497547,0.357880,0.052116,0.000000,0.000000,0.000000,0.000000,0.063506,500000.000002,90.031753,17.862409,-99.000000,-99.000000,-99.000000,-99.000000,-99.000000,-99.000000,1013.250000,-0.000000,25.500000,992,1500,1500,1500,992,1500,1499,1500
1.211100,6871388.779155,7616.178441,0.000000,35.311347,28.563229,93.528315,7615.417942,0.000000,0.000000,0.497644,0.354185,0.051044,0.000000,0.000000,0.000000,0.000000,0.063506,500000.000002,90.031753,18.025068,-99.000000,-99.000000,-99.000000,-99.000000,-99.000000,-99.000000,1013.250000,-0.000000,25.500000,992,1500,1500,1500,992,1500,1499,1500
1.221200,6871388.779155,7616.178441,0.000000,35.676997,28.712262,93.690316,7615.417942,0.000000,0.000000,0.497738,0.350491,0.049984,0.000000,0.000000,0.000000,0.000000,0.063506,500000.000002,90.031753,18.187069,-99.000000,-99.000000,-99.000000,-99.000000,-99.000000,-99.000000,1013.250000,-0.000000,25.500000,992,1500,1500,1500,992,1500,1499,1500
1.231300,6871388.779155,7616.178441,0.000000,36.042739,28.859011,93.851636,7615.417942,0.000000,0.000000,0.497827,0.346800,0.048934,0.000000,0.000000,0.000000,0.000000,0.063506,500000.000002,90.031753,18.348389,-99.000000,-99.000000,-99.000000,-99.000000,-99.000000,-99.000000,1013.250000,-0.000000,25.500000,992,1500,1500,1500,992,1500,1499,1500
1.241400,6871388.779155,7616.178441,0.000000,36.408550,29.003488,94.012250,7615.417942,0.000000,0.000000,0.497913,0.343112,0.047895,0.000000,0.000000,0.000000,0.000000,0.063506,500000.000002,90.031753,18.509003,-99.000000,-99.000000,-99.000000,-99.000000,-99.000000,-99.000000,1013.250000,-0.000000,25.500000,992,1500,1500,1500,992,1500,1499,1500
1.251500,6871388.779155,7616.178441,0.000000,36.774406,29.145710,94.172135,7615.417942,0.000000,0.000000,0.497996,0.339428,0.046867,0.000000,0.000000,0.000000,0.000000,0.063506,500000.000002,90.031753,18.668888,-99.000000,-99.000000,-99.000000,-99.000000,-99.000000,-99.000000,1013.250000,-0.000000,25.500000,992,1500,1500,1500,992,1500,1499,1500
1.261600,6871388.779155,7616.178441,0.000000,37.140286,29.285689,94.331268,7615.417942,0.000000,0.000000,0.498075,0.335749,0.045851,0.000000,0.000000,0.000000,0.000000,0.063506,500000.000002,90.031753,18.828021,-99.000000,-99.000000,-99.000000,-99.000000,-99.000000,-99.000000,1013.250000,-0.000000,25.500000,992,1500,1500,1500,992,1500,1499,1500
1.271700,6871388.779155,7616.178441,0.000000,37.506167,29.423441,94.489626,7615.417942,0.000000,0.000000,0.498152,0.332075,0.044845,0.000000,0.000000,0.000000,0.000000,0.063506,500000.000002,90.031753,18.986379,-99.000000,-99.000000,-99.000000,-99.000000,-99.000000,-99.000000,1013.250000,-0.000000,25.500000,992,1500,1500,1500,992,1500,1499,1500
1.281800,6871388.779155,7616.178441,0.000000,37.872028,29.558982,94.647186,7615.417942,0.000000,0.000000,0.498225,0.328407,0.043850,0.000000,0.000000,0.000000,0.000000,0.063506,500000.000002,90.031753,19.143938,-99.000000,-99.000000,-99.000000,-99.000000,-99.000000,-99.000000,1013.250000,-0.000000,25.500000,992,1500,1500,1500,992,1500,1499,1500
1.291900,6871388.779155,7616.178441,0.000000,38.237846,29.692327,94.803925,7615.417942,0.000000,0.000000,0.498295,0.324745,0.042866,0.000000,0.000000,0.000000,0.000000,0.063506,500000.000002,90.031753,19.300677,-99.000000,-99.000000,-99.000000,-99.000000,-99.000000,-99.000000,1013.250000,-0.000000,25.500000,992,1500,1500,1500,992,1500,1499,1500
1.302000,6871388.779155,7616.178441,0.000000,38.603600,29.823493,94.959821,7615.417942,0.000000,0.000000,0.498363,0.321091,0.041892,0.000000,0.000000,0.000000,0.000000,0.063506,500000.000002,90.031753,19.456574,-99.000000,-99.000000,-99.000000,-99.000000,-99.000000,-99.000000,1013.250000,-0.000000,25.500000,992,1500,1500,1500,992,1500,1499,1500
1.312100,6871388.779155,7616.178441,0.000000,38.969269,29.952497,95.114853,7615.417942,0.000000,0.000000,0.498428,0.317444,0.040930,0.000000,0.000000,0.000000,0.000000,0.063506,500000.000002,90.031753,19.611606,-99.000000,-99.000000,-99.000000,-99.000000,-99.000000,-99.000000,1013.250000,-0.000000,25.500000,992,1500,1500,1500,992,1500,1499,1500
1.322200,6871388.779155,7616.178441,0.000000,39.334832,30.079356,95.269000,7615.417942,0.000000,0.000000,0.498490,0.313806,0.039979,0.000000,0.000000,0.000000,0.000000,0.063506,500000.000002,90.031753,19.765752,-99.000000,-99.000000,-99.000000,-99.000000,-99.000000,-99.000000,1013.250000,-0.000000,25.500000,992,1500,1500,1500,992,1500,1499,1500
1.332300,6871388.779155,7616.178441,0.000000,39.700267,30.204087,95.422240,7615.417942,0.000000,0.000000,0.498550,0.310177,0.039038,0.000000,0.000000,0.000000,0.000000,0.063506,500000.000002,90.031753,19.918992,-99.000000,-99.000000,-99.000000,-99.000000,-99.000000,-99.000000,1013.250000,-0.000000,25.500000,992,1500,1500,1500,992,1500,1499,1500
1.342400,6871388.779155,7616.178441,0.000000,40.065555,30.326708,95.574552,7615.417942,0.000000,0.000000,0.498607,0.306558,0.038108,0.000000,0.000000,0.000000,0.000000,0.063506,500000.000002,90.031753,20.071304,-99.000000,-99.000000,-99.000000,-99.000000,-99.000000,-99.000000,1013.250000,-0.000000,25.500000,992,1500,1500,1500,992,1500,1499,1500
1.352500,6871388.779155,7616.178441,0.000000,40.430674,30.447237,95.725916,7615.417942,0.000000,0.000000,0.498662,0.302949,0.037189,0.000000,0.000000,0.000000,0.000000,0.063506,500000.000002,90.031753,20.222669,-99.000000,-99.000000,-99.000000,-99.000000,-99.000000,-99.000000,1013.250000,-0.000000,25.500000,992,1500,1500,1500,992,1500,1499,1500
1.362600,6871388.779155,7616.178441,0.000000,40.795606,30.565693,95.876313,7615.417942,0.000000,0.000000,0.498715,0.299350,0.036281,0.000000,0.000000,0.000000,0.000000,0.063506,500000.000002,90.031753,20.373066,-99.000000,-99.000000,-99.000000,-99.000000,-99.000000,-99.000000,1013.250000,-0.000000,25.500000,992,1500,1500,1500,992,1500,1499,1500
1.372700,6871388.779155,7616.178441,0.000000,41.160331,30.682095,96.025723,7615.417942,0.000000,0.000000,0.498766,0.295763,0.035383,0.000000,0.000000,0.000000,0.000000,0.063506,500000.000002,90.031753,20.522475,-99.000000,-99.000000,-99.000000,-99.000000,-99.000000,-99.000000,1013.250000,-0.000000,25.500000,992,1500,1500,1500,992,1500,1499,1500
1.382800,6871388.779155,7616.178441,0.000000,41.524829,30.796460,96.174126,7615.417942,0.000000,0.000000,0.498815,0.292187,0.034496,0.000000,0.000000,0.000000,0.000000,0.063506,500000.000002,90.031753,20.670878,-99.000000,-99.000000,-99.000000,-99.000000,-99.000000,-99.000000,1013.250000,-0.000000,25.500000,992,1500,1500,1500,992,1500,1499,1500
1.392900,6871388.779155,7616.178441,0.000000,41.889081,30.908810,96.321504,7615.417942,0.000000,0.000000,0.498862,0.288624,0.033620,0.000000,0.000000,0.000000,0.000000,0.063506,500000.000002,90.031753,20.818256,-99.000000,-99.000000,-99.000000,-99.000000,-99.000000,-99.000000,1013.250000,-0.000000,25.500000,992,1500,1500,1500,992,1500,1499,1500
1.403000,6871388.779155,7616.178441,0.000000,42.253068,31.019163,96.467838,7615.417942,0.000000,0.000000,0.498907,0.285073,0.032755,0.000000,0.000000,0.000000,0.000000,0.063506,500000.000002,90.031753,20.964591,-99.000000,-99.000000,-99.000000,-99.000000,-99.000000,-99.000000,1013.250000,-0.000000,25.500000,992,1500,1500,1500,992,1500,1499,1500
1.413100,6871388.779155,7616.178441,0.000000,42.616773,31.127539,96.613112,7615.417942,0.000000,0.000000,0.498950,0.281536,0.031900,0.000000,0.000000,0.000000,0.000000,0.063506,500000.000002,90.031753,21.109864,-99.000000,-99.000000,-99.000000,-99.000000,-99.000000,-99.000000,1013.250000,-0.000000,25.500000,992,1500,1500,1500,992,1500,1499,1500
1.423200,6871388.779155,7616.178441,0.000000,42.980177,31.233959,96.757306,7615.417942,0.000000,0.000000,0.498992,0.278013,0.031056,0.000000,0.000000,0.000000,0.000000,0.063506,500000.000002,90.031753,21.254059,-99.000000,-99.000000,-99.000000,-99.000000,-99.000000,-99.000000,1013.250000,-0.000000,25.500000,992,1500,1500,1500,992,1500,1499,1500
1.433300,6871388.779155,7616.178441,0.000000,43.343262,31.338442,96.900405,7615.417942,0.000000,0.000000,0.499032,0.274503,0.030222,0.000000,0.000000,0.000000,0.000000,0.063506,500000.000002,90.031753,21.397158,-99.000000,-99.000000,-99.000000,-99.000000,-99.000000,-99.000000,1013.250000,-0.000000,25.500000,992,1500,1500,1500,992,1500,1499,1500
1.443400,6871388.779155,7616.178441,0.000000,43.706012,31.441009,97.042392,7615.417942,0.000000,0.000000,0.499070,0.271008,0.029399,0.000000,0.000000,0.000000,0.000000,0.063506,500000.000002,90.031753,21.539144,-99.000000,-99.000000,-99.000000,-99.000000,-99.000000,-99.000000,1013.250000,-0.000000,25.500000,992,1500,1500,1500,992,1500,1499,1500
1.453500,6871388.779155,7616.178441,0.000000,44.068408,31.541681,97.183250,7615.417942,0.000000,0.000000,0.499107,0.267528,0.028586,0.000000,0.000000,0.000000,0.000000,0.063506,500000.000002,90.031753,21.680003,-99.000000,-99.000000,-99.000000,-99.000000,-99.000000,-99.000000,1013.250000,-0.000000,25.500000,992,1500,1500,1500,992,1500,1499,1500
1.463600,6871388.779155,7616.178441,0.000000,44.430436,31.640478,97.322964,7615.417942,0.000000,0.000000,0.499142,0.264064,0.027784,0.000000,0.000000,0.000000,0.000000,0.063506,500000.000002,90.031753,21.819717,-99.000000,-99.000000,-99.000000,-99.000000,-99.000000,-99.000000,1013.250000,-0.000000,25.500000,992,1500,1500,1500,992,1500,1499,1500
1.473700,6871388.779155,7616.178441,0.000000,44.792077,31.737421,97.461519,7615.417942,0.000000,0.000000,0.499176,0.260615,0.026992,0.000000,0.000000,0.000000,0.000000,0.063506,500000.000002,90.031753,21.958271,-99.000000,-99.000000,-99.000000,-99.000000,-99.000000,-99.000000,1013.250000,-0.000000,25.500000,992,1500,1500,1500,992,1500,1499,1500
1.483800,6871388.779155,7616.178441,0.000000,45.153317,31.832532,97.598900,7615.417942,0.000000,0.000000,0.499209,0.257183,0.026210,0.000000,0.000000,0.000000,0.000000,0.063506,500000.000002,90.031753,22.095652,-99.000000,-99.000000,-99.000000,-99.000000,-99.000000,-99.000000,1013.250000,-0.000000,25.500000,992,1500,1500,1500,992,1500,1499,1500
1.493900,6871388.779155,7616.178441,0.000000,45.514139,31.925832,97.735092,7615.417942,0.000000,0.000000,0.499240,0.253767,0.025439,0.000000,0.000000,0.000000,0.000000,0.063506,500000.000002,90.031753,22.231845,-99.000000,-99.000000,-99.000000,-99.000000,-99.000000,-99.000000,1013.250000,-0.000000,25.500000,992,1500,1500,1500,992,1500,1499,1500
1.504000,6871388.779155,7616.178441,0.000000,45.874530,32.017343,97.870083,7615.417942,0.000000,0.000000,0.499271,0.250368,0.024678,0.000000,0.000000,0.000000,0.000000,0.063506,500000.000002,90.031753,22.366835,-99.000000,-99.000000,-99.000000,-99.000000,-99.000000,-99.000000,1013.250000,-0.000000,25.500000,992,1500,1500,1500,992,1500,1499,1500
1.514100,6871388.779155,7616.178441,0.000000,46.234473,32.107085,98.003858,7615.417942,0.000000,0.000000,0.499299,0.246986,0.023927,0.000000,0.000000,0.000000,0.000000,0.063506,500000.000002,90.031753,22.500610,-99.000000,-99.000000,-99.000000,-99.000000,-99.000000,-99.000000,1013.250000,-0.000000,25.500000,992,1500,1500,1500,992,1500,1499,1500
1.524200,6871388.779155,7616.178441,0.000000,46.593955,32.195080,98.136405,7615.417942,0.000000,0.000000,0.499327,0.243622,0.023186,0.000000,0.000000,0.000000,0.000000,0.063506,500000.000002,90.031753,22.633157,-99.000000,-99.000000,-99.000000,-99.000000,-99.000000,-99.000000,1013.250000,-0.000000,25.500000,992,1500,1500,1500,992,1500,1499,1500
1.534300,6871388.779155,7616.178441,0.000000,46.952961,32.281351,98.267711,7615.417942,0.000000,0.000000,0.499354,0.240276,0.022455,0.000000,0.000000,0.000000,0.000000,0.063506,500000.000002,90.031753,22.764463,-99.000000,-99.000000,-99.000000,-99.000000,-99.000000,-99.000000,1013.250000,-0.000000,25.500000,992,1500,1500,1500,992,1500,1499,1500
1.544400,6871388.779155,7616.178441,0.000000,47.311478,32.365918,98.397764,7615.417942,0.000000,0.000000,0.499379,0.236949,0.021735,0.000000,0.000000,0.000000,0.000000,0.063506,500000.000002,90.031753,22.894517,-99.000000,-99.000000,-99.000000,-99.000000,-99.000000,-99.000000,1013.250000,-0.000000,25.500000,992,1500,1500,1500,992,1500,1499,1500
1.554500,6871388.779155,7616.178441,0.000000,47.669493,32.448805,98.526554,7615.417942,0.000000,0.000000,0.499404,0.233639,0.021024,0.000000,0.000000,0.000000,0.000000,0.063506,500000.000002,90.031753,23.023307,-99.000000,-99.000000,-99.000000,-99.000000,-99.000000,-99.000000,1013.250000,-0.000000,25.500000,992,1500,1500,1500,992,1500,1499,1500
1.564600,6871388.779155,7616.178441,0.000000,48.026993,32.530032,98.654069,7615.417942,0.000000,0.000000,0.499428,0.230349,0.020323,0.000000,0.000000,0.000000,0.000000,0.063506,500000.000002,90.031753,23.150822,-99.000000,-99.000000,-99.000000,-99.000000,-99.000000,-99.000000,1013.250000,-0.000000,25.500000,992,1500,1500,1500,992,1500,1499,1500
1.574700,6871388.779155,7616.178441,0.000000,48.383965,32.609622,98.780299,7615.417942,0.000000,0.000000,0.499450,0.227078,0.019632,0.000000,0.000000,0.000000,0.000000,0.063506,500000.000002,90.031753,23.277051,-99.000000,-99.000000,-99.000000,-99.000000,-99.000000,-99.000000,1013.250000,-0.000000,25.500000,992,1500,1500,1500,992,1500,1499,1500
1.584800,6871388.779155,7616.178441,0.000000,48.740397,32.687597,98.905233,7615.417942,0.000000,0.000000,0.499472,0.223827,0.018951,0.000000,0.000000,0.000000,0.000000,0.063506,500000.000002,90.031753,23.401986,-99.000000,-99.000000,-99.000000,-99.000000,-99.000000,-99.000000,1013.250000,-0.000000,25.500000,992,1500,1500,1500,992,1500,1499,1500
1.594900,6871388.779155,7616.178441,0.000000,49.096278,32.763978,99.028863,7615.417942,0.000000,0.000000,0.499493,0.220595,0.018280,0.000000,0.000000,0.000000,0.000000,0.063506,500000.000002,90.031753,23.525616,-99.000000,-99.000000,-99.000000,-99.000000,-99.000000,-99.000000,1013.250000,-0.000000,25.500000,992,1500,1500,1500,992,1500,1499,1500
1.605000,6871388.779155,7616.178441,0.000000,49.451597,32.838788,99.151180,7615.417942,0.000000,0.000000,0.499513,0.217383,0.017619,0.000000,0.000000,0.000000,0.000000,0.063506,500000.000002,90.031753,23.647932,-99.000000,-99.000000,-99.000000,-99.000000,-99.000000,-99.000000,1013.250000,-0.000000,25.500000,992,1500,1500,1500,992,1500,1499,1500
1.615100,6871388.779155,7616.178441,0.000000,49.806342,32.912050,99.272174,7615.417942,0.000000,0.000000,0.499532,0.214192,0.016967,0.000000,0.000000,0.000000,0.000000,0.063506,500000.000002,90.031753,23.768926,-99.000000,-99.000000,-99.000000,-99.000000,-99.000000,-99.000000,1013.250000,-0.000000,25.500000,992,1500,1500,1500,992,1500,1499,1500
1.625200,6871388.779155,7616.178441,0.000000,50.160503,32.983784,99.391838,7615.417942,0.000000,0.000000,0.499551,0.211021,0.016324,0.000000,0.000000,0.000000,0.000000,0.063506,500000.000002,90.031753,23.888590,-99.000000,-99.000000,-99.000000,-99.000000,-99.000000,-99.000000,1013.250000,-0.000000,25.500000,992,1500,1500,1500,992,1500,1499,1500
1.635300,6871388.779155,7616.178441,0.000000,50.514070,33.054014,99.510164,7615.417942,0.000000,0.000000,0.499569,0.207871,0.015692,0.000000,0.000000,0.000000,0.000000,0.063506,500000.000002,90.031753,24.006916,-99.000000,-99.000000,-99.000000,-99.000000,-99.000000,-99.000000,1013.250000,-0.000000,25.500000,992,1500,1500,1500,992,1500,1499,1500
1.645400,6871388.779155,7616.178441,0.000000,50.867033,33.122760,99.627145,7615.417942,0.000000,0.000000,0.499586,0.204742,0.015068,0.000000,0.000000,0.000000,0.000000,0.063506,500000.000002,90.031753,24.123898,-99.000000,-99.000000,-99.000000,-99.000000,-99.000000,-99.000000,1013.250000,-0.000000,25.500000,992,1500,1500,1500,992,1500,1499,1500
1.655500,6871388.779155,7616.178441,0.000000,51.219383,33.190046,99.742776,7615.417942,0.000000,0.000000,0.499602,0.201633,0.014454,0.000000,0.000000,0.000000,0.000000,0.063506,500000.000002,90.031753,24.239528,-99.000000,-99.000000,-99.000000,-99.000000,-99.000000,-99.000000,1013.250000,-0.000000,25.500000,992,1500,1500,1500,992,1500,1499,1500
1.665600,6871388.779155,7616.178441,0.000000,51.571111,33.255892,99.857048,7615.417942,0.000000,0.000000,0.499618,0.198547,0.013850,0.000000,0.000000,0.000000,0.000000,0.063506,500000.000002,90.031753,24.353801,-99.000000,-99.000000,-99.000000,-99.000000,-99.000000,-99.000000,1013.250000,-0.000000,25.500000,992,1500,1500,1500,992,1500,1499,1500
1.675700,6871388.779155,7616.178441,0.000000,51.922208,33.320322,99.969958,7615.417942,0.000000,0.000000,0.499633,0.195482,0.013254,0.000000,0.000000,0.000000,0.000000,0.063506,500000.000002,90.031753,24.466711,-99.000000,-99.000000,-99.000000,-99.000000,-99.000000,-99.000000,1013.250000,-0.000000,25.500000,992,1500,1500,1500,992,1500,1499,1500
1.685800,6871388.779155,7616.178441,0.000000,52.272667,33.383357,100.081500,7615.417942,0.000000,0.000000,0.499648,0.192439,0.012668,0.000000,0.000000,0.000000,0.000000,0.063506,500000.000002,90.031753,24.578252,-99.000000,-99.000000,-99.000000,-99.000000,-99.000000,-99.000000,1013.250000,-0.000000,25.500000,992,1500,1500,1500,992,1500,1499,1500
1.695900,6871388.779155,7616.178441,0.000000,52.622480,33.445018,100.191668,7615.417942,0.000000,0.000000,0.499662,0.189417,0.012091,0.000000,0.000000,0.000000,0.000000,0.063506,500000.000002,90.031753,24.688421,-99.000000,-99.000000,-99.000000,-99.000000,-99.000000,-99.000000,1013.250000,-0.000000,25.500000,992,1500,1500,1500,992,1500,1499,1500
1.706000,6871388.779155,7616.178441,0.000000,52.971638,33.505328,100.300460,7615.417942,0.000000,0.000000,0.499675,0.186418,0.011523,0.000000,0.000000,0.000000,0.000000,0.063506,500000.000002,90.031753,24.797212,-99.000000,-99.000000,-99.000000,-99.000000,-99.000000,-99.000000,1013.250000,-0.000000,25.500000,992,1500,1500,1500,992,1500,1499,1500
1.716100,6871388.779155,7616.178441,0.000000,53.320136,33.564309,100.407870,7615.417942,0.000000,0.000000,0.499688,0.183441,0.010965,0.000000,0.000000,0.000000,0.000000,0.063506,500000.000002,90.031753,24.904622,-99.000000,-99.000000,-99.000000,-99.000000,-99.000000,-99.000000,1013.250000,-0.000000,25.500000,992,1500,1500,1500,992,1500,1499,1500
1.726200,6871388.779155,7616.178441,0.000000,53.667966,33.621980,100.513896,7615.417942,0.000000,0.000000,0.499700,0.180487,0.010415,0.000000,0.000000,0.000000,0.000000,0.063506,500000.000002,90.031753,25.010648,-99.000000,-99.000000,-99.000000,-99.000000,-99.000000,-99.000000,1013.250000,-0.000000,25.500000,992,1500,1500,1500,992,1500,1499,1500
1.736300,6871388.779155,7616.178441,0.000000,54.015122,33.678366,100.618535,7615.417942,0.000000,0.000000,0.499712,0.177555,0.009874,0.000000,0.000000,0.000000,0.000000,0.063506,500000.000002,90.031753,25.115287,-99.000000,-99.000000,-99.000000,-99.000000,-99.000000,-99.000000,1013.250000,-0.000000,25.500000,992,1500,1500,1500,992,1500,1500,1500
