Time (sec) ,Sense X(m) ,Sense Y(m) ,Sense Z(m) ,Sense Roll (deg) ,Sense Pitch (deg) ,Sense Compass (deg) ,Sense U(m/s) ,Sense V(m/s) ,Sense W(m/s) ,Sense P(rad/s) ,Sense Q(rad/s) ,Sense R(rad/s) ,Sense Mx(Gauss) ,Sense My(Gauss) ,Sense Mz(Gauss) ,Sense GPS Latitude (deg) ,Sense GPS Longitude (deg) ,Sense GPS Altitude (m) ,Sense GPS Heading (deg) ,Sense IMU Heading (deg) ,Sense Analog 1 (V) ,Sense Analog 2 (V) ,Sense Analog 3 (V) ,Sense Analog 4 (V) ,Sense Analog 5 (V) ,Sense Analog 6 (V) ,Sense Pressure (Pa) ,Sense Pressure Altitude (m) ,Sense Temperature (C) ,RC Channel #1 ,RC Channel #2 ,RC Channel #3 ,RC Channel #4 ,RC Channel #5 ,PWM Hardware Out 1 ,PWM Hardware Out 2 ,PWM Hardware Out 3 
 0.000000,6871393.000000,0.000000,-0.000000,0.000000,0.000000,0.000000,0.000000,0.000000,0.000000,0.200000,0.200000,0.200000,0.000000,0.000000,0.000000,0.000000,0.000000,500000.000000,0.000000,0.000000,-99.000000,-99.000000,-99.000000,-99.000000,-99.000000,-99.000000,1013.250000,0.000000,25.500000,992,1500,1500,1500,992,1500,1500,1500
0.010100,6871393.000000,0.000000,-0.000000,0.111876,0.110839,0.108080,0.000000,0.000000,0.000000,0.190239,0.187401,0.177346,0.000000,0.000000,0.000000,0.000000,0.000000,500000.000000,0.000000,0.108080,-99.000000,-99.000000,-99.000000,-99.000000,-99.000000,-99.000000,1013.250000,0.000000,25.500000,992,1500,1500,1500,992,1499,1498,1496
0.020200,6871393.000000,0.000000,-0.000000,0.219504,0.215520,0.205025,0.000000,0.000000,0.000000,0.180863,0.175482,0.157069,0.000000,0.000000,0.000000,0.000000,0.000000,500000.000000,0.000000,0.205025,-99.000000,-99.000000,-99.000000,-99.000000,-99.000000,-99.000000,1013.250000,0.000000,25.500000,992,1500,1500,1500,992,1499,1498,1497
0.030300,6871393.000000,0.000000,-0.000000,0.321963,0.313400,0.291082,0.000000,0.000000,0.000000,0.171950,0.164320,0.139111,0.000000,0.000000,0.000000,0.000000,0.000000,500000.000000,0.000000,0.291082,-99.000000,-99.000000,-99.000000,-99.000000,-99.000000,-99.000000,1013.250000,0.000000,25.500000,992,1500,1500,1500,992,1499,1498,1497
0.040300,6871393.000000,0.000000,-0.000000,0.418533,0.404064,0.366771,0.000000,0.000000,0.000000,0.163558,0.153969,0.123354,0.000000,0.000000,0.000000,0.000000,0.000000,500000.000000,0.000000,0.366771,-99.000000,-99.000000,-99.000000,-99.000000,-99.000000,-99.000000,1013.250000,0.000000,25.500000,992,1500,1500,1500,992,1499,1498,1497
0.050300,6871393.000000,0.000000,-0.000000,0.510462,0.488931,0.434057,0.000000,0.000000,0.000000,0.155575,0.144270,0.109382,0.000000,0.000000,0.000000,0.000000,0.000000,500000.000000,0.000000,0.434057,-99.000000,-99.000000,-99.000000,-99.000000,-99.000000,-99.000000,1013.250000,0.000000,25.500000,992,1500,1500,1500,992,1499,1498,1498
0.060300,6871393.000000,0.000000,-0.000000,0.597959,0.568386,0.493881,0.000000,0.000000,0.000000,0.147982,0.135182,0.096992,0.000000,0.000000,0.000000,0.000000,0.000000,500000.000000,0.000000,0.493881,-99.000000,-99.000000,-99.000000,-99.000000,-99.000000,-99.000000,1013.250000,0.000000,25.500000,992,1500,1500,1500,992,1499,1498,1498
0.070300,6871393.000000,0.000000,-0.000000,0.681222,0.642785,0.547080,0.000000,0.000000,0.000000,0.140760,0.126666,0.086006,0.000000,0.000000,0.000000,0.000000,0.000000,500000.000000,0.000000,0.547080,-99.000000,-99.000000,-99.000000,-99.000000,-99.000000,-99.000000,1013.250000,0.000000,25.500000,992,1500,1500,1500,992,1500,1499,1498
0.080300,6871393.000000,0.000000,-0.000000,0.760446,0.712459,0.594394,0.000000,0.000000,0.000000,0.133890,0.118687,0.076264,0.000000,0.000000,0.000000,0.000000,0.000000,500000.000000,0.000000,0.594394,-99.000000,-99.000000,-99.000000,-99.000000,-99.000000,-99.000000,1013.250000,0.000000,25.500000,992,1500,1500,1500,992,1500,1499,1498
0.090300,6871393.000000,0.000000,-0.000000,0.835819,0.777718,0.636482,0.000000,0.000000,0.000000,0.127355,0.111211,0.067625,0.000000,0.000000,0.000000,0.000000,0.000000,500000.000000,0.000000,0.636482,-99.000000,-99.000000,-99.000000,-99.000000,-99.000000,-99.000000,1013.250000,0.000000,25.500000,992,1500,1500,1500,992,1500,1499,1499
0.100300,6871393.000000,0.000000,-0.000000,0.907520,0.838846,0.673928,0.000000,0.000000,0.000000,0.121139,0.104205,0.059966,0.000000,0.000000,0.000000,0.000000,0.000000,500000.000000,0.000000,0.673928,-99.000000,-99.000000,-99.000000,-99.000000,-99.000000,-99.000000,1013.250000,0.000000,25.500000,992,1500,1500,1500,992,1500,1499,1499
0.110300,6871393.000000,0.000000,-0.000000,0.975724,0.896110,0.707251,0.000000,0.000000,0.000000,0.115227,0.097641,0.053173,0.000000,0.000000,0.000000,0.000000,0.000000,500000.000000,0.000000,0.707251,-99.000000,-99.000000,-99.000000,-99.000000,-99.000000,-99.000000,1013.250000,0.000000,25.500000,992,1500,1500,1500,992,1500,1499,1499
0.120300,6871393.000000,0.000000,-0.000000,1.040598,0.949760,0.736909,0.000000,0.000000,0.000000,0.109603,0.091490,0.047150,0.000000,0.000000,0.000000,0.000000,0.000000,500000.000000,0.000000,0.736909,-99.000000,-99.000000,-99.000000,-99.000000,-99.000000,-99.000000,1013.250000,0.000000,25.500000,992,1500,1500,1500,992,1500,1499,1499
0.130400,6871393.000000,0.000000,-0.000000,1.102901,1.000513,0.763561,0.000000,0.000000,0.000000,0.104202,0.085671,0.041759,0.000000,0.000000,0.000000,0.000000,0.000000,500000.000000,0.000000,0.763561,-99.000000,-99.000000,-99.000000,-99.000000,-99.000000,-99.000000,1013.250000,0.000000,25.500000,992,1500,1500,1500,992,1500,1499,1499
0.140500,6871393.000000,0.000000,-0.000000,1.162126,1.048037,0.787265,0.000000,0.000000,0.000000,0.099066,0.080223,0.036985,0.000000,0.000000,0.000000,0.000000,0.000000,500000.000000,0.000000,0.787265,-99.000000,-99.000000,-99.000000,-99.000000,-99.000000,-99.000000,1013.250000,0.000000,25.500000,992,1500,1500,1500,992,1500,1499,1499
0.150600,6871393.000000,0.000000,-0.000000,1.218424,1.092540,0.808352,0.000000,0.000000,0.000000,0.094184,0.075120,0.032756,0.000000,0.000000,0.000000,0.000000,0.000000,500000.000000,0.000000,0.808352,-99.000000,-99.000000,-99.000000,-99.000000,-99.000000,-99.000000,1013.250000,0.000000,25.500000,992,1500,1500,1500,992,1500,1499,1499
0.160700,6871393.000000,0.000000,-0.000000,1.271938,1.134216,0.827115,0.000000,0.000000,0.000000,0.089543,0.070342,0.029011,0.000000,0.000000,0.000000,0.000000,0.000000,500000.000000,0.000000,0.827115,-99.000000,-99.000000,-99.000000,-99.000000,-99.000000,-99.000000,1013.250000,0.000000,25.500000,992,1500,1500,1500,992,1500,1499,1499
0.170800,6871393.000000,0.000000,-0.000000,1.322803,1.173246,0.843816,0.000000,0.000000,0.000000,0.085130,0.065868,0.025694,0.000000,0.000000,0.000000,0.000000,0.000000,500000.000000,0.000000,0.843816,-99.000000,-99.000000,-99.000000,-99.000000,-99.000000,-99.000000,1013.250000,0.000000,25.500000,992,1500,1500,1500,992,1500,1499,1499
0.180900,6871393.000000,0.000000,-0.000000,1.371152,1.209798,0.858684,0.000000,0.000000,0.000000,0.080934,0.061679,0.022756,0.000000,0.000000,0.000000,0.000000,0.000000,500000.000000,0.000000,0.858684,-99.000000,-99.000000,-99.000000,-99.000000,-99.000000,-99.000000,1013.250000,0.000000,25.500000,992,1500,1500,1500,992,1500,1499,1500
0.191000,6871393.000000,0.000000,-0.000000,1.417107,1.244032,0.871924,0.000000,0.000000,0.000000,0.076946,0.057756,0.020154,0.000000,0.000000,0.000000,0.000000,0.000000,500000.000000,0.000000,0.871924,-99.000000,-99.000000,-99.000000,-99.000000,-99.000000,-99.000000,1013.250000,0.000000,25.500000,992,1500,1500,1500,992,1500,1499,1500
0.201100,6871393.000000,0.000000,-0.000000,1.460788,1.276094,0.883719,0.000000,0.000000,0.000000,0.073154,0.054083,0.017850,0.000000,0.000000,0.000000,0.000000,0.000000,500000.000000,0.000000,0.883719,-99.000000,-99.000000,-99.000000,-99.000000,-99.000000,-99.000000,1013.250000,0.000000,25.500000,992,1500,1500,1500,992,1500,1499,1500
0.211200,6871393.000000,0.000000,-0.000000,1.502306,1.306123,0.894229,0.000000,0.000000,0.000000,0.069549,0.050643,0.015809,0.000000,0.000000,0.000000,0.000000,0.000000,500000.000000,0.000000,0.894229,-99.000000,-99.000000,-99.000000,-99.000000,-99.000000,-99.000000,1013.250000,0.000000,25.500000,992,1500,1500,1500,992,1500,1499,1500
0.221300,6871393.000000,0.000000,-0.000000,1.541768,1.334249,0.903596,0.000000,0.000000,0.000000,0.066121,0.047422,0.014002,0.000000,0.000000,0.000000,0.000000,0.000000,500000.000000,0.000000,0.903596,-99.000000,-99.000000,-99.000000,-99.000000,-99.000000,-99.000000,1013.250000,0.000000,25.500000,992,1500,1500,1500,992,1500,1499,1500
0.231400,6871393.000000,0.000000,-0.000000,1.579277,1.360592,0.911949,0.000000,0.000000,0.000000,0.062862,0.044406,0.012401,0.000000,0.000000,0.000000,0.000000,0.000000,500000.000000,0.000000,0.911949,-99.000000,-99.000000,-99.000000,-99.000000,-99.000000,-99.000000,1013.250000,0.000000,25.500000,992,1500,1500,1500,992,1500,1500,1500
0.241500,6871393.000000,0.000000,-0.000000,1.614930,1.385265,0.919399,0.000000,0.000000,0.000000,0.059764,0.041582,0.010983,0.000000,0.000000,0.000000,0.000000,0.000000,500000.000000,0.000000,0.919399,-99.000000,-99.000000,-99.000000,-99.000000,-99.000000,-99.000000,1013.250000,0.000000,25.500000,992,1500,1500,1500,992,1500,1500,1500
0.251600,6871393.000000,0.000000,-0.000000,1.648817,1.408374,0.926047,0.000000,0.000000,0.000000,0.056819,0.038937,0.009727,0.000000,0.000000,0.000000,0.000000,0.000000,500000.000000,0.000000,0.926047,-99.000000,-99.000000,-99.000000,-99.000000,-99.000000,-99.000000,1013.250000,0.000000,25.500000,992,1500,1500,1500,992,1500,1500,1500
0.261700,6871393.000000,0.000000,-0.000000,1.681028,1.430019,0.931981,0.000000,0.000000,0.000000,0.054019,0.036461,0.008615,0.000000,0.000000,0.000000,0.000000,0.000000,500000.000000,0.000000,0.931981,-99.000000,-99.000000,-99.000000,-99.000000,-99.000000,-99.000000,1013.250000,0.000000,25.500000,992,1500,1500,1500,992,1500,1500,1500
0.271800,6871393.000000,0.000000,-0.000000,1.711644,1.450292,0.937280,0.000000,0.000000,0.000000,0.051357,0.034142,0.007630,0.000000,0.000000,0.000000,0.000000,0.000000,500000.000000,0.000000,0.937280,-99.000000,-99.000000,-99.000000,-99.000000,-99.000000,-99.000000,1013.250000,0.000000,25.500000,992,1500,1500,1500,992,1500,1500,1500
0.281900,6871393.000000,0.000000,-0.000000,1.740746,1.469280,0.942013,0.000000,0.000000,0.000000,0.048826,0.031970,0.006758,0.000000,0.000000,0.000000,0.000000,0.000000,500000.000000,0.000000,0.942013,-99.000000,-99.000000,-99.000000,-99.000000,-99.000000,-99.000000,1013.250000,0.000000,25.500000,992,1500,1500,1500,992,1500,1500,1500
0.292000,6871393.000000,0.000000,-0.000000,1.768408,1.487065,0.946244,0.000000,0.000000,0.000000,0.046420,0.029937,0.005985,0.000000,0.000000,0.000000,0.000000,0.000000,500000.000000,0.000000,0.946244,-99.000000,-99.000000,-99.000000,-99.000000,-99.000000,-99.000000,1013.250000,0.000000,25.500000,992,1500,1500,1500,992,1500,1500,1500
0.302100,6871393.000000,0.000000,-0.000000,1.794701,1.503722,0.950026,0.000000,0.000000,0.000000,0.044132,0.028033,0.005301,0.000000,0.000000,0.000000,0.000000,0.000000,500000.000000,0.000000,0.950026,-99.000000,-99.000000,-99.000000,-99.000000,-99.000000,-99.000000,1013.250000,0.000000,25.500000,992,1500,1500,1500,992,1500,1500,1500
0.312200,6871393.000000,0.000000,-0.000000,1.819695,1.519324,0.953410,0.000000,0.000000,0.000000,0.041957,0.026250,0.004695,0.000000,0.000000,0.000000,0.000000,0.000000,500000.000000,0.000000,0.953410,-99.000000,-99.000000,-99.000000,-99.000000,-99.000000,-99.000000,1013.250000,0.000000,25.500000,992,1500,1500,1500,992,1500,1500,1500
0.322300,6871393.000000,0.000000,-0.000000,1.843452,1.533937,0.956438,0.000000,0.000000,0.000000,0.039889,0.024580,0.004158,0.000000,0.000000,0.000000,0.000000,0.000000,500000.000000,0.000000,0.956438,-99.000000,-99.000000,-99.000000,-99.000000,-99.000000,-99.000000,1013.250000,0.000000,25.500000,992,1500,1500,1500,992,1500,1500,1500
0.332400,6871393.000000,0.000000,-0.000000,1.866035,1.547623,0.959149,0.000000,0.000000,0.000000,0.037923,0.023017,0.003683,0.000000,0.000000,0.000000,0.000000,0.000000,500000.000000,0.000000,0.959149,-99.000000,-99.000000,-99.000000,-99.000000,-99.000000,-99.000000,1013.250000,0.000000,25.500000,992,1500,1500,1500,992,1500,1500,1500
0.342500,6871393.000000,0.000000,-0.000000,1.887501,1.560442,0.961578,0.000000,0.000000,0.000000,0.036055,0.021553,0.003261,0.000000,0.000000,0.000000,0.000000,0.000000,500000.000000,0.000000,0.961578,-99.000000,-99.000000,-99.000000,-99.000000,-99.000000,-99.000000,1013.250000,0.000000,25.500000,992,1500,1500,1500,992,1500,1500,1500
0.352600,6871393.000000,0.000000,-0.000000,1.907907,1.572448,0.963754,0.000000,0.000000,0.000000,0.034278,0.020182,0.002889,0.000000,0.000000,0.000000,0.000000,0.000000,500000.000000,0.000000,0.963754,-99.000000,-99.000000,-99.000000,-99.000000,-99.000000,-99.000000,1013.250000,0.000000,25.500000,992,1500,1500,1500,992,1500,1500,1500
0.362700,6871393.000000,0.000000,-0.000000,1.927303,1.583693,0.965707,0.000000,0.000000,0.000000,0.032588,0.018899,0.002558,0.000000,0.000000,0.000000,0.000000,0.000000,500000.000000,0.000000,0.965707,-99.000000,-99.000000,-99.000000,-99.000000,-99.000000,-99.000000,1013.250000,0.000000,25.500000,992,1500,1500,1500,992,1500,1500,1500
0.372800,6871393.000000,0.000000,-0.000000,1.945742,1.594224,0.967458,0.000000,0.000000,0.000000,0.030982,0.017697,0.002266,0.000000,0.000000,0.000000,0.000000,0.000000,500000.000000,0.000000,0.967458,-99.000000,-99.000000,-99.000000,-99.000000,-99.000000,-99.000000,1013.250000,0.000000,25.500000,992,1500,1500,1500,992,1500,1500,1500
0.382900,6871393.000000,0.000000,-0.000000,1.963269,1.604088,0.969031,0.000000,0.000000,0.000000,0.029455,0.016571,0.002007,0.000000,0.000000,0.000000,0.000000,0.000000,500000.000000,0.000000,0.969031,-99.000000,-99.000000,-99.000000,-99.000000,-99.000000,-99.000000,1013.250000,0.000000,25.500000,992,1500,1500,1500,992,1500,1500,1500
0.393000,6871393.000000,0.000000,-0.000000,1.979931,1.613326,0.970444,0.000000,0.000000,0.000000,0.028004,0.015517,0.001777,0.000000,0.000000,0.000000,0.000000,0.000000,500000.000000,0.000000,0.970444,-99.000000,-99.000000,-99.000000,-99.000000,-99.000000,-99.000000,1013.250000,0.000000,25.500000,992,1500,1500,1500,992,1500,1500,1500
0.403100,6871393.000000,0.000000,-0.000000,1.995770,1.621978,0.971714,0.000000,0.000000,0.000000,0.026624,0.014530,0.001574,0.000000,0.000000,0.000000,0.000000,0.000000,500000.000000,0.000000,0.971714,-99.000000,-99.000000,-99.000000,-99.000000,-99.000000,-99.000000,1013.250000,0.000000,25.500000,992,1500,1500,1500,992,1500,1500,1500
0.413200,6871393.000000,0.000000,-0.000000,2.010826,1.630081,0.972856,0.000000,0.000000,0.000000,0.025312,0.013606,0.001394,0.000000,0.000000,0.000000,0.000000,0.000000,500000.000000,0.000000,0.972856,-99.000000,-99.000000,-99.000000,-99.000000,-99.000000,-99.000000,1013.250000,0.000000,25.500000,992,1500,1500,1500,992,1500,1500,1500
0.423300,6871393.000000,0.000000,-0.000000,2.025139,1.637671,0.973884,0.000000,0.000000,0.000000,0.024064,0.012741,0.001235,0.000000,0.000000,0.000000,0.000000,0.000000,500000.000000,0.000000,0.973884,-99.000000,-99.000000,-99.000000,-99.000000,-99.000000,-99.000000,1013.250000,0.000000,25.500000,992,1500,1500,1500,992,1500,1500,1500
0.433400,6871393.000000,0.000000,-0.000000,2.038745,1.644778,0.974810,0.000000,0.000000,0.000000,0.022878,0.011930,0.001094,0.000000,0.000000,0.000000,0.000000,0.000000,500000.000000,0.000000,0.974810,-99.000000,-99.000000,-99.000000,-99.000000,-99.000000,-99.000000,1013.250000,0.000000,25.500000,992,1500,1500,1500,992,1500,1500,1500
0.443500,6871393.000000,0.000000,-0.000000,2.051680,1.651435,0.975644,0.000000,0.000000,0.000000,0.021751,0.011172,0.000969,0.000000,0.000000,0.000000,0.000000,0.000000,500000.000000,0.000000,0.975644,-99.000000,-99.000000,-99.000000,-99.000000,-99.000000,-99.000000,1013.250000,0.000000,25.500000,992,1500,1500,1500,992,1500,1500,1500
0.453600,6871393.000000,0.000000,-0.000000,2.063975,1.657669,0.976396,0.000000,0.000000,0.000000,0.020679,0.010461,0.000858,0.000000,0.000000,0.000000,0.000000,0.000000,500000.000000,0.000000,0.976396,-99.000000,-99.000000,-99.000000,-99.000000,-99.000000,-99.000000,1013.250000,0.000000,25.500000,992,1500,1500,1500,992,1500,1500,1500
0.463700,6871393.000000,0.000000,-0.000000,2.075664,1.663507,0.977075,0.000000,0.000000,0.000000,0.019660,0.009796,0.000760,0.000000,0.000000,0.000000,0.000000,0.000000,500000.000000,0.000000,0.977075,-99.000000,-99.000000,-99.000000,-99.000000,-99.000000,-99.000000,1013.250000,0.000000,25.500000,992,1500,1500,1500,992,1500,1500,1500
0.473800,6871393.000000,0.000000,-0.000000,2.086776,1.668975,0.977689,0.000000,0.000000,0.000000,0.018691,0.009173,0.000673,0.000000,0.000000,0.000000,0.000000,0.000000,500000.000000,0.000000,0.977689,-99.000000,-99.000000,-99.000000,-99.000000,-99.000000,-99.000000,1013.250000,0.000000,25.500000,992,1500,1500,1500,992,1500,1500,1500
0.483900,6871393.000000,0.000000,-0.000000,2.097340,1.674095,0.978243,0.000000,0.000000,0.000000,0.017770,0.008589,0.000596,0.000000,0.000000,0.000000,0.000000,0.000000,500000.000000,0.000000,0.978243,-99.000000,-99.000000,-99.000000,-99.000000,-99.000000,-99.000000,1013.250000,0.000000,25.500000,992,1500,1500,1500,992,1500,1500,1500
0.494000,6871393.000000,0.000000,-0.000000,2.107382,1.678891,0.978744,0.000000,0.000000,0.000000,0.016894,0.008043,0.000528,0.000000,0.000000,0.000000,0.000000,0.000000,500000.000000,0.000000,0.978744,-99.000000,-99.000000,-99.000000,-99.000000,-99.000000,-99.000000,1013.250000,0.000000,25.500000,992,1500,1500,1500,992,1500,1500,1500
0.504100,6871393.000000,0.000000,-0.000000,2.116929,1.683382,0.979198,0.000000,0.000000,0.000000,0.016062,0.007531,0.000467,0.000000,0.000000,0.000000,0.000000,0.000000,500000.000000,0.000000,0.979198,-99.000000,-99.000000,-99.000000,-99.000000,-99.000000,-99.000000,1013.250000,0.000000,25.500000,992,1500,1500,1500,992,1500,1500,1500
0.514200,6871393.000000,0.000000,-0.000000,2.126005,1.687588,0.979609,0.000000,0.000000,0.000000,0.015270,0.007052,0.000414,0.000000,0.000000,0.000000,0.000000,0.000000,500000.000000,0.000000,0.979609,-99.000000,-99.000000,-99.000000,-99.000000,-99.000000,-99.000000,1013.250000,0.000000,25.500000,992,1500,1500,1500,992,1500,1500,1500
0.524300,6871393.000000,0.000000,-0.000000,2.134633,1.691527,0.979981,0.000000,0.000000,0.000000,0.014517,0.006604,0.000367,0.000000,0.000000,0.000000,0.000000,0.000000,500000.000000,0.000000,0.979981,-99.000000,-99.000000,-99.000000,-99.000000,-99.000000,-99.000000,1013.250000,0.000000,25.500000,992,1500,1500,1500,992,1500,1500,1500
0.534400,6871393.000000,0.000000,-0.000000,2.142835,1.695216,0.980319,0.000000,0.000000,0.000000,0.013802,0.006184,0.000325,0.000000,0.000000,0.000000,0.000000,0.000000,500000.000000,0.000000,0.980319,-99.000000,-99.000000,-99.000000,-99.000000,-99.000000,-99.000000,1013.250000,0.000000,25.500000,992,1500,1500,1500,992,1500,1500,1500
0.544500,6871393.000000,0.000000,-0.000000,2.150633,1.698670,0.980626,0.000000,0.000000,0.000000,0.013122,0.005791,0.000288,0.000000,0.000000,0.000000,0.000000,0.000000,500000.000000,0.000000,0.980626,-99.000000,-99.000000,-99.000000,-99.000000,-99.000000,-99.000000,1013.250000,0.000000,25.500000,992,1500,1500,1500,992,1500,1500,1500
0.554600,6871393.000000,0.000000,-0.000000,2.158046,1.701905,0.980904,0.000000,0.000000,0.000000,0.012475,0.005422,0.000255,0.000000,0.000000,0.000000,0.000000,0.000000,500000.000000,0.000000,0.980904,-99.000000,-99.000000,-99.000000,-99.000000,-99.000000,-99.000000,1013.250000,0.000000,25.500000,992,1500,1500,1500,992,1500,1500,1500
0.564700,6871393.000000,0.000000,-0.000000,2.165093,1.704935,0.981158,0.000000,0.000000,0.000000,0.011860,0.005077,0.000226,0.000000,0.000000,0.000000,0.000000,0.000000,500000.000000,0.000000,0.981158,-99.000000,-99.000000,-99.000000,-99.000000,-99.000000,-99.000000,1013.250000,0.000000,25.500000,992,1500,1500,1500,992,1500,1500,1500
0.574800,6871393.000000,0.000000,-0.000000,2.171793,1.707772,0.981388,0.000000,0.000000,0.000000,0.011276,0.004754,0.000200,0.000000,0.000000,0.000000,0.000000,0.000000,500000.000000,0.000000,0.981388,-99.000000,-99.000000,-99.000000,-99.000000,-99.000000,-99.000000,1013.250000,0.000000,25.500000,992,1500,1500,1500,992,1500,1500,1500
0.584900,6871393.000000,0.000000,-0.000000,2.178162,1.710429,0.981598,0.000000,0.000000,0.000000,0.010720,0.004452,0.000177,0.000000,0.000000,0.000000,0.000000,0.000000,500000.000000,0.000000,0.981598,-99.000000,-99.000000,-99.000000,-99.000000,-99.000000,-99.000000,1013.250000,0.000000,25.500000,992,1500,1500,1500,992,1500,1500,1500
0.595000,6871393.000000,0.000000,-0.000000,2.184217,1.712917,0.981790,0.000000,0.000000,0.000000,0.010192,0.004169,0.000157,0.000000,0.000000,0.000000,0.000000,0.000000,500000.000000,0.000000,0.981790,-99.000000,-99.000000,-99.000000,-99.000000,-99.000000,-99.000000,1013.250000,0.000000,25.500000,992,1500,1500,1500,992,1500,1500,1500
0.605100,6871393.000000,0.000000,-0.000000,2.189974,1.715247,0.981964,0.000000,0.000000,0.000000,0.009690,0.003904,0.000139,0.000000,0.000000,0.000000,0.000000,0.000000,500000.000000,0.000000,0.981964,-99.000000,-99.000000,-99.000000,-99.000000,-99.000000,-99.000000,1013.250000,0.000000,25.500000,992,1500,1500,1500,992,1500,1500,1500
0.615200,6871393.000000,0.000000,-0.000000,2.195446,1.717429,0.982123,0.000000,0.000000,0.000000,0.009212,0.003656,0.000123,0.000000,0.000000,0.000000,0.000000,0.000000,500000.000000,0.000000,0.982123,-99.000000,-99.000000,-99.000000,-99.000000,-99.000000,-99.000000,1013.250000,0.000000,25.500000,992,1500,1500,1500,992,1500,1500,1500
0.625300,6871393.000000,0.000000,-0.000000,2.200649,1.719472,0.982269,0.000000,0.000000,0.000000,0.008758,0.003423,0.000109,0.000000,0.000000,0.000000,0.000000,0.000000,500000.000000,0.000000,0.982269,-99.000000,-99.000000,-99.000000,-99.000000,-99.000000,-99.000000,1013.250000,0.000000,25.500000,992,1500,1500,1500,992,1500,1500,1500
0.635400,6871393.000000,0.000000,-0.000000,2.205595,1.721385,0.982402,0.000000,0.000000,0.000000,0.008326,0.003205,0.000096,0.000000,0.000000,0.000000,0.000000,0.000000,500000.000000,0.000000,0.982402,-99.000000,-99.000000,-99.000000,-99.000000,-99.000000,-99.000000,1013.250000,0.000000,25.500000,992,1500,1500,1500,992,1500,1500,1500
0.645500,6871393.000000,0.000000,-0.000000,2.210298,1.723177,0.982524,0.000000,0.000000,0.000000,0.007916,0.003001,0.000085,0.000000,0.000000,0.000000,0.000000,0.000000,500000.000000,0.000000,0.982524,-99.000000,-99.000000,-99.000000,-99.000000,-99.000000,-99.000000,1013.250000,0.000000,25.500000,992,1500,1500,1500,992,1500,1500,1500
0.655600,6871393.000000,0.000000,-0.000000,2.214768,1.724855,0.982635,0.000000,0.000000,0.000000,0.007526,0.002811,0.000076,0.000000,0.000000,0.000000,0.000000,0.000000,500000.000000,0.000000,0.982635,-99.000000,-99.000000,-99.000000,-99.000000,-99.000000,-99.000000,1013.250000,0.000000,25.500000,992,1500,1500,1500,992,1500,1500,1500
0.665700,6871393.000000,0.000000,-0.000000,2.219018,1.726427,0.982737,0.000000,0.000000,0.000000,0.007155,0.002632,0.000067,0.000000,0.000000,0.000000,0.000000,0.000000,500000.000000,0.000000,0.982737,-99.000000,-99.000000,-99.000000,-99.000000,-99.000000,-99.000000,1013.250000,0.000000,25.500000,992,1500,1500,1500,992,1500,1500,1500
0.675800,6871393.000000,0.000000,-0.000000,2.223059,1.727898,0.982831,0.000000,0.000000,0.000000,0.006802,0.002464,0.000059,0.000000,0.000000,0.000000,0.000000,0.000000,500000.000000,0.000000,0.982831,-99.000000,-99.000000,-99.000000,-99.000000,-99.000000,-99.000000,1013.250000,0.000000,25.500000,992,1500,1500,1500,992,1500,1500,1500
0.685900,6871393.000000,0.000000,-0.000000,2.226900,1.729276,0.982917,0.000000,0.000000,0.000000,0.006467,0.002308,0.000053,0.000000,0.000000,0.000000,0.000000,0.000000,500000.000000,0.000000,0.982917,-99.000000,-99.000000,-99.000000,-99.000000,-99.000000,-99.000000,1013.250000,0.000000,25.500000,992,1500,1500,1500,992,1500,1500,1500
0.696000,6871393.000000,0.000000,-0.000000,2.230552,1.730566,0.982996,0.000000,0.000000,0.000000,0.006148,0.002161,0.000047,0.000000,0.000000,0.000000,0.000000,0.000000,500000.000000,0.000000,0.982996,-99.000000,-99.000000,-99.000000,-99.000000,-99.000000,-99.000000,1013.250000,0.000000,25.500000,992,1500,1500,1500,992,1500,1500,1500
0.706100,6871393.000000,0.000000,-0.000000,2.234024,1.731775,0.983068,0.000000,0.000000,0.000000,0.005845,0.002023,0.000041,0.000000,0.000000,0.000000,0.000000,0.000000,500000.000000,0.000000,0.983068,-99.000000,-99.000000,-99.000000,-99.000000,-99.000000,-99.000000,1013.250000,0.000000,25.500000,992,1500,1500,1500,992,1500,1500,1500
0.716200,6871393.000000,0.000000,-0.000000,2.237324,1.732906,0.983135,0.000000,0.000000,0.000000,0.005557,0.001895,0.000037,0.000000,0.000000,0.000000,0.000000,0.000000,500000.000000,0.000000,0.983135,-99.000000,-99.000000,-99.000000,-99.000000,-99.000000,-99.000000,1013.250000,0.000000,25.500000,992,1500,1500,1500,992,1500,1500,1500
0.726300,6871393.000000,0.000000,-0.000000,2.240462,1.733966,0.983196,0.000000,0.000000,0.000000,0.005284,0.001774,0.000032,0.000000,0.000000,0.000000,0.000000,0.000000,500000.000000,0.000000,0.983196,-99.000000,-99.000000,-99.000000,-99.000000,-99.000000,-99.000000,1013.250000,0.000000,25.500000,992,1500,1500,1500,992,1500,1500,1500
0.736400,6871393.000000,0.000000,-0.000000,2.243446,1.734958,0.983253,0.000000,0.000000,0.000000,0.005023,0.001661,0.000029,0.000000,0.000000,0.000000,0.000000,0.000000,500000.000000,0.000000,0.983253,-99.000000,-99.000000,-99.000000,-99.000000,-99.000000,-99.000000,1013.250000,0.000000,25.500000,992,1500,1500,1500,992,1500,1500,1500
0.746500,6871393.000000,0.000000,-0.000000,2.246282,1.735888,0.983305,0.000000,0.000000,0.000000,0.004776,0.001556,0.000025,0.000000,0.000000,0.000000,0.000000,0.000000,500000.000000,0.000000,0.983305,-99.000000,-99.000000,-99.000000,-99.000000,-99.000000,-99.000000,1013.250000,0.000000,25.500000,992,1500,1500,1500,992,1500,1500,1500
0.756600,6871393.000000,0.000000,-0.000000,2.248978,1.736758,0.983353,0.000000,0.000000,0.000000,0.004540,0.001457,0.000022,0.000000,0.000000,0.000000,0.000000,0.000000,500000.000000,0.000000,0.983353,-99.000000,-99.000000,-99.000000,-99.000000,-99.000000,-99.000000,1013.250000,0.000000,25.500000,992,1500,1500,1500,992,1500,1500,1500
0.766700,6871393.000000,0.000000,-0.000000,2.251541,1.737572,0.983397,0.000000,0.000000,0.000000,0.004316,0.001364,0.000020,0.000000,0.000000,0.000000,0.000000,0.000000,500000.000000,0.000000,0.983397,-99.000000,-99.000000,-99.000000,-99.000000,-99.000000,-99.000000,1013.250000,0.000000,25.500000,992,1500,1500,1500,992,1500,1500,1500
0.776800,6871393.000000,0.000000,-0.000000,2.253979,1.738335,0.983438,0.000000,0.000000,0.000000,0.004104,0.001277,0.000018,0.000000,0.000000,0.000000,0.000000,0.000000,500000.000000,0.000000,0.983438,-99.000000,-99.000000,-99.000000,-99.000000,-99.000000,-99.000000,1013.250000,0.000000,25.500000,992,1500,1500,1500,992,1500,1500,1500
0.786900,6871393.000000,0.000000,-0.000000,2.256295,1.739050,0.983476,0.000000,0.000000,0.000000,0.003902,0.001196,0.000016,0.000000,0.000000,0.000000,0.000000,0.000000,500000.000000,0.000000,0.983476,-99.000000,-99.000000,-99.000000,-99.000000,-99.000000,-99.000000,1013.250000,0.000000,25.500000,992,1500,1500,1500,992,1500,1500,1500
0.797000,6871393.000000,0.000000,-0.000000,2.258498,1.739719,0.983511,0.000000,0.000000,0.000000,0.003709,0.001120,0.000014,0.000000,0.000000,0.000000,0.000000,0.000000,500000.000000,0.000000,0.983511,-99.000000,-99.000000,-99.000000,-99.000000,-99.000000,-99.000000,1013.250000,0.000000,25.500000,992,1500,1500,1500,992,1500,1500,1500
0.807100,6871393.000000,0.000000,-0.000000,2.260592,1.740346,0.983543,0.000000,0.000000,0.000000,0.003526,0.001049,0.000012,0.000000,0.000000,0.000000,0.000000,0.000000,500000.000000,0.000000,0.983543,-99.000000,-99.000000,-99.000000,-99.000000,-99.000000,-99.000000,1013.250000,0.000000,25.500000,992,1500,1500,1500,992,1500,1500,1500
0.817200,6871393.000000,0.000000,-0.000000,2.262583,1.740932,0.983573,0.000000,0.000000,0.000000,0.003353,0.000982,0.000011,0.000000,0.000000,0.000000,0.000000,0.000000,500000.000000,0.000000,0.983573,-99.000000,-99.000000,-99.000000,-99.000000,-99.000000,-99.000000,1013.250000,0.000000,25.500000,992,1500,1500,1500,992,1500,1500,1500
0.827300,6871393.000000,0.000000,-0.000000,2.264476,1.741482,0.983601,0.000000,0.000000,0.000000,0.003187,0.000920,0.000010,0.000000,0.000000,0.000000,0.000000,0.000000,500000.000000,0.000000,0.983601,-99.000000,-99.000000,-99.000000,-99.000000,-99.000000,-99.000000,1013.250000,0.000000,25.500000,992,1500,1500,1500,992,1500,1500,1500
0.837400,6871393.000000,0.000000,-0.000000,2.266275,1.741996,0.983626,0.000000,0.000000,0.000000,0.003030,0.000861,0.000009,0.000000,0.000000,0.000000,0.000000,0.000000,500000.000000,0.000000,0.983626,-99.000000,-99.000000,-99.000000,-99.000000,-99.000000,-99.000000,1013.250000,0.000000,25.500000,992,1500,1500,1500,992,1500,1500,1500
0.847500,6871393.000000,0.000000,-0.000000,2.267986,1.742478,0.983650,0.000000,0.000000,0.000000,0.002881,0.000806,0.000008,0.000000,0.000000,0.000000,0.000000,0.000000,500000.000000,0.000000,0.983650,-99.000000,-99.000000,-99.000000,-99.000000,-99.000000,-99.000000,1013.250000,0.000000,25.500000,992,1500,1500,1500,992,1500,1500,1500
0.857600,6871393.000000,0.000000,-0.000000,2.269613,1.742929,0.983672,0.000000,0.000000,0.000000,0.002739,0.000755,0.000007,0.000000,0.000000,0.000000,0.000000,0.000000,500000.000000,0.000000,0.983672,-99.000000,-99.000000,-99.000000,-99.000000,-99.000000,-99.000000,1013.250000,0.000000,25.500000,992,1500,1500,1500,992,1500,1500,1500
0.867700,6871393.000000,0.000000,-0.000000,2.271159,1.743352,0.983692,0.000000,0.000000,0.000000,0.002604,0.000707,0.000006,0.000000,0.000000,0.000000,0.000000,0.000000,500000.000000,0.000000,0.983692,-99.000000,-99.000000,-99.000000,-99.000000,-99.000000,-99.000000,1013.250000,0.000000,25.500000,992,1500,1500,1500,992,1500,1500,1500
0.877800,6871393.000000,0.000000,-0.000000,2.272629,1.743747,0.983711,0.000000,0.000000,0.000000,0.002476,0.000662,0.000005,0.000000,0.000000,0.000000,0.000000,0.000000,500000.000000,0.000000,0.983711,-99.000000,-99.000000,-99.000000,-99.000000,-99.000000,-99.000000,1013.250000,0.000000,25.500000,992,1500,1500,1500,992,1500,1500,1500
0.887900,6871393.000000,0.000000,-0.000000,2.274027,1.744118,0.983729,0.000000,0.000000,0.000000,0.002354,0.000620,0.000005,0.000000,0.000000,0.000000,0.000000,0.000000,500000.000000,0.000000,0.983729,-99.000000,-99.000000,-99.000000,-99.000000,-99.000000,-99.000000,1013.250000,0.000000,25.500000,992,1500,1500,1500,992,1500,1500,1500
0.898000,6871393.000000,0.000000,-0.000000,2.275355,1.744464,0.983745,0.000000,0.000000,0.000000,0.002238,0.000581,0.000004,0.000000,0.000000,0.000000,0.000000,0.000000,500000.000000,0.000000,0.983745,-99.000000,-99.000000,-99.000000,-99.000000,-99.000000,-99.000000,1013.250000,0.000000,25.500000,992,1500,1500,1500,992,1500,1500,1500
0.908100,6871393.000000,0.000000,-0.000000,2.276618,1.744789,0.983760,0.000000,0.000000,0.000000,0.002127,0.000544,0.000004,0.000000,0.000000,0.000000,0.000000,0.000000,500000.000000,0.000000,0.983760,-99.000000,-99.000000,-99.000000,-99.000000,-99.000000,-99.000000,1013.250000,0.000000,25.500000,992,1500,1500,1500,992,1500,1500,1500
0.918200,6871393.000000,0.000000,-0.000000,2.277819,1.745093,0.983774,0.000000,0.000000,0.000000,0.002023,0.000509,0.000003,0.000000,0.000000,0.000000,0.000000,0.000000,500000.000000,0.000000,0.983774,-99.000000,-99.000000,-99.000000,-99.000000,-99.000000,-99.000000,1013.250000,0.000000,25.500000,992,1500,1500,1500,992,1500,1500,1500
0.928300,6871393.000000,0.000000,-0.000000,2.278961,1.745378,0.983787,0.000000,0.000000,0.000000,0.001923,0.000477,0.000003,0.000000,0.000000,0.000000,0.000000,0.000000,500000.000000,0.000000,0.983787,-99.000000,-99.000000,-99.000000,-99.000000,-99.000000,-99.000000,1013.250000,0.000000,25.500000,992,1500,1500,1500,992,1500,1500,1500
0.938400,6871393.000000,0.000000,-0.000000,2.280047,1.745645,0.983800,0.000000,0.000000,0.000000,0.001828,0.000446,0.000003,0.000000,0.000000,0.000000,0.000000,0.000000,500000.000000,0.000000,0.983800,-99.000000,-99.000000,-99.000000,-99.000000,-99.000000,-99.000000,1013.250000,0.000000,25.500000,992,1500,1500,1500,992,1500,1500,1500
0.948500,6871393.000000,0.000000,-0.000000,2.281079,1.745895,0.983811,0.000000,0.000000,0.000000,0.001738,0.000418,0.000002,0.000000,0.000000,0.000000,0.000000,0.000000,500000.000000,0.000000,0.983811,-99.000000,-99.000000,-99.000000,-99.000000,-99.000000,-99.000000,1013.250000,0.000000,25.500000,992,1500,1500,1500,992,1500,1500,1500
0.958600,6871393.000000,0.000000,-0.000000,2.282060,1.746129,0.983821,0.000000,0.000000,0.000000,0.001652,0.000391,0.000002,0.000000,0.000000,0.000000,0.000000,0.000000,500000.000000,0.000000,0.983821,-99.000000,-99.000000,-99.000000,-99.000000,-99.000000,-99.000000,1013.250000,0.000000,25.500000,992,1500,1500,1500,992,1500,1500,1500
0.968700,6871393.000000,0.000000,-0.000000,2.282992,1.746348,0.983831,0.000000,0.000000,0.000000,0.001571,0.000366,0.000002,0.000000,0.000000,0.000000,0.000000,0.000000,500000.000000,0.000000,0.983831,-99.000000,-99.000000,-99.000000,-99.000000,-99.000000,-99.000000,1013.250000,0.000000,25.500000,992,1500,1500,1500,992,1500,1500,1500
0.978800,6871393.000000,0.000000,-0.000000,2.283879,1.746553,0.983840,0.000000,0.000000,0.000000,0.001494,0.000343,0.000002,0.000000,0.000000,0.000000,0.000000,0.000000,500000.000000,0.000000,0.983840,-99.000000,-99.000000,-99.000000,-99.000000,-99.000000,-99.000000,1013.250000,0.000000,25.500000,992,1500,1500,1500,992,1500,1500,1500
0.988900,6871393.000000,0.000000,-0.000000,2.284722,1.746745,0.983849,0.000000,0.000000,0.000000,0.001420,0.000321,0.000001,0.000000,0.000000,0.000000,0.000000,0.000000,500000.000000,0.000000,0.983849,-99.000000,-99.000000,-99.000000,-99.000000,-99.000000,-99.000000,1013.250000,0.000000,25.500000,992,1500,1500,1500,992,1500,1500,1500
0.999000,6871393.000000,0.000000,-0.000000,2.285524,1.746924,0.983857,0.000000,0.000000,0.000000,0.001350,0.000301,0.000001,0.000000,0.000000,0.000000,0.000000,0.000000,500000.000000,0.000000,0.983857,-99.000000,-99.000000,-99.000000,-99.000000,-99.000000,-99.000000,1013.250000,0.000000,25.500000,992,1500,1500,1500,992,1500,1500,1500
1.009100,6871388.779155,7616.178441,-0.000000,2.286286,1.747093,90.031760,7615.417942,0.000000,0.000000,0.001283,0.000282,0.000001,0.000000,0.000000,0.000000,0.000000,0.063506,500000.000002,90.031753,0.983864,-99.000000,-99.000000,-99.000000,-99.000000,-99.000000,-99.000000,1013.250000,0.000000,25.500000,992,1500,1500,1500,992,1500,1500,1500
1.019200,6871388.779155,7616.178441,-0.000000,2.287010,1.747250,90.031766,7615.417942,0.000000,0.000000,0.001220,0.000264,0.000001,0.000000,0.000000,0.000000,0.000000,0.063506,500000.000002,90.031753,0.983871,-99.000000,-99.000000,-99.000000,-99.000000,-99.000000,-99.000000,1013.250000,0.000000,25.500000,992,1500,1500,1500,992,1500,1500,1500
1.029300,6871388.779155,7616.178441,-0.000000,2.287699,1.747398,90.031773,7615.417942,0.000000,0.000000,0.001160,0.000247,0.000001,0.000000,0.000000,0.000000,0.000000,0.063506,500000.000002,90.031753,0.983878,-99.000000,-99.000000,-99.000000,-99.000000,-99.000000,-99.000000,1013.250000,0.000000,25.500000,992,1500,1500,1500,992,1500,1500,1500
1.039400,6871388.779155,7616.178441,-0.000000,2.288354,1.747536,90.031779,7615.417942,0.000000,0.000000,0.001103,0.000231,0.000001,0.000000,0.000000,0.000000,0.000000,0.063506,500000.000002,90.031753,0.983884,-99.000000,-99.000000,-99.000000,-99.000000,-99.000000,-99.000000,1013.250000,0.000000,25.500000,992,1500,1500,1500,992,1500,1500,1500
1.049500,6871388.779155,7616.178441,-0.000000,2.288976,1.747666,90.031784,7615.417942,0.000000,0.000000,0.001049,0.000217,0.000001,0.000000,0.000000,0.000000,0.000000,0.063506,500000.000002,90.031753,0.983889,-99.000000,-99.000000,-99.000000,-99.000000,-99.000000,-99.000000,1013.250000,0.000000,25.500000,992,1500,1500,1500,992,1500,1500,1500
1.059600,6871388.779155,7616.178441,-0.000000,2.289568,1.747787,90.031790,7615.417942,0.000000,0.000000,0.000997,0.000203,0.000001,0.000000,0.000000,0.000000,0.000000,0.063506,500000.000002,90.031753,0.983894,-99.000000,-99.000000,-99.000000,-99.000000,-99.000000,-99.000000,1013.250000,0.000000,25.500000,992,1500,1500,1500,992,1500,1500,1500
1.069700,6871388.779155,7616.178441,-0.000000,2.290131,1.747901,90.031795,7615.417942,0.000000,0.000000,0.000948,0.000190,0.000001,0.000000,0.000000,0.000000,0.000000,0.063506,500000.000002,90.031753,0.983899,-99.000000,-99.000000,-99.000000,-99.000000,-99.000000,-99.000000,1013.250000,0.000000,25.500000,992,1500,1500,1500,992,1500,1500,1500
1.079800,6871388.779155,7616.178441,-0.000000,2.290666,1.748007,90.031799,7615.417942,0.000000,0.000000,0.000901,0.000178,0.000000,0.000000,0.000000,0.000000,0.000000,0.063506,500000.000002,90.031753,0.983904,-99.000000,-99.000000,-99.000000,-99.000000,-99.000000,-99.000000,1013.250000,0.000000,25.500000,992,1500,1500,1500,992,1500,1500,1500
1.089900,6871388.779155,7616.178441,-0.000000,2.291174,1.748106,90.031803,7615.417942,0.000000,0.000000,0.000857,0.000167,0.000000,0.000000,0.000000,0.000000,0.000000,0.063506,500000.000002,90.031753,0.983908,-99.000000,-99.000000,-99.000000,-99.000000,-99.000000,-99.000000,1013.250000,0.000000,25.500000,992,1500,1500,1500,992,1500,1500,1500
1.100000,6871388.779155,7616.178441,-0.000000,2.291658,1.748200,90.031807,7615.417942,0.000000,0.000000,0.000814,0.000156,0.000000,0.000000,0.000000,0.000000,0.000000,0.063506,500000.000002,90.031753,0.983912,-99.000000,-99.000000,-99.000000,-99.000000,-99.000000,-99.000000,1013.250000,0.000000,25.500000,992,1500,1500,1500,992,1500,1500,1500
1.110100,6871388.779155,7616.178441,-0.000000,2.292118,1.748287,90.031811,7615.417942,0.000000,0.000000,0.000774,0.000146,0.000000,0.000000,0.000000,0.000000,0.000000,0.063506,500000.000002,90.031753,0.983916,-99.000000,-99.000000,-99.000000,-99.000000,-99.000000,-99.000000,1013.250000,0.000000,25.500000,992,1500,1500,1500,992,1500,1500,1500
1.120200,6871388.779155,7616.178441,-0.000000,2.292555,1.748369,90.031814,7615.417942,0.000000,0.000000,0.000736,0.000137,0.000000,0.000000,0.000000,0.000000,0.000000,0.063506,500000.000002,90.031753,0.983919,-99.000000,-99.000000,-99.000000,-99.000000,-99.000000,-99.000000,1013.250000,0.000000,25.500000,992,1500,1500,1500,992,1500,1500,1500
1.130300,6871388.779155,7616.178441,-0.000000,2.292970,1.748445,90.031818,7615.417942,0.000000,0.000000,0.000700,0.000128,0.000000,0.000000,0.000000,0.000000,0.000000,0.063506,500000.000002,90.031753,0.983922,-99.000000,-99.000000,-99.000000,-99.000000,-99.000000,-99.000000,1013.250000,0.000000,25.500000,992,1500,1500,1500,992,1500,1500,1500
1.140400,6871388.779155,7616.178441,-0.000000,2.293365,1.748517,90.031821,7615.417942,0.000000,0.000000,0.000665,0.000120,0.000000,0.000000,0.000000,0.000000,0.000000,0.063506,500000.000002,90.031753,0.983925,-99.000000,-99.000000,-99.000000,-99.000000,-99.000000,-99.000000,1013.250000,0.000000,25.500000,992,1500,1500,1500,992,1500,1500,1500
1.150500,6871388.779155,7616.178441,-0.000000,2.293741,1.748584,90.031823,7615.417942,0.000000,0.000000,0.000633,0.000112,0.000000,0.000000,0.000000,0.000000,0.000000,0.063506,500000.000002,90.031753,0.983928,-99.000000,-99.000000,-99.000000,-99.000000,-99.000000,-99.000000,1013.250000,0.000000,25.500000,992,1500,1500,1500,992,1500,1500,1500
1.160600,6871388.779155,7616.178441,-0.000000,2.294098,1.748647,90.031826,7615.417942,0.000000,0.000000,0.000601,0.000105,0.000000,0.000000,0.000000,0.000000,0.000000,0.063506,500000.000002,90.031753,0.983931,-99.000000,-99.000000,-99.000000,-99.000000,-99.000000,-99.000000,1013.250000,0.000000,25.500000,992,1500,1500,1500,992,1500,1500,1500
1.170700,6871388.779155,7616.178441,-0.000000,2.294437,1.748706,90.031829,7615.417942,0.000000,0.000000,0.000572,0.000098,0.000000,0.000000,0.000000,0.000000,0.000000,0.063506,500000.000002,90.031753,0.983933,-99.000000,-99.000000,-99.000000,-99.000000,-99.000000,-99.000000,1013.250000,0.000000,25.500000,992,1500,1500,1500,992,1500,1500,1500
1.180800,6871388.779155,7616.178441,-0.000000,2.294760,1.748761,90.031831,7615.417942,0.000000,0.000000,0.000544,0.000092,0.000000,0.000000,0.000000,0.000000,0.000000,0.063506,500000.000002,90.031753,0.983935,-99.000000,-99.000000,-99.000000,-99.000000,-99.000000,-99.000000,1013.250000,0.000000,25.500000,992,1500,1500,1500,992,1500,1500,1500
1.190900,6871388.779155,7616.178441,-0.000000,2.295067,1.748812,90.031833,7615.417942,0.000000,0.000000,0.000517,0.000086,0.000000,0.000000,0.000000,0.000000,0.000000,0.063506,500000.000002,90.031753,0.983938,-99.000000,-99.000000,-99.000000,-99.000000,-99.000000,-99.000000,1013.250000,0.000000,25.500000,992,1500,1500,1500,992,1500,1500,1500
1.201000,6871388.779155,7616.178441,-0.000000,2.295358,1.748861,90.031835,7615.417942,0.000000,0.000000,0.000491,0.000081,0.000000,0.000000,0.000000,0.000000,0.000000,0.063506,500000.000002,90.031753,0.983940,-99.000000,-99.000000,-99.000000,-99.000000,-99.000000,-99.000000,1013.250000,0.000000,25.500000,992,1500,1500,1500,992,1500,1500,1500
1.211100,6871388.779155,7616.178441,-0.000000,2.295636,1.748906,90.031837,7615.417942,0.000000,0.000000,0.000467,0.000076,0.000000,0.000000,0.000000,0.000000,0.000000,0.063506,500000.000002,90.031753,0.983941,-99.000000,-99.000000,-99.000000,-99.000000,-99.000000,-99.000000,1013.250000,0.000000,25.500000,992,1500,1500,1500,992,1500,1500,1500
1.221200,6871388.779155,7616.178441,-0.000000,2.295899,1.748948,90.031839,7615.417942,0.000000,0.000000,0.000444,0.000071,0.000000,0.000000,0.000000,0.000000,0.000000,0.063506,500000.000002,90.031753,0.983943,-99.000000,-99.000000,-99.000000,-99.000000,-99.000000,-99.000000,1013.250000,0.000000,25.500000,992,1500,1500,1500,992,1500,1500,1500
1.231300,6871388.779155,7616.178441,-0.000000,2.296150,1.748988,90.031840,7615.417942,0.000000,0.000000,0.000422,0.000066,0.000000,0.000000,0.000000,0.000000,0.000000,0.063506,500000.000002,90.031753,0.983945,-99.000000,-99.000000,-99.000000,-99.000000,-99.000000,-99.000000,1013.250000,0.000000,25.500000,992,1500,1500,1500,992,1500,1500,1500
1.241400,6871388.779155,7616.178441,-0.000000,2.296388,1.749025,90.031842,7615.417942,0.000000,0.000000,0.000401,0.000062,0.000000,0.000000,0.000000,0.000000,0.000000,0.063506,500000.000002,90.031753,0.983946,-99.000000,-99.000000,-99.000000,-99.000000,-99.000000,-99.000000,1013.250000,0.000000,25.500000,992,1500,1500,1500,992,1500,1500,1500
1.251500,6871388.779155,7616.178441,-0.000000,2.296615,1.749060,90.031843,7615.417942,0.000000,0.000000,0.000382,0.000058,0.000000,0.000000,0.000000,0.000000,0.000000,0.063506,500000.000002,90.031753,0.983948,-99.000000,-99.000000,-99.000000,-99.000000,-99.000000,-99.000000,1013.250000,0.000000,25.500000,992,1500,1500,1500,992,1500,1500,1500
1.261600,6871388.779155,7616.178441,-0.000000,2.296830,1.749092,90.031845,7615.417942,0.000000,0.000000,0.000363,0.000055,0.000000,0.000000,0.000000,0.000000,0.000000,0.063506,500000.000002,90.031753,0.983949,-99.000000,-99.000000,-99.000000,-99.000000,-99.000000,-99.000000,1013.250000,0.000000,25.500000,992,1500,1500,1500,992,1500,1500,1500
1.271700,6871388.779155,7616.178441,-0.000000,2.297035,1.749123,90.031846,7615.417942,0.000000,0.000000,0.000345,0.000051,0.000000,0.000000,0.000000,0.000000,0.000000,0.063506,500000.000002,90.031753,0.983950,-99.000000,-99.000000,-99.000000,-99.000000,-99.000000,-99.000000,1013.250000,0.000000,25.500000,992,1500,1500,1500,992,1500,1500,1500
1.281800,6871388.779155,7616.178441,-0.000000,2.297230,1.749152,90.031847,7615.417942,0.000000,0.000000,0.000328,0.000048,0.000000,0.000000,0.000000,0.000000,0.000000,0.063506,500000.000002,90.031753,0.983952,-99.000000,-99.000000,-99.000000,-99.000000,-99.000000,-99.000000,1013.250000,0.000000,25.500000,992,1500,1500,1500,992,1500,1500,1500
1.291900,6871388.779155,7616.178441,-0.000000,2.297415,1.749178,90.031848,7615.417942,0.000000,0.000000,0.000312,0.000045,0.000000,0.000000,0.000000,0.000000,0.000000,0.063506,500000.000002,90.031753,0.983953,-99.000000,-99.000000,-99.000000,-99.000000,-99.000000,-99.000000,1013.250000,0.000000,25.500000,992,1500,1500,1500,992,1500,1500,1500
1.302000,6871388.779155,7616.178441,-0.000000,2.297591,1.749203,90.031849,7615.417942,0.000000,0.000000,0.000296,0.000042,0.000000,0.000000,0.000000,0.000000,0.000000,0.063506,500000.000002,90.031753,0.983954,-99.000000,-99.000000,-99.000000,-99.000000,-99.000000,-99.000000,1013.250000,0.000000,25.500000,992,1500,1500,1500,992,1500,1500,1500
1.312100,6871388.779155,7616.178441,-0.000000,2.297758,1.749227,90.031850,7615.417942,0.000000,0.000000,0.000282,0.000039,0.000000,0.000000,0.000000,0.000000,0.000000,0.063506,500000.000002,90.031753,0.983955,-99.000000,-99.000000,-99.000000,-99.000000,-99.000000,-99.000000,1013.250000,0.000000,25.500000,992,1500,1500,1500,992,1500,1500,1500
1.322200,6871388.779155,7616.178441,-0.000000,2.297917,1.749249,90.031851,7615.417942,0.000000,0.000000,0.000268,0.000037,0.000000,0.000000,0.000000,0.000000,0.000000,0.063506,500000.000002,90.031753,0.983956,-99.000000,-99.000000,-99.000000,-99.000000,-99.000000,-99.000000,1013.250000,0.000000,25.500000,992,1500,1500,1500,992,1500,1500,1500
1.332300,6871388.779155,7616.178441,-0.000000,2.298068,1.749269,90.031852,7615.417942,0.000000,0.000000,0.000255,0.000034,0.000000,0.000000,0.000000,0.000000,0.000000,0.063506,500000.000002,90.031753,0.983956,-99.000000,-99.000000,-99.000000,-99.000000,-99.000000,-99.000000,1013.250000,0.000000,25.500000,992,1500,1500,1500,992,1500,1500,1500
1.342400,6871388.779155,7616.178441,-0.000000,2.298212,1.749289,90.031853,7615.417942,0.000000,0.000000,0.000242,0.000032,0.000000,0.000000,0.000000,0.000000,0.000000,0.063506,500000.000002,90.031753,0.983957,-99.000000,-99.000000,-99.000000,-99.000000,-99.000000,-99.000000,1013.250000,0.000000,25.500000,992,1500,1500,1500,992,1500,1500,1500
1.352500,6871388.779155,7616.178441,-0.000000,2.298349,1.749307,90.031853,7615.417942,0.000000,0.000000,0.000230,0.000030,0.000000,0.000000,0.000000,0.000000,0.000000,0.063506,500000.000002,90.031753,0.983958,-99.000000,-99.000000,-99.000000,-99.000000,-99.000000,-99.000000,1013.250000,0.000000,25.500000,992,1500,1500,1500,992,1500,1500,1500
1.362600,6871388.779155,7616.178441,-0.000000,2.298478,1.749323,90.031854,7615.417942,0.000000,0.000000,0.000219,0.000028,0.000000,0.000000,0.000000,0.000000,0.000000,0.063506,500000.000002,90.031753,0.983959,-99.000000,-99.000000,-99.000000,-99.000000,-99.000000,-99.000000,1013.250000,0.000000,25.500000,992,1500,1500,1500,992,1500,1500,1500
1.372700,6871388.779155,7616.178441,-0.000000,2.298602,1.749339,90.031855,7615.417942,0.000000,0.000000,0.000208,0.000026,0.000000,0.000000,0.000000,0.000000,0.000000,0.063506,500000.000002,90.031753,0.983959,-99.000000,-99.000000,-99.000000,-99.000000,-99.000000,-99.000000,1013.250000,0.000000,25.500000,992,1500,1500,1500,992,1500,1500,1500
1.382800,6871388.779155,7616.178441,-0.000000,2.298719,1.749354,90.031855,7615.417942,0.000000,0.000000,0.000198,0.000025,0.000000,0.000000,0.000000,0.000000,0.000000,0.063506,500000.000002,90.031753,0.983960,-99.000000,-99.000000,-99.000000,-99.000000,-99.000000,-99.000000,1013.250000,0.000000,25.500000,992,1500,1500,1500,992,1500,1500,1500
1.392900,6871388.779155,7616.178441,-0.000000,2.298831,1.749368,90.031856,7615.417942,0.000000,0.000000,0.000188,0.000023,0.000000,0.000000,0.000000,0.000000,0.000000,0.063506,500000.000002,90.031753,0.983960,-99.000000,-99.000000,-99.000000,-99.000000,-99.000000,-99.000000,1013.250000,0.000000,25.500000,992,1500,1500,1500,992,1500,1500,1500
1.403000,6871388.779155,7616.178441,-0.000000,2.298937,1.749381,90.031856,7615.417942,0.000000,0.000000,0.000179,0.000022,0.000000,0.000000,0.000000,0.000000,0.000000,0.063506,500000.000002,90.031753,0.983961,-99.000000,-99.000000,-99.000000,-99.000000,-99.000000,-99.000000,1013.250000,0.000000,25.500000,992,1500,1500,1500,992,1500,1500,1500
1.413100,6871388.779155,7616.178441,-0.000000,2.299038,1.749393,90.031857,7615.417942,0.000000,0.000000,0.000170,0.000020,0.000000,0.000000,0.000000,0.000000,0.000000,0.063506,500000.000002,90.031753,0.983961,-99.000000,-99.000000,-99.000000,-99.000000,-99.000000,-99.000000,1013.250000,0.000000,25.500000,992,1500,1500,1500,992,1500,1500,1500
1.423200,6871388.779155,7616.178441,-0.000000,2.299134,1.749404,90.031857,7615.417942,0.000000,0.000000,0.000162,0.000019,0.000000,0.000000,0.000000,0.000000,0.000000,0.063506,500000.000002,90.031753,0.983962,-99.000000,-99.000000,-99.000000,-99.000000,-99.000000,-99.000000,1013.250000,0.000000,25.500000,992,1500,1500,1500,992,1500,1500,1500
1.433300,6871388.779155,7616.178441,-0.000000,2.299225,1.749415,90.031858,7615.417942,0.000000,0.000000,0.000154,0.000018,0.000000,0.000000,0.000000,0.000000,0.000000,0.063506,500000.000002,90.031753,0.983962,-99.000000,-99.000000,-99.000000,-99.000000,-99.000000,-99.000000,1013.250000,0.000000,25.500000,992,1500,1500,1500,992,1500,1500,1500
1.443400,6871388.779155,7616.178441,-0.000000,2.299312,1.749425,90.031858,7615.417942,0.000000,0.000000,0.000146,0.000017,0.000000,0.000000,0.000000,0.000000,0.000000,0.063506,500000.000002,90.031753,0.983963,-99.000000,-99.000000,-99.000000,-99.000000,-99.000000,-99.000000,1013.250000,0.000000,25.500000,992,1500,1500,1500,992,1500,1500,1500
1.453500,6871388.779155,7616.178441,-0.000000,2.299395,1.749434,90.031858,7615.417942,0.000000,0.000000,0.000139,0.000016,0.000000,0.000000,0.000000,0.000000,0.000000,0.063506,500000.000002,90.031753,0.983963,-99.000000,-99.000000,-99.000000,-99.000000,-99.000000,-99.000000,1013.250000,0.000000,25.500000,992,1500,1500,1500,992,1500,1500,1500
1.463600,6871388.779155,7616.178441,-0.000000,2.299473,1.749443,90.031859,7615.417942,0.000000,0.000000,0.000132,0.000015,0.000000,0.000000,0.000000,0.000000,0.000000,0.063506,500000.000002,90.031753,0.983963,-99.000000,-99.000000,-99.000000,-99.000000,-99.000000,-99.000000,1013.250000,0.000000,25.500000,992,1500,1500,1500,992,1500,1500,1500
1.473700,6871388.779155,7616.178441,-0.000000,2.299547,1.749451,90.031859,7615.417942,0.000000,0.000000,0.000126,0.000014,0.000000,0.000000,0.000000,0.000000,0.000000,0.063506,500000.000002,90.031753,0.983964,-99.000000,-99.000000,-99.000000,-99.000000,-99.000000,-99.000000,1013.250000,0.000000,25.500000,992,1500,1500,1500,992,1500,1500,1500
1.483800,6871388.779155,7616.178441,-0.000000,2.299618,1.749459,90.031859,7615.417942,0.000000,0.000000,0.000119,0.000013,0.000000,0.000000,0.000000,0.000000,0.000000,0.063506,500000.000002,90.031753,0.983964,-99.000000,-99.000000,-99.000000,-99.000000,-99.000000,-99.000000,1013.250000,0.000000,25.500000,992,1500,1500,1500,992,1500,1500,1500
1.493900,6871388.779155,7616.178441,-0.000000,2.299686,1.749466,90.031860,7615.417942,0.000000,0.000000,0.000113,0.000012,0.000000,0.000000,0.000000,0.000000,0.000000,0.063506,500000.000002,90.031753,0.983964,-99.000000,-99.000000,-99.000000,-99.000000,-99.000000,-99.000000,1013.250000,0.000000,25.500000,992,1500,1500,1500,992,1500,1500,1500
1.504000,6871388.779155,7616.178441,-0.000000,2.299750,1.749473,90.031860,7615.417942,0.000000,0.000000,0.000108,0.000011,0.000000,0.000000,0.000000,0.000000,0.000000,0.063506,500000.000002,90.031753,0.983965,-99.000000,-99.000000,-99.000000,-99.000000,-99.000000,-99.000000,1013.250000,0.000000,25.500000,992,1500,1500,1500,992,1500,1500,1500
1.514100,6871388.779155,7616.178441,-0.000000,2.299811,1.749479,90.031860,7615.417942,0.000000,0.000000,0.000103,0.000011,0.000000,0.000000,0.000000,0.000000,0.000000,0.063506,500000.000002,90.031753,0.983965,-99.000000,-99.000000,-99.000000,-99.000000,-99.000000,-99.000000,1013.250000,0.000000,25.500000,992,1500,1500,1500,992,1500,1500,1500
1.524200,6871388.779155,7616.178441,-0.000000,2.299868,1.749485,90.031861,7615.417942,0.000000,0.000000,0.000097,0.000010,0.000000,0.000000,0.000000,0.000000,0.000000,0.063506,500000.000002,90.031753,0.983965,-99.000000,-99.000000,-99.000000,-99.000000,-99.000000,-99.000000,1013.250000,0.000000,25.500000,992,1500,1500,1500,992,1500,1500,1500
1.534300,6871388.779155,7616.178441,-0.000000,2.299923,1.749491,90.031861,7615.417942,0.000000,0.000000,0.000093,0.000009,0.000000,0.000000,0.000000,0.000000,0.000000,0.063506,500000.000002,90.031753,0.983965,-99.000000,-99.000000,-99.000000,-99.000000,-99.000000,-99.000000,1013.250000,0.000000,25.500000,992,1500,1500,1500,992,1500,1500,1500
1.544400,6871388.779155,7616.178441,-0.000000,2.299976,1.749496,90.031861,7615.417942,0.000000,0.000000,0.000088,0.000009,0.000000,0.000000,0.000000,0.000000,0.000000,0.063506,500000.000002,90.031753,0.983966,-99.000000,-99.000000,-99.000000,-99.000000,-99.000000,-99.000000,1013.250000,0.000000,25.500000,992,1500,1500,1500,992,1500,1500,1500
1.554500,6871388.779155,7616.178441,-0.000000,2.300025,1.749501,90.031861,7615.417942,0.000000,0.000000,0.000084,0.000008,0.000000,0.000000,0.000000,0.000000,0.000000,0.063506,500000.000002,90.031753,0.983966,-99.000000,-99.000000,-99.000000,-99.000000,-99.000000,-99.000000,1013.250000,0.000000,25.500000,992,1500,1500,1500,992,1500,1500,1500
1.564600,6871388.779155,7616.178441,-0.000000,2.300073,1.749505,90.031861,7615.417942,0.000000,0.000000,0.000080,0.000008,0.000000,0.000000,0.000000,0.000000,0.000000,0.063506,500000.000002,90.031753,0.983966,-99.000000,-99.000000,-99.000000,-99.000000,-99.000000,-99.000000,1013.250000,0.000000,25.500000,992,1500,1500,1500,992,1500,1500,1500
1.574700,6871388.779155,7616.178441,-0.000000,2.300118,1.749510,90.031862,7615.417942,0.000000,0.000000,0.000076,0.000007,0.000000,0.000000,0.000000,0.000000,0.000000,0.063506,500000.000002,90.031753,0.983966,-99.000000,-99.000000,-99.000000,-99.000000,-99.000000,-99.000000,1013.250000,0.000000,25.500000,992,1500,1500,1500,992,1500,1500,1500
1.584800,6871388.779155,7616.178441,-0.000000,2.300160,1.749513,90.031862,7615.417942,0.000000,0.000000,0.000072,0.000007,0.000000,0.000000,0.000000,0.000000,0.000000,0.063506,500000.000002,90.031753,0.983966,-99.000000,-99.000000,-99.000000,-99.000000,-99.000000,-99.000000,1013.250000,0.000000,25.500000,992,1500,1500,1500,992,1500,1500,1500
1.594900,6871388.779155,7616.178441,-0.000000,2.300201,1.749517,90.031862,7615.417942,0.000000,0.000000,0.000068,0.000006,0.000000,0.000000,0.000000,0.000000,0.000000,0.063506,500000.000002,90.031753,0.983966,-99.000000,-99.000000,-99.000000,-99.000000,-99.000000,-99.000000,1013.250000,0.000000,25.500000,992,1500,1500,1500,992,1500,1500,1500
1.605000,6871388.779155,7616.178441,-0.000000,2.300240,1.749521,90.031862,7615.417942,0.000000,0.000000,0.000065,0.000006,0.000000,0.000000,0.000000,0.000000,0.000000,0.063506,500000.000002,90.031753,0.983967,-99.000000,-99.000000,-99.000000,-99.000000,-99.000000,-99.000000,1013.250000,0.000000,25.500000,992,1500,1500,1500,992,1500,1500,1500
1.615100,6871388.779155,7616.178441,-0.000000,2.300276,1.749524,90.031862,7615.417942,0.000000,0.000000,0.000062,0.000005,0.000000,0.000000,0.000000,0.000000,0.000000,0.063506,500000.000002,90.031753,0.983967,-99.000000,-99.000000,-99.000000,-99.000000,-99.000000,-99.000000,1013.250000,0.000000,25.500000,992,1500,1500,1500,992,1500,1500,1500
1.625200,6871388.779155,7616.178441,-0.000000,2.300311,1.749527,90.031862,7615.417942,0.000000,0.000000,0.000059,0.000005,0.000000,0.000000,0.000000,0.000000,0.000000,0.063506,500000.000002,90.031753,0.983967,-99.000000,-99.000000,-99.000000,-99.000000,-99.000000,-99.000000,1013.250000,0.000000,25.500000,992,1500,1500,1500,992,1500,1500,1500
1.635300,6871388.779155,7616.178441,-0.000000,2.300345,1.749530,90.031862,7615.417942,0.000000,0.000000,0.000056,0.000005,0.000000,0.000000,0.000000,0.000000,0.000000,0.063506,500000.000002,90.031753,0.983967,-99.000000,-99.000000,-99.000000,-99.000000,-99.000000,-99.000000,1013.250000,0.000000,25.500000,992,1500,1500,1500,992,1500,1500,1500
1.645400,6871388.779155,7616.178441,-0.000000,2.300376,1.749533,90.031862,7615.417942,0.000000,0.000000,0.000053,0.000004,0.000000,0.000000,0.000000,0.000000,0.000000,0.063506,500000.000002,90.031753,0.983967,-99.000000,-99.000000,-99.000000,-99.000000,-99.000000,-99.000000,1013.250000,0.000000,25.500000,992,1500,1500,1500,992,1500,1500,1500
1.655500,6871388.779155,7616.178441,-0.000000,2.300406,1.749535,90.031863,7615.417942,0.000000,0.000000,0.000051,0.000004,0.000000,0.000000,0.000000,0.000000,0.000000,0.063506,500000.000002,90.031753,0.983967,-99.000000,-99.000000,-99.000000,-99.000000,-99.000000,-99.000000,1013.250000,0.000000,25.500000,992,1500,1500,1500,992,1500,1500,1500
1.665600,6871388.779155,7616.178441,-0.000000,2.300435,1.749537,90.031863,7615.417942,0.000000,0.000000,0.000048,0.000004,0.000000,0.000000,0.000000,0.000000,0.000000,0.063506,500000.000002,90.031753,0.983967,-99.000000,-99.000000,-99.000000,-99.000000,-99.000000,-99.000000,1013.250000,0.000000,25.500000,992,1500,1500,1500,992,1500,1500,1500
1.675700,6871388.779155,7616.178441,-0.000000,2.300462,1.749540,90.031863,7615.417942,0.000000,0.000000,0.000046,0.000004,0.000000,0.000000,0.000000,0.000000,0.000000,0.063506,500000.000002,90.031753,0.983967,-99.000000,-99.000000,-99.000000,-99.000000,-99.000000,-99.000000,1013.250000,0.000000,25.500000,992,1500,1500,1500,992,1500,1500,1500
1.685800,6871388.779155,7616.178441,-0.000000,2.300488,1.749542,90.031863,7615.417942,0.000000,0.000000,0.000043,0.000003,0.000000,0.000000,0.000000,0.000000,0.000000,0.063506,500000.000002,90.031753,0.983967,-99.000000,-99.000000,-99.000000,-99.000000,-99.000000,-99.000000,1013.250000,0.000000,25.500000,992,1500,1500,1500,992,1500,1500,1500
1.695900,6871388.779155,7616.178441,-0.000000,2.300512,1.749544,90.031863,7615.417942,0.000000,0.000000,0.000041,0.000003,0.000000,0.000000,0.000000,0.000000,0.000000,0.063506,500000.000002,90.031753,0.983968,-99.000000,-99.000000,-99.000000,-99.000000,-99.000000,-99.000000,1013.250000,0.000000,25.500000,992,1500,1500,1500,992,1500,1500,1500
1.706000,6871388.779155,7616.178441,-0.000000,2.300535,1.749545,90.031863,7615.417942,0.000000,0.000000,0.000039,0.000003,0.000000,0.000000,0.000000,0.000000,0.000000,0.063506,500000.000002,90.031753,0.983968,-99.000000,-99.000000,-99.000000,-99.000000,-99.000000,-99.000000,1013.250000,0.000000,25.500000,992,1500,1500,1500,992,1500,1500,1500
1.716100,6871388.779155,7616.178441,-0.000000,2.300558,1.749547,90.031863,7615.417942,0.000000,0.000000,0.000037,0.000003,0.000000,0.000000,0.000000,0.000000,0.000000,0.063506,500000.000002,90.031753,0.983968,-99.000000,-99.000000,-99.000000,-99.000000,-99.000000,-99.000000,1013.250000,0.000000,25.500000,992,1500,1500,1500,992,1500,1500,1500
1.726200,6871388.779155,7616.178441,-0.000000,2.300579,1.749549,90.031863,7615.417942,0.000000,0.000000,0.000035,0.000003,0.000000,0.000000,0.000000,0.000000,0.000000,0.063506,500000.000002,90.031753,0.983968,-99.000000,-99.000000,-99.000000,-99.000000,-99.000000,-99.000000,1013.250000,0.000000,25.500000,992,1500,1500,1500,992,1500,1500,1500
1.736300,6871388.779155,7616.178441,-0.000000,2.300599,1.749550,90.031863,7615.417942,0.000000,0.000000,0.000034,0.000002,0.000000,0.000000,0.000000,0.000000,0.000000,0.063506,500000.000002,90.031753,0.983968,-99.000000,-99.000000,-99.000000,-99.000000,-99.000000,-99.000000,1013.250000,0.000000,25.500000,992,1500,1500,1500,992,1500,1500,1500
1.746400,6871388.779155,7616.178441,-0.000000,2.300618,1.749552,90.031863,7615.417942,0.000000,0.000000,0.000032,0.000002,0.000000,0.000000,0.000000,0.000000,0.000000,0.063506,500000.000002,90.031753,0.983968,-99.000000,-99.000000,-99.000000,-99.000000,-99.000000,-99.000000,1013.250000,0.000000,25.500000,992,1500,1500,1500,992,1500,1500,1500
