Time (sec) ,Sense X(m) ,Sense Y(m) ,Sense Z(m) ,Sense Roll (deg) ,Sense Pitch (deg) ,Sense Compass (deg) ,Sense U(m/s) ,Sense V(m/s) ,Sense W(m/s) ,Sense P(rad/s) ,Sense Q(rad/s) ,Sense R(rad/s) ,Sense Mx(Gauss) ,Sense My(Gauss) ,Sense Mz(Gauss) ,Sense GPS Latitude (deg) ,Sense GPS Longitude (deg) ,Sense GPS Altitude (m) ,Sense GPS Heading (deg) ,Sense IMU Heading (deg) ,Sense Analog 1 (V) ,Sense Analog 2 (V) ,Sense Analog 3 (V) ,Sense Analog 4 (V) ,Sense Analog 5 (V) ,Sense Analog 6 (V) ,Sense Pressure (Pa) ,Sense Pressure Altitude (m) ,Sense Temperature (C) ,RC Channel #1 ,RC Channel #2 ,RC Channel #3 ,RC Channel #4 ,RC Channel #5 ,PWM Hardware Out 1 ,PWM Hardware Out 2 
 0.000000,6871393.000000,0.000000,-0.000000,0.000000,0.000000,0.000000,0.000000,0.000000,0.000000,0.200000,0.200000,0.200000,0.000000,0.000000,0.000000,0.000000,0.000000,500000.000000,0.000000,0.000000,-99.000000,-99.000000,-99.000000,-99.000000,-99.000000,-99.000000,1013.250000,0.000000,25.500000,992,1500,1500,1500,992,1500,1500
0.010100,6871393.000000,0.000000,-0.000000,0.076787,0.097964,0.114615,0.000000,0.000000,0.000000,0.082354,0.144529,0.199860,0.000000,0.000000,0.000000,0.000000,0.000000,500000.000000,0.000000,0.114615,-99.000000,-99.000000,-99.000000,-99.000000,-99.000000,-99.000000,1013.250000,0.000000,25.500000,992,1500,1500,1500,992,1495,1492
0.020200,6871393.000000,0.000000,-0.000000,0.108259,0.168885,0.230374,0.000000,0.000000,0.000000,0.032923,0.103515,0.199818,0.000000,0.000000,0.000000,0.000000,0.000000,500000.000000,0.000000,0.230374,-99.000000,-99.000000,-99.000000,-99.000000,-99.000000,-99.000000,1013.250000,0.000000,25.500000,992,1500,1500,1500,992,1498,1494
0.030300,6871393.000000,0.000000,-0.000000,0.121127,0.219578,0.346105,0.000000,0.000000,0.000000,0.013161,0.074122,0.199807,0.000000,0.000000,0.000000,0.000000,0.000000,500000.000000,0.000000,0.346105,-99.000000,-99.000000,-99.000000,-99.000000,-99.000000,-99.000000,1013.250000,0.000000,25.500000,992,1500,1500,1500,992,1499,1496
0.040300,6871393.000000,0.000000,-0.000000,0.126560,0.255489,0.460664,0.000000,0.000000,0.000000,0.005309,0.053245,0.199803,0.000000,0.000000,0.000000,0.000000,0.000000,500000.000000,0.000000,0.460664,-99.000000,-99.000000,-99.000000,-99.000000,-99.000000,-99.000000,1013.250000,0.000000,25.500000,992,1500,1500,1500,992,1500,1497
0.050300,6871393.000000,0.000000,-0.000000,0.129097,0.281207,0.575201,0.000000,0.000000,0.000000,0.002142,0.038245,0.199802,0.000000,0.000000,0.000000,0.000000,0.000000,500000.000000,0.000000,0.575201,-99.000000,-99.000000,-99.000000,-99.000000,-99.000000,-99.000000,1013.250000,0.000000,25.500000,992,1500,1500,1500,992,1500,1498
0.060300,6871393.000000,0.000000,-0.000000,0.130485,0.299603,0.689723,0.000000,0.000000,0.000000,0.000864,0.027470,0.199802,0.000000,0.000000,0.000000,0.000000,0.000000,500000.000000,0.000000,0.689723,-99.000000,-99.000000,-99.000000,-99.000000,-99.000000,-99.000000,1013.250000,0.000000,25.500000,992,1500,1500,1500,992,1500,1498
0.070300,6871393.000000,0.000000,-0.000000,0.131423,0.312741,0.804233,0.000000,0.000000,0.000000,0.000349,0.019730,0.199802,0.000000,0.000000,0.000000,0.000000,0.000000,500000.000000,0.000000,0.804233,-99.000000,-99.000000,-99.000000,-99.000000,-99.000000,-99.000000,1013.250000,0.000000,25.500000,992,1500,1500,1500,992,1500,1499
0.080300,6871393.000000,0.000000,-0.000000,0.132189,0.322102,0.918735,0.000000,0.000000,0.000000,0.000141,0.014171,0.199802,0.000000,0.000000,0.000000,0.000000,0.000000,500000.000000,0.000000,0.918735,-99.000000,-99.000000,-99.000000,-99.000000,-99.000000,-99.000000,1013.250000,0.000000,25.500000,992,1500,1500,1500,992,1500,1499
0.090300,6871393.000000,0.000000,-0.000000,0.132893,0.328749,1.033230,0.000000,0.000000,0.000000,0.000057,0.010178,0.199802,0.000000,0.000000,0.000000,0.000000,0.000000,500000.000000,0.000000,1.033230,-99.000000,-99.000000,-99.000000,-99.000000,-99.000000,-99.000000,1013.250000,0.000000,25.500000,992,1500,1500,1500,992,1500,1499
0.100300,6871393.000000,0.000000,-0.000000,0.133576,0.333448,1.147722,0.000000,0.000000,0.000000,0.000023,0.007310,0.199802,0.000000,0.000000,0.000000,0.000000,0.000000,500000.000000,0.000000,1.147722,-99.000000,-99.000000,-99.000000,-99.000000,-99.000000,-99.000000,1013.250000,0.000000,25.500000,992,1500,1500,1500,992,1500,1500
0.110300,6871393.000000,0.000000,-0.000000,0.134254,0.336746,1.262210,0.000000,0.000000,0.000000,0.000009,0.005250,0.199802,0.000000,0.000000,0.000000,0.000000,0.000000,500000.000000,0.000000,1.262210,-99.000000,-99.000000,-99.000000,-99.000000,-99.000000,-99.000000,1013.250000,0.000000,25.500000,992,1500,1500,1500,992,1500,1500
0.120300,6871393.000000,0.000000,-0.000000,0.134933,0.339038,1.376696,0.000000,0.000000,0.000000,0.000004,0.003771,0.199802,0.000000,0.000000,0.000000,0.000000,0.000000,500000.000000,0.000000,1.376696,-99.000000,-99.000000,-99.000000,-99.000000,-99.000000,-99.000000,1013.250000,0.000000,25.500000,992,1500,1500,1500,992,1500,1500
0.130400,6871393.000000,0.000000,-0.000000,0.135620,0.340620,1.492324,0.000000,0.000000,0.000000,0.000001,0.002699,0.199802,0.000000,0.000000,0.000000,0.000000,0.000000,500000.000000,0.000000,1.492324,-99.000000,-99.000000,-99.000000,-99.000000,-99.000000,-99.000000,1013.250000,0.000000,25.500000,992,1500,1500,1500,992,1500,1500
0.140500,6871393.000000,0.000000,-0.000000,0.136309,0.341673,1.607952,0.000000,0.000000,0.000000,0.000001,0.001932,0.199802,0.000000,0.000000,0.000000,0.000000,0.000000,500000.000000,0.000000,1.607952,-99.000000,-99.000000,-99.000000,-99.000000,-99.000000,-99.000000,1013.250000,0.000000,25.500000,992,1500,1500,1500,992,1500,1500
0.150600,6871393.000000,0.000000,-0.000000,0.137000,0.342348,1.723579,0.000000,0.000000,0.000000,0.000000,0.001383,0.199802,0.000000,0.000000,0.000000,0.000000,0.000000,500000.000000,0.000000,1.723579,-99.000000,-99.000000,-99.000000,-99.000000,-99.000000,-99.000000,1013.250000,0.000000,25.500000,992,1500,1500,1500,992,1500,1500
0.160700,6871393.000000,0.000000,-0.000000,0.137691,0.342751,1.839205,0.000000,0.000000,0.000000,0.000000,0.000990,0.199802,0.000000,0.000000,0.000000,0.000000,0.000000,500000.000000,0.000000,1.839205,-99.000000,-99.000000,-99.000000,-99.000000,-99.000000,-99.000000,1013.250000,0.000000,25.500000,992,1500,1500,1500,992,1500,1500
0.170800,6871393.000000,0.000000,-0.000000,0.138383,0.342959,1.954831,0.000000,0.000000,0.000000,0.000000,0.000709,0.199802,0.000000,0.000000,0.000000,0.000000,0.000000,500000.000000,0.000000,1.954831,-99.000000,-99.000000,-99.000000,-99.000000,-99.000000,-99.000000,1013.250000,0.000000,25.500000,992,1500,1500,1500,992,1500,1500
0.180900,6871393.000000,0.000000,-0.000000,0.139075,0.343028,2.070457,0.000000,0.000000,0.000000,0.000000,0.000507,0.199802,0.000000,0.000000,0.000000,0.000000,0.000000,500000.000000,0.000000,2.070457,-99.000000,-99.000000,-99.000000,-99.000000,-99.000000,-99.000000,1013.250000,0.000000,25.500000,992,1500,1500,1500,992,1500,1500
0.191000,6871393.000000,0.000000,-0.000000,0.139768,0.342996,2.186082,0.000000,0.000000,0.000000,0.000000,0.000363,0.199802,0.000000,0.000000,0.000000,0.000000,0.000000,500000.000000,0.000000,2.186082,-99.000000,-99.000000,-99.000000,-99.000000,-99.000000,-99.000000,1013.250000,0.000000,25.500000,992,1500,1500,1500,992,1500,1500
0.201100,6871393.000000,0.000000,-0.000000,0.140460,0.342892,2.301707,0.000000,0.000000,0.000000,0.000000,0.000260,0.199802,0.000000,0.000000,0.000000,0.000000,0.000000,500000.000000,0.000000,2.301707,-99.000000,-99.000000,-99.000000,-99.000000,-99.000000,-99.000000,1013.250000,0.000000,25.500000,992,1500,1500,1500,992,1500,1500
0.211200,6871393.000000,0.000000,-0.000000,0.141152,0.342736,2.417332,0.000000,0.000000,0.000000,0.000000,0.000186,0.199802,0.000000,0.000000,0.000000,0.000000,0.000000,500000.000000,0.000000,2.417332,-99.000000,-99.000000,-99.000000,-99.000000,-99.000000,-99.000000,1013.250000,0.000000,25.500000,992,1500,1500,1500,992,1500,1500
0.221300,6871393.000000,0.000000,-0.000000,0.141843,0.342542,2.532957,0.000000,0.000000,0.000000,0.000000,0.000133,0.199802,0.000000,0.000000,0.000000,0.000000,0.000000,500000.000000,0.000000,2.532957,-99.000000,-99.000000,-99.000000,-99.000000,-99.000000,-99.000000,1013.250000,0.000000,25.500000,992,1500,1500,1500,992,1500,1500
0.231400,6871393.000000,0.000000,-0.000000,0.142534,0.342321,2.648581,0.000000,0.000000,0.000000,0.000000,0.000095,0.199802,0.000000,0.000000,0.000000,0.000000,0.000000,500000.000000,0.000000,2.648581,-99.000000,-99.000000,-99.000000,-99.000000,-99.000000,-99.000000,1013.250000,0.000000,25.500000,992,1500,1500,1500,992,1500,1500
0.241500,6871393.000000,0.000000,-0.000000,0.143225,0.342079,2.764206,0.000000,0.000000,0.000000,0.000000,0.000068,0.199802,0.000000,0.000000,0.000000,0.000000,0.000000,500000.000000,0.000000,2.764206,-99.000000,-99.000000,-99.000000,-99.000000,-99.000000,-99.000000,1013.250000,0.000000,25.500000,992,1500,1500,1500,992,1500,1500
0.251600,6871393.000000,0.000000,-0.000000,0.143915,0.341823,2.879831,0.000000,0.000000,0.000000,0.000000,0.000049,0.199802,0.000000,0.000000,0.000000,0.000000,0.000000,500000.000000,0.000000,2.879831,-99.000000,-99.000000,-99.000000,-99.000000,-99.000000,-99.000000,1013.250000,0.000000,25.500000,992,1500,1500,1500,992,1500,1500
0.261700,6871393.000000,0.000000,-0.000000,0.144604,0.341556,2.995455,0.000000,0.000000,0.000000,0.000000,0.000035,0.199802,0.000000,0.000000,0.000000,0.000000,0.000000,500000.000000,0.000000,2.995455,-99.000000,-99.000000,-99.000000,-99.000000,-99.000000,-99.000000,1013.250000,0.000000,25.500000,992,1500,1500,1500,992,1500,1500
0.271800,6871393.000000,0.000000,-0.000000,0.145293,0.341281,3.111080,0.000000,0.000000,0.000000,0.000000,0.000025,0.199802,0.000000,0.000000,0.000000,0.000000,0.000000,500000.000000,0.000000,3.111080,-99.000000,-99.000000,-99.000000,-99.000000,-99.000000,-99.000000,1013.250000,0.000000,25.500000,992,1500,1500,1500,992,1500,1500
0.281900,6871393.000000,0.000000,-0.000000,0.145982,0.340999,3.226705,0.000000,0.000000,0.000000,0.000000,0.000018,0.199802,0.000000,0.000000,0.000000,0.000000,0.000000,500000.000000,0.000000,3.226705,-99.000000,-99.000000,-99.000000,-99.000000,-99.000000,-99.000000,1013.250000,0.000000,25.500000,992,1500,1500,1500,992,1500,1500
0.292000,6871393.000000,0.000000,-0.000000,0.146670,0.340713,3.342329,0.000000,0.000000,0.000000,0.000000,0.000013,0.199802,0.000000,0.000000,0.000000,0.000000,0.000000,500000.000000,0.000000,3.342329,-99.000000,-99.000000,-99.000000,-99.000000,-99.000000,-99.000000,1013.250000,0.000000,25.500000,992,1500,1500,1500,992,1500,1500
0.302100,6871393.000000,0.000000,-0.000000,0.147357,0.340422,3.457954,0.000000,0.000000,0.000000,0.000000,0.000009,0.199802,0.000000,0.000000,0.000000,0.000000,0.000000,500000.000000,0.000000,3.457954,-99.000000,-99.000000,-99.000000,-99.000000,-99.000000,-99.000000,1013.250000,0.000000,25.500000,992,1500,1500,1500,992,1500,1500
0.312200,6871393.000000,0.000000,-0.000000,0.148043,0.340129,3.573578,0.000000,0.000000,0.000000,0.000000,0.000007,0.199802,0.000000,0.000000,0.000000,0.000000,0.000000,500000.000000,0.000000,3.573578,-99.000000,-99.000000,-99.000000,-99.000000,-99.000000,-99.000000,1013.250000,0.000000,25.500000,992,1500,1500,1500,992,1500,1500
0.322300,6871393.000000,0.000000,-0.000000,0.148730,0.339832,3.689203,0.000000,0.000000,0.000000,0.000000,0.000005,0.199802,0.000000,0.000000,0.000000,0.000000,0.000000,500000.000000,0.000000,3.689203,-99.000000,-99.000000,-99.000000,-99.000000,-99.000000,-99.000000,1013.250000,0.000000,25.500000,992,1500,1500,1500,992,1500,1500
0.332400,6871393.000000,0.000000,-0.000000,0.149415,0.339534,3.804827,0.000000,0.000000,0.000000,0.000000,0.000003,0.199802,0.000000,0.000000,0.000000,0.000000,0.000000,500000.000000,0.000000,3.804827,-99.000000,-99.000000,-99.000000,-99.000000,-99.000000,-99.000000,1013.250000,0.000000,25.500000,992,1500,1500,1500,992,1500,1500
0.342500,6871393.000000,0.000000,-0.000000,0.150100,0.339233,3.920452,0.000000,0.000000,0.000000,0.000000,0.000002,0.199802,0.000000,0.000000,0.000000,0.000000,0.000000,500000.000000,0.000000,3.920452,-99.000000,-99.000000,-99.000000,-99.000000,-99.000000,-99.000000,1013.250000,0.000000,25.500000,992,1500,1500,1500,992,1500,1500
0.352600,6871393.000000,0.000000,-0.000000,0.150784,0.338931,4.036076,0.000000,0.000000,0.000000,0.000000,0.000002,0.199802,0.000000,0.000000,0.000000,0.000000,0.000000,500000.000000,0.000000,4.036076,-99.000000,-99.000000,-99.000000,-99.000000,-99.000000,-99.000000,1013.250000,0.000000,25.500000,992,1500,1500,1500,992,1500,1500
0.362700,6871393.000000,0.000000,-0.000000,0.151468,0.338627,4.151701,0.000000,0.000000,0.000000,0.000000,0.000001,0.199802,0.000000,0.000000,0.000000,0.000000,0.000000,500000.000000,0.000000,4.151701,-99.000000,-99.000000,-99.000000,-99.000000,-99.000000,-99.000000,1013.250000,0.000000,25.500000,992,1500,1500,1500,992,1500,1500
0.372800,6871393.000000,0.000000,-0.000000,0.152151,0.338321,4.267325,0.000000,0.000000,0.000000,0.000000,0.000001,0.199802,0.000000,0.000000,0.000000,0.000000,0.000000,500000.000000,0.000000,4.267325,-99.000000,-99.000000,-99.000000,-99.000000,-99.000000,-99.000000,1013.250000,0.000000,25.500000,992,1500,1500,1500,992,1500,1500
0.382900,6871393.000000,0.000000,-0.000000,0.152833,0.338014,4.382950,0.000000,0.000000,0.000000,0.000000,0.000001,0.199802,0.000000,0.000000,0.000000,0.000000,0.000000,500000.000000,0.000000,4.382950,-99.000000,-99.000000,-99.000000,-99.000000,-99.000000,-99.000000,1013.250000,0.000000,25.500000,992,1500,1500,1500,992,1500,1500
0.393000,6871393.000000,0.000000,-0.000000,0.153515,0.337705,4.498574,0.000000,0.000000,0.000000,0.000000,0.000000,0.199802,0.000000,0.000000,0.000000,0.000000,0.000000,500000.000000,0.000000,4.498574,-99.000000,-99.000000,-99.000000,-99.000000,-99.000000,-99.000000,1013.250000,0.000000,25.500000,992,1500,1500,1500,992,1500,1500
0.403100,6871393.000000,0.000000,-0.000000,0.154196,0.337395,4.614199,0.000000,0.000000,0.000000,0.000000,0.000000,0.199802,0.000000,0.000000,0.000000,0.000000,0.000000,500000.000000,0.000000,4.614199,-99.000000,-99.000000,-99.000000,-99.000000,-99.000000,-99.000000,1013.250000,0.000000,25.500000,992,1500,1500,1500,992,1500,1500
0.413200,6871393.000000,0.000000,-0.000000,0.154877,0.337083,4.729823,0.000000,0.000000,0.000000,0.000000,0.000000,0.199802,0.000000,0.000000,0.000000,0.000000,0.000000,500000.000000,0.000000,4.729823,-99.000000,-99.000000,-99.000000,-99.000000,-99.000000,-99.000000,1013.250000,0.000000,25.500000,992,1500,1500,1500,992,1500,1500
0.423300,6871393.000000,0.000000,-0.000000,0.155557,0.336770,4.845448,0.000000,0.000000,0.000000,0.000000,0.000000,0.199802,0.000000,0.000000,0.000000,0.000000,0.000000,500000.000000,0.000000,4.845448,-99.000000,-99.000000,-99.000000,-99.000000,-99.000000,-99.000000,1013.250000,0.000000,25.500000,992,1500,1500,1500,992,1500,1500
0.433400,6871393.000000,0.000000,-0.000000,0.156236,0.336455,4.961072,0.000000,0.000000,0.000000,0.000000,0.000000,0.199802,0.000000,0.000000,0.000000,0.000000,0.000000,500000.000000,0.000000,4.961072,-99.000000,-99.000000,-99.000000,-99.000000,-99.000000,-99.000000,1013.250000,0.000000,25.500000,992,1500,1500,1500,992,1500,1500
0.443500,6871393.000000,0.000000,-0.000000,0.156915,0.336140,5.076697,0.000000,0.000000,0.000000,0.000000,0.000000,0.199802,0.000000,0.000000,0.000000,0.000000,0.000000,500000.000000,0.000000,5.076697,-99.000000,-99.000000,-99.000000,-99.000000,-99.000000,-99.000000,1013.250000,0.000000,25.500000,992,1500,1500,1500,992,1500,1500
0.453600,6871393.000000,0.000000,-0.000000,0.157593,0.335822,5.192321,0.000000,0.000000,0.000000,0.000000,0.000000,0.199802,0.000000,0.000000,0.000000,0.000000,0.000000,500000.000000,0.000000,5.192321,-99.000000,-99.000000,-99.000000,-99.000000,-99.000000,-99.000000,1013.250000,0.000000,25.500000,992,1500,1500,1500,992,1500,1500
0.463700,6871393.000000,0.000000,-0.000000,0.158270,0.335504,5.307946,0.000000,0.000000,0.000000,0.000000,0.000000,0.199802,0.000000,0.000000,0.000000,0.000000,0.000000,500000.000000,0.000000,5.307946,-99.000000,-99.000000,-99.000000,-99.000000,-99.000000,-99.000000,1013.250000,0.000000,25.500000,992,1500,1500,1500,992,1500,1500
0.473800,6871393.000000,0.000000,-0.000000,0.158947,0.335184,5.423570,0.000000,0.000000,0.000000,0.000000,0.000000,0.199802,0.000000,0.000000,0.000000,0.000000,0.000000,500000.000000,0.000000,5.423570,-99.000000,-99.000000,-99.000000,-99.000000,-99.000000,-99.000000,1013.250000,0.000000,25.500000,992,1500,1500,1500,992,1500,1500
0.483900,6871393.000000,0.000000,-0.000000,0.159623,0.334862,5.539194,0.000000,0.000000,0.000000,0.000000,0.000000,0.199802,0.000000,0.000000,0.000000,0.000000,0.000000,500000.000000,0.000000,5.539194,-99.000000,-99.000000,-99.000000,-99.000000,-99.000000,-99.000000,1013.250000,0.000000,25.500000,992,1500,1500,1500,992,1500,1500
0.494000,6871393.000000,0.000000,-0.000000,0.160298,0.334539,5.654819,0.000000,0.000000,0.000000,0.000000,0.000000,0.199802,0.000000,0.000000,0.000000,0.000000,0.000000,500000.000000,0.000000,5.654819,-99.000000,-99.000000,-99.000000,-99.000000,-99.000000,-99.000000,1013.250000,0.000000,25.500000,992,1500,1500,1500,992,1500,1500
0.504100,6871393.000000,0.000000,-0.000000,0.160973,0.334215,5.770443,0.000000,0.000000,0.000000,0.000000,0.000000,0.199802,0.000000,0.000000,0.000000,0.000000,0.000000,500000.000000,0.000000,5.770443,-99.000000,-99.000000,-99.000000,-99.000000,-99.000000,-99.000000,1013.250000,0.000000,25.500000,992,1500,1500,1500,992,1500,1500
0.514200,6871393.000000,0.000000,-0.000000,0.161647,0.333890,5.886068,0.000000,0.000000,0.000000,0.000000,0.000000,0.199802,0.000000,0.000000,0.000000,0.000000,0.000000,500000.000000,0.000000,5.886068,-99.000000,-99.000000,-99.000000,-99.000000,-99.000000,-99.000000,1013.250000,0.000000,25.500000,992,1500,1500,1500,992,1500,1500
0.524300,6871393.000000,0.000000,-0.000000,0.162321,0.333563,6.001692,0.000000,0.000000,0.000000,0.000000,0.000000,0.199802,0.000000,0.000000,0.000000,0.000000,0.000000,500000.000000,0.000000,6.001692,-99.000000,-99.000000,-99.000000,-99.000000,-99.000000,-99.000000,1013.250000,0.000000,25.500000,992,1500,1500,1500,992,1500,1500
0.534400,6871393.000000,0.000000,-0.000000,0.162994,0.333235,6.117316,0.000000,0.000000,0.000000,0.000000,0.000000,0.199802,0.000000,0.000000,0.000000,0.000000,0.000000,500000.000000,0.000000,6.117316,-99.000000,-99.000000,-99.000000,-99.000000,-99.000000,-99.000000,1013.250000,0.000000,25.500000,992,1500,1500,1500,992,1500,1500
0.544500,6871393.000000,0.000000,-0.000000,0.163666,0.332905,6.232941,0.000000,0.000000,0.000000,0.000000,0.000000,0.199802,0.000000,0.000000,0.000000,0.000000,0.000000,500000.000000,0.000000,6.232941,-99.000000,-99.000000,-99.000000,-99.000000,-99.000000,-99.000000,1013.250000,0.000000,25.500000,992,1500,1500,1500,992,1500,1500
0.554600,6871393.000000,0.000000,-0.000000,0.164337,0.332574,6.348565,0.000000,0.000000,0.000000,0.000000,0.000000,0.199802,0.000000,0.000000,0.000000,0.000000,0.000000,500000.000000,0.000000,6.348565,-99.000000,-99.000000,-99.000000,-99.000000,-99.000000,-99.000000,1013.250000,0.000000,25.500000,992,1500,1500,1500,992,1500,1500
0.564700,6871393.000000,0.000000,-0.000000,0.165008,0.332242,6.464189,0.000000,0.000000,0.000000,0.000000,0.000000,0.199802,0.000000,0.000000,0.000000,0.000000,0.000000,500000.000000,0.000000,6.464189,-99.000000,-99.000000,-99.000000,-99.000000,-99.000000,-99.000000,1013.250000,0.000000,25.500000,992,1500,1500,1500,992,1500,1500
0.574800,6871393.000000,0.000000,-0.000000,0.165678,0.331908,6.579814,0.000000,0.000000,0.000000,0.000000,0.000000,0.199802,0.000000,0.000000,0.000000,0.000000,0.000000,500000.000000,0.000000,6.579814,-99.000000,-99.000000,-99.000000,-99.000000,-99.000000,-99.000000,1013.250000,0.000000,25.500000,992,1500,1500,1500,992,1500,1500
0.584900,6871393.000000,0.000000,-0.000000,0.166348,0.331573,6.695438,0.000000,0.000000,0.000000,0.000000,0.000000,0.199802,0.000000,0.000000,0.000000,0.000000,0.000000,500000.000000,0.000000,6.695438,-99.000000,-99.000000,-99.000000,-99.000000,-99.000000,-99.000000,1013.250000,0.000000,25.500000,992,1500,1500,1500,992,1500,1500
0.595000,6871393.000000,0.000000,-0.000000,0.167016,0.331237,6.811062,0.000000,0.000000,0.000000,0.000000,0.000000,0.199802,0.000000,0.000000,0.000000,0.000000,0.000000,500000.000000,0.000000,6.811062,-99.000000,-99.000000,-99.000000,-99.000000,-99.000000,-99.000000,1013.250000,0.000000,25.500000,992,1500,1500,1500,992,1500,1500
0.605100,6871393.000000,0.000000,-0.000000,0.167684,0.330899,6.926687,0.000000,0.000000,0.000000,0.000000,0.000000,0.199802,0.000000,0.000000,0.000000,0.000000,0.000000,500000.000000,0.000000,6.926687,-99.000000,-99.000000,-99.000000,-99.000000,-99.000000,-99.000000,1013.250000,0.000000,25.500000,992,1500,1500,1500,992,1500,1500
0.615200,6871393.000000,0.000000,-0.000000,0.168352,0.330560,7.042311,0.000000,0.000000,0.000000,0.000000,0.000000,0.199802,0.000000,0.000000,0.000000,0.000000,0.000000,500000.000000,0.000000,7.042311,-99.000000,-99.000000,-99.000000,-99.000000,-99.000000,-99.000000,1013.250000,0.000000,25.500000,992,1500,1500,1500,992,1500,1500
0.625300,6871393.000000,0.000000,-0.000000,0.169019,0.330219,7.157935,0.000000,0.000000,0.000000,0.000000,0.000000,0.199802,0.000000,0.000000,0.000000,0.000000,0.000000,500000.000000,0.000000,7.157935,-99.000000,-99.000000,-99.000000,-99.000000,-99.000000,-99.000000,1013.250000,0.000000,25.500000,992,1500,1500,1500,992,1500,1500
0.635400,6871393.000000,0.000000,-0.000000,0.169685,0.329878,7.273560,0.000000,0.000000,0.000000,0.000000,0.000000,0.199802,0.000000,0.000000,0.000000,0.000000,0.000000,500000.000000,0.000000,7.273560,-99.000000,-99.000000,-99.000000,-99.000000,-99.000000,-99.000000,1013.250000,0.000000,25.500000,992,1500,1500,1500,992,1500,1500
0.645500,6871393.000000,0.000000,-0.000000,0.170350,0.329535,7.389184,0.000000,0.000000,0.000000,0.000000,0.000000,0.199802,0.000000,0.000000,0.000000,0.000000,0.000000,500000.000000,0.000000,7.389184,-99.000000,-99.000000,-99.000000,-99.000000,-99.000000,-99.000000,1013.250000,0.000000,25.500000,992,1500,1500,1500,992,1500,1500
0.655600,6871393.000000,0.000000,-0.000000,0.171015,0.329190,7.504808,0.000000,0.000000,0.000000,0.000000,0.000000,0.199802,0.000000,0.000000,0.000000,0.000000,0.000000,500000.000000,0.000000,7.504808,-99.000000,-99.000000,-99.000000,-99.000000,-99.000000,-99.000000,1013.250000,0.000000,25.500000,992,1500,1500,1500,992,1500,1500
0.665700,6871393.000000,0.000000,-0.000000,0.171679,0.328844,7.620432,0.000000,0.000000,0.000000,0.000000,0.000000,0.199802,0.000000,0.000000,0.000000,0.000000,0.000000,500000.000000,0.000000,7.620432,-99.000000,-99.000000,-99.000000,-99.000000,-99.000000,-99.000000,1013.250000,0.000000,25.500000,992,1500,1500,1500,992,1500,1500
0.675800,6871393.000000,0.000000,-0.000000,0.172342,0.328497,7.736057,0.000000,0.000000,0.000000,0.000000,0.000000,0.199802,0.000000,0.000000,0.000000,0.000000,0.000000,500000.000000,0.000000,7.736057,-99.000000,-99.000000,-99.000000,-99.000000,-99.000000,-99.000000,1013.250000,0.000000,25.500000,992,1500,1500,1500,992,1500,1500
0.685900,6871393.000000,0.000000,-0.000000,0.173004,0.328149,7.851681,0.000000,0.000000,0.000000,0.000000,0.000000,0.199802,0.000000,0.000000,0.000000,0.000000,0.000000,500000.000000,0.000000,7.851681,-99.000000,-99.000000,-99.000000,-99.000000,-99.000000,-99.000000,1013.250000,0.000000,25.500000,992,1500,1500,1500,992,1500,1500
0.696000,6871393.000000,0.000000,-0.000000,0.173666,0.327799,7.967305,0.000000,0.000000,0.000000,0.000000,0.000000,0.199802,0.000000,0.000000,0.000000,0.000000,0.000000,500000.000000,0.000000,7.967305,-99.000000,-99.000000,-99.000000,-99.000000,-99.000000,-99.000000,1013.250000,0.000000,25.500000,992,1500,1500,1500,992,1500,1500
0.706100,6871393.000000,0.000000,-0.000000,0.174327,0.327448,8.082929,0.000000,0.000000,0.000000,0.000000,0.000000,0.199802,0.000000,0.000000,0.000000,0.000000,0.000000,500000.000000,0.000000,8.082929,-99.000000,-99.000000,-99.000000,-99.000000,-99.000000,-99.000000,1013.250000,0.000000,25.500000,992,1500,1500,1500,992,1500,1500
0.716200,6871393.000000,0.000000,-0.000000,0.174988,0.327095,8.198554,0.000000,0.000000,0.000000,0.000000,0.000000,0.199802,0.000000,0.000000,0.000000,0.000000,0.000000,500000.000000,0.000000,8.198554,-99.000000,-99.000000,-99.000000,-99.000000,-99.000000,-99.000000,1013.250000,0.000000,25.500000,992,1500,1500,1500,992,1500,1500
0.726300,6871393.000000,0.000000,-0.000000,0.175648,0.326742,8.314178,0.000000,0.000000,0.000000,0.000000,0.000000,0.199802,0.000000,0.000000,0.000000,0.000000,0.000000,500000.000000,0.000000,8.314178,-99.000000,-99.000000,-99.000000,-99.000000,-99.000000,-99.000000,1013.250000,0.000000,25.500000,992,1500,1500,1500,992,1500,1500
0.736400,6871393.000000,0.000000,-0.000000,0.176307,0.326387,8.429802,0.000000,0.000000,0.000000,0.000000,0.000000,0.199802,0.000000,0.000000,0.000000,0.000000,0.000000,500000.000000,0.000000,8.429802,-99.000000,-99.000000,-99.000000,-99.000000,-99.000000,-99.000000,1013.250000,0.000000,25.500000,992,1500,1500,1500,992,1500,1500
0.746500,6871393.000000,0.000000,-0.000000,0.176965,0.326030,8.545426,0.000000,0.000000,0.000000,0.000000,0.000000,0.199802,0.000000,0.000000,0.000000,0.000000,0.000000,500000.000000,0.000000,8.545426,-99.000000,-99.000000,-99.000000,-99.000000,-99.000000,-99.000000,1013.250000,0.000000,25.500000,992,1500,1500,1500,992,1500,1500
0.756600,6871393.000000,0.000000,-0.000000,0.177622,0.325672,8.661051,0.000000,0.000000,0.000000,0.000000,0.000000,0.199802,0.000000,0.000000,0.000000,0.000000,0.000000,500000.000000,0.000000,8.661051,-99.000000,-99.000000,-99.000000,-99.000000,-99.000000,-99.000000,1013.250000,0.000000,25.500000,992,1500,1500,1500,992,1500,1500
0.766700,6871393.000000,0.000000,-0.000000,0.178279,0.325313,8.776675,0.000000,0.000000,0.000000,0.000000,0.000000,0.199802,0.000000,0.000000,0.000000,0.000000,0.000000,500000.000000,0.000000,8.776675,-99.000000,-99.000000,-99.000000,-99.000000,-99.000000,-99.000000,1013.250000,0.000000,25.500000,992,1500,1500,1500,992,1500,1500
0.776800,6871393.000000,0.000000,-0.000000,0.178935,0.324953,8.892299,0.000000,0.000000,0.000000,0.000000,0.000000,0.199802,0.000000,0.000000,0.000000,0.000000,0.000000,500000.000000,0.000000,8.892299,-99.000000,-99.000000,-99.000000,-99.000000,-99.000000,-99.000000,1013.250000,0.000000,25.500000,992,1500,1500,1500,992,1500,1500
0.786900,6871393.000000,0.000000,-0.000000,0.179591,0.324591,9.007923,0.000000,0.000000,0.000000,0.000000,0.000000,0.199802,0.000000,0.000000,0.000000,0.000000,0.000000,500000.000000,0.000000,9.007923,-99.000000,-99.000000,-99.000000,-99.000000,-99.000000,-99.000000,1013.250000,0.000000,25.500000,992,1500,1500,1500,992,1500,1500
0.797000,6871393.000000,0.000000,-0.000000,0.180245,0.324228,9.123547,0.000000,0.000000,0.000000,0.000000,0.000000,0.199802,0.000000,0.000000,0.000000,0.000000,0.000000,500000.000000,0.000000,9.123547,-99.000000,-99.000000,-99.000000,-99.000000,-99.000000,-99.000000,1013.250000,0.000000,25.500000,992,1500,1500,1500,992,1500,1500
0.807100,6871393.000000,0.000000,-0.000000,0.180899,0.323864,9.239171,0.000000,0.000000,0.000000,0.000000,0.000000,0.199802,0.000000,0.000000,0.000000,0.000000,0.000000,500000.000000,0.000000,9.239171,-99.000000,-99.000000,-99.000000,-99.000000,-99.000000,-99.000000,1013.250000,0.000000,25.500000,992,1500,1500,1500,992,1500,1500
0.817200,6871393.000000,0.000000,-0.000000,0.181553,0.323498,9.354796,0.000000,0.000000,0.000000,0.000000,0.000000,0.199802,0.000000,0.000000,0.000000,0.000000,0.000000,500000.000000,0.000000,9.354796,-99.000000,-99.000000,-99.000000,-99.000000,-99.000000,-99.000000,1013.250000,0.000000,25.500000,992,1500,1500,1500,992,1500,1500
0.827300,6871393.000000,0.000000,-0.000000,0.182205,0.323131,9.470420,0.000000,0.000000,0.000000,0.000000,0.000000,0.199802,0.000000,0.000000,0.000000,0.000000,0.000000,500000.000000,0.000000,9.470420,-99.000000,-99.000000,-99.000000,-99.000000,-99.000000,-99.000000,1013.250000,0.000000,25.500000,992,1500,1500,1500,992,1500,1500
0.837400,6871393.000000,0.000000,-0.000000,0.182857,0.322762,9.586044,0.000000,0.000000,0.000000,0.000000,0.000000,0.199802,0.000000,0.000000,0.000000,0.000000,0.000000,500000.000000,0.000000,9.586044,-99.000000,-99.000000,-99.000000,-99.000000,-99.000000,-99.000000,1013.250000,0.000000,25.500000,992,1500,1500,1500,992,1500,1500
0.847500,6871393.000000,0.000000,-0.000000,0.183508,0.322393,9.701668,0.000000,0.000000,0.000000,0.000000,0.000000,0.199802,0.000000,0.000000,0.000000,0.000000,0.000000,500000.000000,0.000000,9.701668,-99.000000,-99.000000,-99.000000,-99.000000,-99.000000,-99.000000,1013.250000,0.000000,25.500000,992,1500,1500,1500,992,1500,1500
0.857600,6871393.000000,0.000000,-0.000000,0.184158,0.322022,9.817292,0.000000,0.000000,0.000000,0.000000,0.000000,0.199802,0.000000,0.000000,0.000000,0.000000,0.000000,500000.000000,0.000000,9.817292,-99.000000,-99.000000,-99.000000,-99.000000,-99.000000,-99.000000,1013.250000,0.000000,25.500000,992,1500,1500,1500,992,1500,1500
0.867700,6871393.000000,0.000000,-0.000000,0.184807,0.321650,9.932916,0.000000,0.000000,0.000000,0.000000,0.000000,0.199802,0.000000,0.000000,0.000000,0.000000,0.000000,500000.000000,0.000000,9.932916,-99.000000,-99.000000,-99.000000,-99.000000,-99.000000,-99.000000,1013.250000,0.000000,25.500000,992,1500,1500,1500,992,1500,1500
0.877800,6871393.000000,0.000000,-0.000000,0.185456,0.321276,10.048540,0.000000,0.000000,0.000000,0.000000,0.000000,0.199802,0.000000,0.000000,0.000000,0.000000,0.000000,500000.000000,0.000000,10.048540,-99.000000,-99.000000,-99.000000,-99.000000,-99.000000,-99.000000,1013.250000,0.000000,25.500000,992,1500,1500,1500,992,1500,1500
0.887900,6871393.000000,0.000000,-0.000000,0.186104,0.320901,10.164164,0.000000,0.000000,0.000000,0.000000,0.000000,0.199802,0.000000,0.000000,0.000000,0.000000,0.000000,500000.000000,0.000000,10.164164,-99.000000,-99.000000,-99.000000,-99.000000,-99.000000,-99.000000,1013.250000,0.000000,25.500000,992,1500,1500,1500,992,1500,1500
0.898000,6871393.000000,0.000000,-0.000000,0.186751,0.320525,10.279788,0.000000,0.000000,0.000000,0.000000,0.000000,0.199802,0.000000,0.000000,0.000000,0.000000,0.000000,500000.000000,0.000000,10.279788,-99.000000,-99.000000,-99.000000,-99.000000,-99.000000,-99.000000,1013.250000,0.000000,25.500000,992,1500,1500,1500,992,1500,1500
0.908100,6871393.000000,0.000000,-0.000000,0.187398,0.320147,10.395413,0.000000,0.000000,0.000000,0.000000,0.000000,0.199802,0.000000,0.000000,0.000000,0.000000,0.000000,500000.000000,0.000000,10.395413,-99.000000,-99.000000,-99.000000,-99.000000,-99.000000,-99.000000,1013.250000,0.000000,25.500000,992,1500,1500,1500,992,1500,1500
0.918200,6871393.000000,0.000000,-0.000000,0.188043,0.319769,10.511037,0.000000,0.000000,0.000000,0.000000,0.000000,0.199802,0.000000,0.000000,0.000000,0.000000,0.000000,500000.000000,0.000000,10.511037,-99.000000,-99.000000,-99.000000,-99.000000,-99.000000,-99.000000,1013.250000,0.000000,25.500000,992,1500,1500,1500,992,1500,1500
0.928300,6871393.000000,0.000000,-0.000000,0.188688,0.319388,10.626661,0.000000,0.000000,0.000000,0.000000,0.000000,0.199802,0.000000,0.000000,0.000000,0.000000,0.000000,500000.000000,0.000000,10.626661,-99.000000,-99.000000,-99.000000,-99.000000,-99.000000,-99.000000,1013.250000,0.000000,25.500000,992,1500,1500,1500,992,1500,1500
0.938400,6871393.000000,0.000000,-0.000000,0.189332,0.319007,10.742285,0.000000,0.000000,0.000000,0.000000,0.000000,0.199802,0.000000,0.000000,0.000000,0.000000,0.000000,500000.000000,0.000000,10.742285,-99.000000,-99.000000,-99.000000,-99.000000,-99.000000,-99.000000,1013.250000,0.000000,25.500000,992,1500,1500,1500,992,1500,1500
0.948500,6871393.000000,0.000000,-0.000000,0.189976,0.318624,10.857909,0.000000,0.000000,0.000000,0.000000,0.000000,0.199802,0.000000,0.000000,0.000000,0.000000,0.000000,500000.000000,0.000000,10.857909,-99.000000,-99.000000,-99.000000,-99.000000,-99.000000,-99.000000,1013.250000,0.000000,25.500000,992,1500,1500,1500,992,1500,1500
0.958600,6871393.000000,0.000000,-0.000000,0.190618,0.318240,10.973533,0.000000,0.000000,0.000000,0.000000,0.000000,0.199802,0.000000,0.000000,0.000000,0.000000,0.000000,500000.000000,0.000000,10.973533,-99.000000,-99.000000,-99.000000,-99.000000,-99.000000,-99.000000,1013.250000,0.000000,25.500000,992,1500,1500,1500,992,1500,1500
0.968700,6871393.000000,0.000000,-0.000000,0.191260,0.317855,11.089157,0.000000,0.000000,0.000000,0.000000,0.000000,0.199802,0.000000,0.000000,0.000000,0.000000,0.000000,500000.000000,0.000000,11.089157,-99.000000,-99.000000,-99.000000,-99.000000,-99.000000,-99.000000,1013.250000,0.000000,25.500000,992,1500,1500,1500,992,1500,1500
0.978800,6871393.000000,0.000000,-0.000000,0.191901,0.317468,11.204781,0.000000,0.000000,0.000000,0.000000,0.000000,0.199802,0.000000,0.000000,0.000000,0.000000,0.000000,500000.000000,0.000000,11.204781,-99.000000,-99.000000,-99.000000,-99.000000,-99.000000,-99.000000,1013.250000,0.000000,25.500000,992,1500,1500,1500,992,1500,1500
0.988900,6871393.000000,0.000000,-0.000000,0.192542,0.317080,11.320405,0.000000,0.000000,0.000000,0.000000,0.000000,0.199802,0.000000,0.000000,0.000000,0.000000,0.000000,500000.000000,0.000000,11.320405,-99.000000,-99.000000,-99.000000,-99.000000,-99.000000,-99.000000,1013.250000,0.000000,25.500000,992,1500,1500,1500,992,1500,1500
0.999000,6871393.000000,0.000000,-0.000000,0.193181,0.316691,11.436029,0.000000,0.000000,0.000000,0.000000,0.000000,0.199802,0.000000,0.000000,0.000000,0.000000,0.000000,500000.000000,0.000000,11.436029,-99.000000,-99.000000,-99.000000,-99.000000,-99.000000,-99.000000,1013.250000,0.000000,25.500000,992,1500,1500,1500,992,1500,1500
1.009100,6871388.779155,7616.178441,-0.000000,0.193820,0.316301,90.134784,7615.417942,0.000000,0.000000,0.000000,0.000000,0.199802,0.000000,0.000000,0.000000,0.000000,0.063506,500000.000002,90.031753,11.551653,-99.000000,-99.000000,-99.000000,-99.000000,-99.000000,-99.000000,1013.250000,0.000000,25.500000,992,1500,1500,1500,992,1500,1500
1.019200,6871388.779155,7616.178441,-0.000000,0.194458,0.315909,90.250408,7615.417942,0.000000,0.000000,0.000000,0.000000,0.199802,0.000000,0.000000,0.000000,0.000000,0.063506,500000.000002,90.031753,11.667277,-99.000000,-99.000000,-99.000000,-99.000000,-99.000000,-99.000000,1013.250000,0.000000,25.500000,992,1500,1500,1500,992,1500,1500
1.029300,6871388.779155,7616.178441,-0.000000,0.195095,0.315516,90.366032,7615.417942,0.000000,0.000000,0.000000,0.000000,0.199802,0.000000,0.000000,0.000000,0.000000,0.063506,500000.000002,90.031753,11.782901,-99.000000,-99.000000,-99.000000,-99.000000,-99.000000,-99.000000,1013.250000,0.000000,25.500000,992,1500,1500,1500,992,1500,1500
1.039400,6871388.779155,7616.178441,-0.000000,0.195731,0.315122,90.481656,7615.417942,0.000000,0.000000,0.000000,0.000000,0.199802,0.000000,0.000000,0.000000,0.000000,0.063506,500000.000002,90.031753,11.898525,-99.000000,-99.000000,-99.000000,-99.000000,-99.000000,-99.000000,1013.250000,0.000000,25.500000,992,1500,1500,1500,992,1500,1500
1.049500,6871388.779155,7616.178441,-0.000000,0.196367,0.314726,90.597280,7615.417942,0.000000,0.000000,0.000000,0.000000,0.199802,0.000000,0.000000,0.000000,0.000000,0.063506,500000.000002,90.031753,12.014149,-99.000000,-99.000000,-99.000000,-99.000000,-99.000000,-99.000000,1013.250000,0.000000,25.500000,992,1500,1500,1500,992,1500,1500
1.059600,6871388.779155,7616.178441,-0.000000,0.197001,0.314329,90.712904,7615.417942,0.000000,0.000000,0.000000,0.000000,0.199802,0.000000,0.000000,0.000000,0.000000,0.063506,500000.000002,90.031753,12.129773,-99.000000,-99.000000,-99.000000,-99.000000,-99.000000,-99.000000,1013.250000,0.000000,25.500000,992,1500,1500,1500,992,1500,1500
1.069700,6871388.779155,7616.178441,-0.000000,0.197635,0.313931,90.828528,7615.417942,0.000000,0.000000,0.000000,0.000000,0.199802,0.000000,0.000000,0.000000,0.000000,0.063506,500000.000002,90.031753,12.245397,-99.000000,-99.000000,-99.000000,-99.000000,-99.000000,-99.000000,1013.250000,0.000000,25.500000,992,1500,1500,1500,992,1500,1500
1.079800,6871388.779155,7616.178441,-0.000000,0.198268,0.313531,90.944152,7615.417942,0.000000,0.000000,0.000000,0.000000,0.199802,0.000000,0.000000,0.000000,0.000000,0.063506,500000.000002,90.031753,12.361020,-99.000000,-99.000000,-99.000000,-99.000000,-99.000000,-99.000000,1013.250000,0.000000,25.500000,992,1500,1500,1500,992,1500,1500
1.089900,6871388.779155,7616.178441,-0.000000,0.198901,0.313131,91.059776,7615.417942,0.000000,0.000000,0.000000,0.000000,0.199802,0.000000,0.000000,0.000000,0.000000,0.063506,500000.000002,90.031753,12.476644,-99.000000,-99.000000,-99.000000,-99.000000,-99.000000,-99.000000,1013.250000,0.000000,25.500000,992,1500,1500,1500,992,1500,1500
1.100000,6871388.779155,7616.178441,-0.000000,0.199532,0.312729,91.175400,7615.417942,0.000000,0.000000,0.000000,0.000000,0.199802,0.000000,0.000000,0.000000,0.000000,0.063506,500000.000002,90.031753,12.592268,-99.000000,-99.000000,-99.000000,-99.000000,-99.000000,-99.000000,1013.250000,0.000000,25.500000,992,1500,1500,1500,992,1500,1500
1.110100,6871388.779155,7616.178441,-0.000000,0.200163,0.312325,91.291024,7615.417942,0.000000,0.000000,0.000000,0.000000,0.199802,0.000000,0.000000,0.000000,0.000000,0.063506,500000.000002,90.031753,12.707892,-99.000000,-99.000000,-99.000000,-99.000000,-99.000000,-99.000000,1013.250000,0.000000,25.500000,992,1500,1500,1500,992,1500,1500
1.120200,6871388.779155,7616.178441,-0.000000,0.200793,0.311921,91.406648,7615.417942,0.000000,0.000000,0.000000,0.000000,0.199802,0.000000,0.000000,0.000000,0.000000,0.063506,500000.000002,90.031753,12.823516,-99.000000,-99.000000,-99.000000,-99.000000,-99.000000,-99.000000,1013.250000,0.000000,25.500000,992,1500,1500,1500,992,1500,1500
1.130300,6871388.779155,7616.178441,-0.000000,0.201422,0.311515,91.522271,7615.417942,0.000000,0.000000,0.000000,0.000000,0.199802,0.000000,0.000000,0.000000,0.000000,0.063506,500000.000002,90.031753,12.939140,-99.000000,-99.000000,-99.000000,-99.000000,-99.000000,-99.000000,1013.250000,0.000000,25.500000,992,1500,1500,1500,992,1500,1500
1.140400,6871388.779155,7616.178441,-0.000000,0.202050,0.311108,91.637895,7615.417942,0.000000,0.000000,0.000000,0.000000,0.199802,0.000000,0.000000,0.000000,0.000000,0.063506,500000.000002,90.031753,13.054764,-99.000000,-99.000000,-99.000000,-99.000000,-99.000000,-99.000000,1013.250000,0.000000,25.500000,992,1500,1500,1500,992,1500,1500
1.150500,6871388.779155,7616.178441,-0.000000,0.202677,0.310699,91.753519,7615.417942,0.000000,0.000000,0.000000,0.000000,0.199802,0.000000,0.000000,0.000000,0.000000,0.063506,500000.000002,90.031753,13.170388,-99.000000,-99.000000,-99.000000,-99.000000,-99.000000,-99.000000,1013.250000,0.000000,25.500000,992,1500,1500,1500,992,1500,1500
1.160600,6871388.779155,7616.178441,-0.000000,0.203304,0.310290,91.869143,7615.417942,0.000000,0.000000,0.000000,0.000000,0.199802,0.000000,0.000000,0.000000,0.000000,0.063506,500000.000002,90.031753,13.286012,-99.000000,-99.000000,-99.000000,-99.000000,-99.000000,-99.000000,1013.250000,0.000000,25.500000,992,1500,1500,1500,992,1500,1500
1.170700,6871388.779155,7616.178441,-0.000000,0.203930,0.309879,91.984767,7615.417942,0.000000,0.000000,0.000000,0.000000,0.199802,0.000000,0.000000,0.000000,0.000000,0.063506,500000.000002,90.031753,13.401635,-99.000000,-99.000000,-99.000000,-99.000000,-99.000000,-99.000000,1013.250000,0.000000,25.500000,992,1500,1500,1500,992,1500,1500
1.180800,6871388.779155,7616.178441,-0.000000,0.204555,0.309467,92.100391,7615.417942,0.000000,0.000000,0.000000,0.000000,0.199802,0.000000,0.000000,0.000000,0.000000,0.063506,500000.000002,90.031753,13.517259,-99.000000,-99.000000,-99.000000,-99.000000,-99.000000,-99.000000,1013.250000,0.000000,25.500000,992,1500,1500,1500,992,1500,1500
1.190900,6871388.779155,7616.178441,-0.000000,0.205179,0.309053,92.216015,7615.417942,0.000000,0.000000,0.000000,0.000000,0.199802,0.000000,0.000000,0.000000,0.000000,0.063506,500000.000002,90.031753,13.632883,-99.000000,-99.000000,-99.000000,-99.000000,-99.000000,-99.000000,1013.250000,0.000000,25.500000,992,1500,1500,1500,992,1500,1500
1.201000,6871388.779155,7616.178441,-0.000000,0.205802,0.308639,92.331638,7615.417942,0.000000,0.000000,0.000000,0.000000,0.199802,0.000000,0.000000,0.000000,0.000000,0.063506,500000.000002,90.031753,13.748507,-99.000000,-99.000000,-99.000000,-99.000000,-99.000000,-99.000000,1013.250000,0.000000,25.500000,992,1500,1500,1500,992,1500,1500
1.211100,6871388.779155,7616.178441,-0.000000,0.206424,0.308223,92.447262,7615.417942,0.000000,0.000000,0.000000,0.000000,0.199802,0.000000,0.000000,0.000000,0.000000,0.063506,500000.000002,90.031753,13.864131,-99.000000,-99.000000,-99.000000,-99.000000,-99.000000,-99.000000,1013.250000,0.000000,25.500000,992,1500,1500,1500,992,1500,1500
1.221200,6871388.779155,7616.178441,-0.000000,0.207046,0.307806,92.562886,7615.417942,0.000000,0.000000,0.000000,0.000000,0.199802,0.000000,0.000000,0.000000,0.000000,0.063506,500000.000002,90.031753,13.979754,-99.000000,-99.000000,-99.000000,-99.000000,-99.000000,-99.000000,1013.250000,0.000000,25.500000,992,1500,1500,1500,992,1500,1500
1.231300,6871388.779155,7616.178441,-0.000000,0.207667,0.307387,92.678510,7615.417942,0.000000,0.000000,0.000000,0.000000,0.199802,0.000000,0.000000,0.000000,0.000000,0.063506,500000.000002,90.031753,14.095378,-99.000000,-99.000000,-99.000000,-99.000000,-99.000000,-99.000000,1013.250000,0.000000,25.500000,992,1500,1500,1500,992,1500,1500
1.241400,6871388.779155,7616.178441,-0.000000,0.208287,0.306967,92.794134,7615.417942,0.000000,0.000000,0.000000,0.000000,0.199802,0.000000,0.000000,0.000000,0.000000,0.063506,500000.000002,90.031753,14.211002,-99.000000,-99.000000,-99.000000,-99.000000,-99.000000,-99.000000,1013.250000,0.000000,25.500000,992,1500,1500,1500,992,1500,1500
1.251500,6871388.779155,7616.178441,-0.000000,0.208906,0.306546,92.909757,7615.417942,0.000000,0.000000,0.000000,0.000000,0.199802,0.000000,0.000000,0.000000,0.000000,0.063506,500000.000002,90.031753,14.326626,-99.000000,-99.000000,-99.000000,-99.000000,-99.000000,-99.000000,1013.250000,0.000000,25.500000,992,1500,1500,1500,992,1500,1500
1.261600,6871388.779155,7616.178441,-0.000000,0.209524,0.306124,93.025381,7615.417942,0.000000,0.000000,0.000000,0.000000,0.199802,0.000000,0.000000,0.000000,0.000000,0.063506,500000.000002,90.031753,14.442250,-99.000000,-99.000000,-99.000000,-99.000000,-99.000000,-99.000000,1013.250000,0.000000,25.500000,992,1500,1500,1500,992,1500,1500
1.271700,6871388.779155,7616.178441,-0.000000,0.210141,0.305701,93.141005,7615.417942,0.000000,0.000000,0.000000,0.000000,0.199802,0.000000,0.000000,0.000000,0.000000,0.063506,500000.000002,90.031753,14.557873,-99.000000,-99.000000,-99.000000,-99.000000,-99.000000,-99.000000,1013.250000,0.000000,25.500000,992,1500,1500,1500,992,1500,1500
1.281800,6871388.779155,7616.178441,-0.000000,0.210758,0.305276,93.256629,7615.417942,0.000000,0.000000,0.000000,0.000000,0.199802,0.000000,0.000000,0.000000,0.000000,0.063506,500000.000002,90.031753,14.673497,-99.000000,-99.000000,-99.000000,-99.000000,-99.000000,-99.000000,1013.250000,0.000000,25.500000,992,1500,1500,1500,992,1500,1500
1.291900,6871388.779155,7616.178441,-0.000000,0.211373,0.304850,93.372252,7615.417942,0.000000,0.000000,0.000000,0.000000,0.199802,0.000000,0.000000,0.000000,0.000000,0.063506,500000.000002,90.031753,14.789121,-99.000000,-99.000000,-99.000000,-99.000000,-99.000000,-99.000000,1013.250000,0.000000,25.500000,992,1500,1500,1500,992,1500,1500
1.302000,6871388.779155,7616.178441,-0.000000,0.211988,0.304423,93.487876,7615.417942,0.000000,0.000000,0.000000,0.000000,0.199802,0.000000,0.000000,0.000000,0.000000,0.063506,500000.000002,90.031753,14.904745,-99.000000,-99.000000,-99.000000,-99.000000,-99.000000,-99.000000,1013.250000,0.000000,25.500000,992,1500,1500,1500,992,1500,1500
1.312100,6871388.779155,7616.178441,-0.000000,0.212602,0.303995,93.603500,7615.417942,0.000000,0.000000,0.000000,0.000000,0.199802,0.000000,0.000000,0.000000,0.000000,0.063506,500000.000002,90.031753,15.020368,-99.000000,-99.000000,-99.000000,-99.000000,-99.000000,-99.000000,1013.250000,0.000000,25.500000,992,1500,1500,1500,992,1500,1500
1.322200,6871388.779155,7616.178441,-0.000000,0.213215,0.303565,93.719123,7615.417942,0.000000,0.000000,0.000000,0.000000,0.199802,0.000000,0.000000,0.000000,0.000000,0.063506,500000.000002,90.031753,15.135992,-99.000000,-99.000000,-99.000000,-99.000000,-99.000000,-99.000000,1013.250000,0.000000,25.500000,992,1500,1500,1500,992,1500,1500
1.332300,6871388.779155,7616.178441,-0.000000,0.213827,0.303134,93.834747,7615.417942,0.000000,0.000000,0.000000,0.000000,0.199802,0.000000,0.000000,0.000000,0.000000,0.063506,500000.000002,90.031753,15.251616,-99.000000,-99.000000,-99.000000,-99.000000,-99.000000,-99.000000,1013.250000,0.000000,25.500000,992,1500,1500,1500,992,1500,1500
1.342400,6871388.779155,7616.178441,-0.000000,0.214438,0.302702,93.950371,7615.417942,0.000000,0.000000,0.000000,0.000000,0.199802,0.000000,0.000000,0.000000,0.000000,0.063506,500000.000002,90.031753,15.367239,-99.000000,-99.000000,-99.000000,-99.000000,-99.000000,-99.000000,1013.250000,0.000000,25.500000,992,1500,1500,1500,992,1500,1500
1.352500,6871388.779155,7616.178441,-0.000000,0.215049,0.302269,94.065995,7615.417942,0.000000,0.000000,0.000000,0.000000,0.199802,0.000000,0.000000,0.000000,0.000000,0.063506,500000.000002,90.031753,15.482863,-99.000000,-99.000000,-99.000000,-99.000000,-99.000000,-99.000000,1013.250000,0.000000,25.500000,992,1500,1500,1500,992,1500,1500
1.362600,6871388.779155,7616.178441,-0.000000,0.215658,0.301834,94.181618,7615.417942,0.000000,0.000000,0.000000,0.000000,0.199802,0.000000,0.000000,0.000000,0.000000,0.063506,500000.000002,90.031753,15.598487,-99.000000,-99.000000,-99.000000,-99.000000,-99.000000,-99.000000,1013.250000,0.000000,25.500000,992,1500,1500,1500,992,1500,1500
1.372700,6871388.779155,7616.178441,-0.000000,0.216267,0.301398,94.297242,7615.417942,0.000000,0.000000,0.000000,0.000000,0.199802,0.000000,0.000000,0.000000,0.000000,0.063506,500000.000002,90.031753,15.714110,-99.000000,-99.000000,-99.000000,-99.000000,-99.000000,-99.000000,1013.250000,0.000000,25.500000,992,1500,1500,1500,992,1500,1500
1.382800,6871388.779155,7616.178441,-0.000000,0.216875,0.300961,94.412866,7615.417942,0.000000,0.000000,0.000000,0.000000,0.199802,0.000000,0.000000,0.000000,0.000000,0.063506,500000.000002,90.031753,15.829734,-99.000000,-99.000000,-99.000000,-99.000000,-99.000000,-99.000000,1013.250000,0.000000,25.500000,992,1500,1500,1500,992,1500,1500
1.392900,6871388.779155,7616.178441,-0.000000,0.217482,0.300523,94.528489,7615.417942,0.000000,0.000000,0.000000,0.000000,0.199802,0.000000,0.000000,0.000000,0.000000,0.063506,500000.000002,90.031753,15.945358,-99.000000,-99.000000,-99.000000,-99.000000,-99.000000,-99.000000,1013.250000,0.000000,25.500000,992,1500,1500,1500,992,1500,1500
1.403000,6871388.779155,7616.178441,-0.000000,0.218088,0.300083,94.644113,7615.417942,0.000000,0.000000,0.000000,0.000000,0.199802,0.000000,0.000000,0.000000,0.000000,0.063506,500000.000002,90.031753,16.060981,-99.000000,-99.000000,-99.000000,-99.000000,-99.000000,-99.000000,1013.250000,0.000000,25.500000,992,1500,1500,1500,992,1500,1500
1.413100,6871388.779155,7616.178441,-0.000000,0.218693,0.299643,94.759736,7615.417942,0.000000,0.000000,0.000000,0.000000,0.199802,0.000000,0.000000,0.000000,0.000000,0.063506,500000.000002,90.031753,16.176605,-99.000000,-99.000000,-99.000000,-99.000000,-99.000000,-99.000000,1013.250000,0.000000,25.500000,992,1500,1500,1500,992,1500,1500
1.423200,6871388.779155,7616.178441,-0.000000,0.219297,0.299201,94.875360,7615.417942,0.000000,0.000000,0.000000,0.000000,0.199802,0.000000,0.000000,0.000000,0.000000,0.063506,500000.000002,90.031753,16.292229,-99.000000,-99.000000,-99.000000,-99.000000,-99.000000,-99.000000,1013.250000,0.000000,25.500000,992,1500,1500,1500,992,1500,1500
1.433300,6871388.779155,7616.178441,-0.000000,0.219900,0.298758,94.990984,7615.417942,0.000000,0.000000,0.000000,0.000000,0.199802,0.000000,0.000000,0.000000,0.000000,0.063506,500000.000002,90.031753,16.407852,-99.000000,-99.000000,-99.000000,-99.000000,-99.000000,-99.000000,1013.250000,0.000000,25.500000,992,1500,1500,1500,992,1500,1500
1.443400,6871388.779155,7616.178441,-0.000000,0.220503,0.298313,95.106607,7615.417942,0.000000,0.000000,0.000000,0.000000,0.199802,0.000000,0.000000,0.000000,0.000000,0.063506,500000.000002,90.031753,16.523476,-99.000000,-99.000000,-99.000000,-99.000000,-99.000000,-99.000000,1013.250000,0.000000,25.500000,992,1500,1500,1500,992,1500,1500
1.453500,6871388.779155,7616.178441,-0.000000,0.221104,0.297868,95.222231,7615.417942,0.000000,0.000000,0.000000,0.000000,0.199802,0.000000,0.000000,0.000000,0.000000,0.063506,500000.000002,90.031753,16.639099,-99.000000,-99.000000,-99.000000,-99.000000,-99.000000,-99.000000,1013.250000,0.000000,25.500000,992,1500,1500,1500,992,1500,1500
1.463600,6871388.779155,7616.178441,-0.000000,0.221705,0.297421,95.337854,7615.417942,0.000000,0.000000,0.000000,0.000000,0.199802,0.000000,0.000000,0.000000,0.000000,0.063506,500000.000002,90.031753,16.754723,-99.000000,-99.000000,-99.000000,-99.000000,-99.000000,-99.000000,1013.250000,0.000000,25.500000,992,1500,1500,1500,992,1500,1500
1.473700,6871388.779155,7616.178441,-0.000000,0.222305,0.296973,95.453478,7615.417942,0.000000,0.000000,0.000000,0.000000,0.199802,0.000000,0.000000,0.000000,0.000000,0.063506,500000.000002,90.031753,16.870347,-99.000000,-99.000000,-99.000000,-99.000000,-99.000000,-99.000000,1013.250000,0.000000,25.500000,992,1500,1500,1500,992,1500,1500
1.483800,6871388.779155,7616.178441,-0.000000,0.222904,0.296524,95.569102,7615.417942,0.000000,0.000000,0.000000,0.000000,0.199802,0.000000,0.000000,0.000000,0.000000,0.063506,500000.000002,90.031753,16.985970,-99.000000,-99.000000,-99.000000,-99.000000,-99.000000,-99.000000,1013.250000,0.000000,25.500000,992,1500,1500,1500,992,1500,1500
1.493900,6871388.779155,7616.178441,-0.000000,0.223502,0.296073,95.684725,7615.417942,0.000000,0.000000,0.000000,0.000000,0.199802,0.000000,0.000000,0.000000,0.000000,0.063506,500000.000002,90.031753,17.101594,-99.000000,-99.000000,-99.000000,-99.000000,-99.000000,-99.000000,1013.250000,0.000000,25.500000,992,1500,1500,1500,992,1500,1500
1.504000,6871388.779155,7616.178441,-0.000000,0.224099,0.295622,95.800349,7615.417942,0.000000,0.000000,0.000000,0.000000,0.199802,0.000000,0.000000,0.000000,0.000000,0.063506,500000.000002,90.031753,17.217217,-99.000000,-99.000000,-99.000000,-99.000000,-99.000000,-99.000000,1013.250000,0.000000,25.500000,992,1500,1500,1500,992,1500,1500
1.514100,6871388.779155,7616.178441,-0.000000,0.224695,0.295169,95.915972,7615.417942,0.000000,0.000000,0.000000,0.000000,0.199802,0.000000,0.000000,0.000000,0.000000,0.063506,500000.000002,90.031753,17.332841,-99.000000,-99.000000,-99.000000,-99.000000,-99.000000,-99.000000,1013.250000,0.000000,25.500000,992,1500,1500,1500,992,1500,1500
1.524200,6871388.779155,7616.178441,-0.000000,0.225290,0.294715,96.031596,7615.417942,0.000000,0.000000,0.000000,0.000000,0.199802,0.000000,0.000000,0.000000,0.000000,0.063506,500000.000002,90.031753,17.448464,-99.000000,-99.000000,-99.000000,-99.000000,-99.000000,-99.000000,1013.250000,0.000000,25.500000,992,1500,1500,1500,992,1500,1500
1.534300,6871388.779155,7616.178441,-0.000000,0.225884,0.294260,96.147219,7615.417942,0.000000,0.000000,0.000000,0.000000,0.199802,0.000000,0.000000,0.000000,0.000000,0.063506,500000.000002,90.031753,17.564088,-99.000000,-99.000000,-99.000000,-99.000000,-99.000000,-99.000000,1013.250000,0.000000,25.500000,992,1500,1500,1500,992,1500,1500
1.544400,6871388.779155,7616.178441,-0.000000,0.226478,0.293803,96.262843,7615.417942,0.000000,0.000000,0.000000,0.000000,0.199802,0.000000,0.000000,0.000000,0.000000,0.063506,500000.000002,90.031753,17.679711,-99.000000,-99.000000,-99.000000,-99.000000,-99.000000,-99.000000,1013.250000,0.000000,25.500000,992,1500,1500,1500,992,1500,1500
1.554500,6871388.779155,7616.178441,-0.000000,0.227070,0.293345,96.378466,7615.417942,0.000000,0.000000,0.000000,0.000000,0.199802,0.000000,0.000000,0.000000,0.000000,0.063506,500000.000002,90.031753,17.795335,-99.000000,-99.000000,-99.000000,-99.000000,-99.000000,-99.000000,1013.250000,0.000000,25.500000,992,1500,1500,1500,992,1500,1500
1.564600,6871388.779155,7616.178441,-0.000000,0.227661,0.292887,96.494090,7615.417942,0.000000,0.000000,0.000000,0.000000,0.199802,0.000000,0.000000,0.000000,0.000000,0.063506,500000.000002,90.031753,17.910958,-99.000000,-99.000000,-99.000000,-99.000000,-99.000000,-99.000000,1013.250000,0.000000,25.500000,992,1500,1500,1500,992,1500,1500
1.574700,6871388.779155,7616.178441,-0.000000,0.228252,0.292427,96.609713,7615.417942,0.000000,0.000000,0.000000,0.000000,0.199802,0.000000,0.000000,0.000000,0.000000,0.063506,500000.000002,90.031753,18.026582,-99.000000,-99.000000,-99.000000,-99.000000,-99.000000,-99.000000,1013.250000,0.000000,25.500000,992,1500,1500,1500,992,1500,1500
1.584800,6871388.779155,7616.178441,-0.000000,0.228842,0.291965,96.725337,7615.417942,0.000000,0.000000,0.000000,0.000000,0.199802,0.000000,0.000000,0.000000,0.000000,0.063506,500000.000002,90.031753,18.142205,-99.000000,-99.000000,-99.000000,-99.000000,-99.000000,-99.000000,1013.250000,0.000000,25.500000,992,1500,1500,1500,992,1500,1500
1.594900,6871388.779155,7616.178441,-0.000000,0.229430,0.291503,96.840960,7615.417942,0.000000,0.000000,0.000000,0.000000,0.199802,0.000000,0.000000,0.000000,0.000000,0.063506,500000.000002,90.031753,18.257829,-99.000000,-99.000000,-99.000000,-99.000000,-99.000000,-99.000000,1013.250000,0.000000,25.500000,992,1500,1500,1500,992,1500,1500
1.605000,6871388.779155,7616.178441,-0.000000,0.230018,0.291039,96.956584,7615.417942,0.000000,0.000000,0.000000,0.000000,0.199802,0.000000,0.000000,0.000000,0.000000,0.063506,500000.000002,90.031753,18.373452,-99.000000,-99.000000,-99.000000,-99.000000,-99.000000,-99.000000,1013.250000,0.000000,25.500000,992,1500,1500,1500,992,1500,1500
1.615100,6871388.779155,7616.178441,-0.000000,0.230605,0.290575,97.072207,7615.417942,0.000000,0.000000,0.000000,0.000000,0.199802,0.000000,0.000000,0.000000,0.000000,0.063506,500000.000002,90.031753,18.489076,-99.000000,-99.000000,-99.000000,-99.000000,-99.000000,-99.000000,1013.250000,0.000000,25.500000,992,1500,1500,1500,992,1500,1500
1.625200,6871388.779155,7616.178441,-0.000000,0.231191,0.290109,97.187830,7615.417942,0.000000,0.000000,0.000000,0.000000,0.199802,0.000000,0.000000,0.000000,0.000000,0.063506,500000.000002,90.031753,18.604699,-99.000000,-99.000000,-99.000000,-99.000000,-99.000000,-99.000000,1013.250000,0.000000,25.500000,992,1500,1500,1500,992,1500,1500
1.635300,6871388.779155,7616.178441,-0.000000,0.231776,0.289642,97.303454,7615.417942,0.000000,0.000000,0.000000,0.000000,0.199802,0.000000,0.000000,0.000000,0.000000,0.063506,500000.000002,90.031753,18.720322,-99.000000,-99.000000,-99.000000,-99.000000,-99.000000,-99.000000,1013.250000,0.000000,25.500000,992,1500,1500,1500,992,1500,1500
1.645400,6871388.779155,7616.178441,-0.000000,0.232360,0.289173,97.419077,7615.417942,0.000000,0.000000,0.000000,0.000000,0.199802,0.000000,0.000000,0.000000,0.000000,0.063506,500000.000002,90.031753,18.835946,-99.000000,-99.000000,-99.000000,-99.000000,-99.000000,-99.000000,1013.250000,0.000000,25.500000,992,1500,1500,1500,992,1500,1500
1.655500,6871388.779155,7616.178441,-0.000000,0.232943,0.288704,97.534701,7615.417942,0.000000,0.000000,0.000000,0.000000,0.199802,0.000000,0.000000,0.000000,0.000000,0.063506,500000.000002,90.031753,18.951569,-99.000000,-99.000000,-99.000000,-99.000000,-99.000000,-99.000000,1013.250000,0.000000,25.500000,992,1500,1500,1500,992,1500,1500
1.665600,6871388.779155,7616.178441,-0.000000,0.233525,0.288233,97.650324,7615.417942,0.000000,0.000000,0.000000,0.000000,0.199802,0.000000,0.000000,0.000000,0.000000,0.063506,500000.000002,90.031753,19.067193,-99.000000,-99.000000,-99.000000,-99.000000,-99.000000,-99.000000,1013.250000,0.000000,25.500000,992,1500,1500,1500,992,1500,1500
1.675700,6871388.779155,7616.178441,-0.000000,0.234106,0.287761,97.765947,7615.417942,0.000000,0.000000,0.000000,0.000000,0.199802,0.000000,0.000000,0.000000,0.000000,0.063506,500000.000002,90.031753,19.182816,-99.000000,-99.000000,-99.000000,-99.000000,-99.000000,-99.000000,1013.250000,0.000000,25.500000,992,1500,1500,1500,992,1500,1500
1.685800,6871388.779155,7616.178441,-0.000000,0.234687,0.287288,97.881571,7615.417942,0.000000,0.000000,0.000000,0.000000,0.199802,0.000000,0.000000,0.000000,0.000000,0.063506,500000.000002,90.031753,19.298439,-99.000000,-99.000000,-99.000000,-99.000000,-99.000000,-99.000000,1013.250000,0.000000,25.500000,992,1500,1500,1500,992,1500,1500
1.695900,6871388.779155,7616.178441,-0.000000,0.235266,0.286814,97.997194,7615.417942,0.000000,0.000000,0.000000,0.000000,0.199802,0.000000,0.000000,0.000000,0.000000,0.063506,500000.000002,90.031753,19.414063,-99.000000,-99.000000,-99.000000,-99.000000,-99.000000,-99.000000,1013.250000,0.000000,25.500000,992,1500,1500,1500,992,1500,1500
1.706000,6871388.779155,7616.178441,-0.000000,0.235844,0.286339,98.112818,7615.417942,0.000000,0.000000,0.000000,0.000000,0.199802,0.000000,0.000000,0.000000,0.000000,0.063506,500000.000002,90.031753,19.529686,-99.000000,-99.000000,-99.000000,-99.000000,-99.000000,-99.000000,1013.250000,0.000000,25.500000,992,1500,1500,1500,992,1500,1500
1.716100,6871388.779155,7616.178441,-0.000000,0.236421,0.285862,98.228441,7615.417942,0.000000,0.000000,0.000000,0.000000,0.199802,0.000000,0.000000,0.000000,0.000000,0.063506,500000.000002,90.031753,19.645309,-99.000000,-99.000000,-99.000000,-99.000000,-99.000000,-99.000000,1013.250000,0.000000,25.500000,992,1500,1500,1500,992,1500,1500
1.726200,6871388.779155,7616.178441,-0.000000,0.236998,0.285385,98.344064,7615.417942,0.000000,0.000000,0.000000,0.000000,0.199802,0.000000,0.000000,0.000000,0.000000,0.063506,500000.000002,90.031753,19.760933,-99.000000,-99.000000,-99.000000,-99.000000,-99.000000,-99.000000,1013.250000,0.000000,25.500000,992,1500,1500,1500,992,1500,1500
1.736300,6871388.779155,7616.178441,-0.000000,0.237573,0.284906,98.459688,7615.417942,0.000000,0.000000,0.000000,0.000000,0.199802,0.000000,0.000000,0.000000,0.000000,0.063506,500000.000002,90.031753,19.876556,-99.000000,-99.000000,-99.000000,-99.000000,-99.000000,-99.000000,1013.250000,0.000000,25.500000,992,1500,1500,1500,992,1500,1500
1.746400,6871388.779155,7616.178441,-0.000000,0.238148,0.284426,98.575311,7615.417942,0.000000,0.000000,0.000000,0.000000,0.199802,0.000000,0.000000,0.000000,0.000000,0.063506,500000.000002,90.031753,19.992179,-99.000000,-99.000000,-99.000000,-99.000000,-99.000000,-99.000000,1013.250000,0.000000,25.500000,992,1500,1500,1500,992,1500,1500
1.756500,6871388.779155,7616.178441,-0.000000,0.238721,0.283945,98.690934,7615.417942,0.000000,0.000000,0.000000,0.000000,0.199802,0.000000,0.000000,0.000000,0.000000,0.063506,500000.000002,90.031753,20.107803,-99.000000,-99.000000,-99.000000,-99.000000,-99.000000,-99.000000,1013.250000,0.000000,25.500000,992,1500,1500,1500,992,1500,1500
1.766600,6871388.779155,7616.178441,-0.000000,0.239294,0.283462,98.806557,7615.417942,0.000000,0.000000,0.000000,0.000000,0.199802,0.000000,0.000000,0.000000,0.000000,0.063506,500000.000002,90.031753,20.223426,-99.000000,-99.000000,-99.000000,-99.000000,-99.000000,-99.000000,1013.250000,0.000000,25.500000,992,1500,1500,1500,992,1500,1500
1.776700,6871388.779155,7616.178441,-0.000000,0.239865,0.282979,98.922181,7615.417942,0.000000,0.000000,0.000000,0.000000,0.199802,0.000000,0.000000,0.000000,0.000000,0.063506,500000.000002,90.031753,20.339049,-99.000000,-99.000000,-99.000000,-99.000000,-99.000000,-99.000000,1013.250000,0.000000,25.500000,992,1500,1500,1500,992,1500,1500
