Time (sec) ,Sense X(m) ,Sense Y(m) ,Sense Z(m) ,Sense Roll (deg) ,Sense Pitch (deg) ,Sense Compass (deg) ,Sense U(m/s) ,Sense V(m/s) ,Sense W(m/s) ,Sense P(rad/s) ,Sense Q(rad/s) ,Sense R(rad/s) ,Sense Mx(Gauss) ,Sense My(Gauss) ,Sense Mz(Gauss) ,Sense GPS Latitude (deg) ,Sense GPS Longitude (deg) ,Sense GPS Altitude (m) ,Sense GPS Heading (deg) ,Sense IMU Heading (deg) ,Sense Analog 1 (V) ,Sense Analog 2 (V) ,Sense Analog 3 (V) ,Sense Analog 4 (V) ,Sense Analog 5 (V) ,Sense Analog 6 (V) ,Sense Pressure (Pa) ,Sense Pressure Altitude (m) ,Sense Temperature (C) ,RC Channel #1 ,RC Channel #2 ,RC Channel #3 ,RC Channel #4 ,RC Channel #5 ,PWM Hardware Out 1 ,PWM Hardware Out 2 ,PWM Hardware Out 3 
 0.000000,6871393.000000,0.000000,-0.000000,0.000000,0.000000,0.000000,0.000000,0.000000,0.000000,0.200000,0.200000,0.200000,0.000000,0.000000,0.000000,0.000000,0.000000,500000.000000,0.000000,0.000000,-99.000000,-99.000000,-99.000000,-99.000000,-99.000000,-99.000000,1013.250000,0.000000,25.500000,992,1500,1500,1500,992,1500,1500,1500
0.010100,6871393.000000,0.000000,-0.000000,0.114706,0.114545,0.114638,0.000000,0.000000,0.000000,0.200000,0.200239,0.199760,0.000000,0.000000,0.000000,0.000000,0.000000,500000.000000,0.000000,0.114638,-99.000000,-99.000000,-99.000000,-99.000000,-99.000000,-99.000000,1013.250000,0.000000,25.500000,992,1500,1500,1500,992,1500,1500,1500
0.020200,6871393.000000,0.000000,-0.000000,0.230792,0.230143,0.230516,0.000000,0.000000,0.000000,0.200000,0.200481,0.199518,0.000000,0.000000,0.000000,0.000000,0.000000,500000.000000,0.000000,0.230516,-99.000000,-99.000000,-99.000000,-99.000000,-99.000000,-99.000000,1013.250000,0.000000,25.500000,992,1500,1500,1500,992,1500,1500,1500
0.030300,6871393.000000,0.000000,-0.000000,0.347112,0.345645,0.346490,0.000000,0.000000,0.000000,0.200000,0.200722,0.199275,0.000000,0.000000,0.000000,0.000000,0.000000,500000.000000,0.000000,0.346490,-99.000000,-99.000000,-99.000000,-99.000000,-99.000000,-99.000000,1013.250000,0.000000,25.500000,992,1500,1500,1500,992,1500,1500,1500
0.040300,6871393.000000,0.000000,-0.000000,0.462512,0.459909,0.461410,0.000000,0.000000,0.000000,0.200000,0.200961,0.199035,0.000000,0.000000,0.000000,0.000000,0.000000,500000.000000,0.000000,0.461410,-99.000000,-99.000000,-99.000000,-99.000000,-99.000000,-99.000000,1013.250000,0.000000,25.500000,992,1500,1500,1500,992,1500,1500,1500
0.050300,6871393.000000,0.000000,-0.000000,0.578141,0.574080,0.576426,0.000000,0.000000,0.000000,0.200000,0.201199,0.198794,0.000000,0.000000,0.000000,0.000000,0.000000,500000.000000,0.000000,0.576426,-99.000000,-99.000000,-99.000000,-99.000000,-99.000000,-99.000000,1013.250000,0.000000,25.500000,992,1500,1500,1500,992,1500,1500,1500
0.060300,6871393.000000,0.000000,-0.000000,0.694001,0.688156,0.691538,0.000000,0.000000,0.000000,0.200000,0.201437,0.198553,0.000000,0.000000,0.000000,0.000000,0.000000,500000.000000,0.000000,0.691538,-99.000000,-99.000000,-99.000000,-99.000000,-99.000000,-99.000000,1013.250000,0.000000,25.500000,992,1500,1500,1500,992,1500,1500,1500
0.070300,6871393.000000,0.000000,-0.000000,0.810091,0.802136,0.806747,0.000000,0.000000,0.000000,0.200000,0.201674,0.198312,0.000000,0.000000,0.000000,0.000000,0.000000,500000.000000,0.000000,0.806747,-99.000000,-99.000000,-99.000000,-99.000000,-99.000000,-99.000000,1013.250000,0.000000,25.500000,992,1500,1500,1500,992,1500,1500,1500
0.080300,6871393.000000,0.000000,-0.000000,0.926411,0.916021,0.922054,0.000000,0.000000,0.000000,0.200000,0.201912,0.198070,0.000000,0.000000,0.000000,0.000000,0.000000,500000.000000,0.000000,0.922054,-99.000000,-99.000000,-99.000000,-99.000000,-99.000000,-99.000000,1013.250000,0.000000,25.500000,992,1500,1500,1500,992,1500,1500,1500
0.090300,6871393.000000,0.000000,-0.000000,1.042962,1.029810,1.037459,0.000000,0.000000,0.000000,0.200000,0.202149,0.197828,0.000000,0.000000,0.000000,0.000000,0.000000,500000.000000,0.000000,1.037459,-99.000000,-99.000000,-99.000000,-99.000000,-99.000000,-99.000000,1013.250000,0.000000,25.500000,992,1500,1500,1500,992,1500,1500,1500
0.100300,6871393.000000,0.000000,-0.000000,1.159744,1.143502,1.152964,0.000000,0.000000,0.000000,0.200000,0.202386,0.197586,0.000000,0.000000,0.000000,0.000000,0.000000,500000.000000,0.000000,1.152964,-99.000000,-99.000000,-99.000000,-99.000000,-99.000000,-99.000000,1013.250000,0.000000,25.500000,992,1500,1500,1500,992,1500,1500,1500
0.110300,6871393.000000,0.000000,-0.000000,1.276758,1.257096,1.268570,0.000000,0.000000,0.000000,0.200000,0.202622,0.197343,0.000000,0.000000,0.000000,0.000000,0.000000,500000.000000,0.000000,1.268570,-99.000000,-99.000000,-99.000000,-99.000000,-99.000000,-99.000000,1013.250000,0.000000,25.500000,992,1500,1500,1500,992,1500,1500,1500
0.120300,6871393.000000,0.000000,-0.000000,1.394002,1.370593,1.384276,0.000000,0.000000,0.000000,0.200000,0.202858,0.197100,0.000000,0.000000,0.000000,0.000000,0.000000,500000.000000,0.000000,1.384276,-99.000000,-99.000000,-99.000000,-99.000000,-99.000000,-99.000000,1013.250000,0.000000,25.500000,992,1500,1500,1500,992,1500,1500,1500
0.130400,6871393.000000,0.000000,-0.000000,1.512654,1.485125,1.501243,0.000000,0.000000,0.000000,0.200000,0.203096,0.196855,0.000000,0.000000,0.000000,0.000000,0.000000,500000.000000,0.000000,1.501243,-99.000000,-99.000000,-99.000000,-99.000000,-99.000000,-99.000000,1013.250000,0.000000,25.500000,992,1500,1500,1500,992,1500,1500,1500
0.140500,6871393.000000,0.000000,-0.000000,1.631543,1.599555,1.618315,0.000000,0.000000,0.000000,0.200000,0.203334,0.196609,0.000000,0.000000,0.000000,0.000000,0.000000,500000.000000,0.000000,1.618315,-99.000000,-99.000000,-99.000000,-99.000000,-99.000000,-99.000000,1013.250000,0.000000,25.500000,992,1500,1500,1500,992,1500,1500,1500
0.150600,6871393.000000,0.000000,-0.000000,1.750668,1.713884,1.735493,0.000000,0.000000,0.000000,0.200000,0.203572,0.196363,0.000000,0.000000,0.000000,0.000000,0.000000,500000.000000,0.000000,1.735493,-99.000000,-99.000000,-99.000000,-99.000000,-99.000000,-99.000000,1013.250000,0.000000,25.500000,992,1500,1500,1500,992,1500,1500,1500
0.160700,6871393.000000,0.000000,-0.000000,1.870030,1.828111,1.852778,0.000000,0.000000,0.000000,0.200000,0.203809,0.196117,0.000000,0.000000,0.000000,0.000000,0.000000,500000.000000,0.000000,1.852778,-99.000000,-99.000000,-99.000000,-99.000000,-99.000000,-99.000000,1013.250000,0.000000,25.500000,992,1500,1500,1500,992,1500,1500,1500
0.170800,6871393.000000,0.000000,-0.000000,1.989630,1.942236,1.970170,0.000000,0.000000,0.000000,0.200000,0.204047,0.195870,0.000000,0.000000,0.000000,0.000000,0.000000,500000.000000,0.000000,1.970170,-99.000000,-99.000000,-99.000000,-99.000000,-99.000000,-99.000000,1013.250000,0.000000,25.500000,992,1500,1500,1500,992,1500,1500,1500
0.180900,6871393.000000,0.000000,-0.000000,2.109466,2.056257,2.087670,0.000000,0.000000,0.000000,0.200000,0.204283,0.195623,0.000000,0.000000,0.000000,0.000000,0.000000,500000.000000,0.000000,2.087670,-99.000000,-99.000000,-99.000000,-99.000000,-99.000000,-99.000000,1013.250000,0.000000,25.500000,992,1500,1500,1500,992,1500,1500,1500
0.191000,6871393.000000,0.000000,-0.000000,2.229541,2.170174,2.205280,0.000000,0.000000,0.000000,0.200000,0.204520,0.195376,0.000000,0.000000,0.000000,0.000000,0.000000,500000.000000,0.000000,2.205280,-99.000000,-99.000000,-99.000000,-99.000000,-99.000000,-99.000000,1013.250000,0.000000,25.500000,992,1500,1500,1500,992,1500,1500,1500
0.201100,6871393.000000,0.000000,-0.000000,2.349853,2.283986,2.323000,0.000000,0.000000,0.000000,0.200000,0.204756,0.195128,0.000000,0.000000,0.000000,0.000000,0.000000,500000.000000,0.000000,2.323000,-99.000000,-99.000000,-99.000000,-99.000000,-99.000000,-99.000000,1013.250000,0.000000,25.500000,992,1500,1500,1500,992,1500,1500,1500
0.211200,6871393.000000,0.000000,-0.000000,2.470403,2.397694,2.440830,0.000000,0.000000,0.000000,0.200000,0.204992,0.194880,0.000000,0.000000,0.000000,0.000000,0.000000,500000.000000,0.000000,2.440830,-99.000000,-99.000000,-99.000000,-99.000000,-99.000000,-99.000000,1013.250000,0.000000,25.500000,992,1500,1500,1500,992,1500,1500,1500
0.221300,6871393.000000,0.000000,-0.000000,2.591191,2.511296,2.558773,0.000000,0.000000,0.000000,0.200000,0.205227,0.194632,0.000000,0.000000,0.000000,0.000000,0.000000,500000.000000,0.000000,2.558773,-99.000000,-99.000000,-99.000000,-99.000000,-99.000000,-99.000000,1013.250000,0.000000,25.500000,992,1500,1500,1500,992,1500,1500,1500
0.231400,6871393.000000,0.000000,-0.000000,2.712218,2.624792,2.676828,0.000000,0.000000,0.000000,0.200000,0.205463,0.194384,0.000000,0.000000,0.000000,0.000000,0.000000,500000.000000,0.000000,2.676828,-99.000000,-99.000000,-99.000000,-99.000000,-99.000000,-99.000000,1013.250000,0.000000,25.500000,992,1500,1500,1500,992,1500,1500,1500
0.241500,6871393.000000,0.000000,-0.000000,2.833484,2.738181,2.794996,0.000000,0.000000,0.000000,0.200000,0.205698,0.194135,0.000000,0.000000,0.000000,0.000000,0.000000,500000.000000,0.000000,2.794996,-99.000000,-99.000000,-99.000000,-99.000000,-99.000000,-99.000000,1013.250000,0.000000,25.500000,992,1500,1500,1500,992,1500,1500,1500
0.251600,6871393.000000,0.000000,-0.000000,2.954989,2.851463,2.913279,0.000000,0.000000,0.000000,0.200000,0.205932,0.193886,0.000000,0.000000,0.000000,0.000000,0.000000,500000.000000,0.000000,2.913279,-99.000000,-99.000000,-99.000000,-99.000000,-99.000000,-99.000000,1013.250000,0.000000,25.500000,992,1500,1500,1500,992,1500,1500,1500
0.261700,6871393.000000,0.000000,-0.000000,3.076734,2.964637,3.031677,0.000000,0.000000,0.000000,0.200000,0.206167,0.193637,0.000000,0.000000,0.000000,0.000000,0.000000,500000.000000,0.000000,3.031677,-99.000000,-99.000000,-99.000000,-99.000000,-99.000000,-99.000000,1013.250000,0.000000,25.500000,992,1500,1500,1500,992,1500,1500,1500
0.271800,6871393.000000,0.000000,-0.000000,3.198717,3.077702,3.150191,0.000000,0.000000,0.000000,0.200000,0.206401,0.193387,0.000000,0.000000,0.000000,0.000000,0.000000,500000.000000,0.000000,3.150191,-99.000000,-99.000000,-99.000000,-99.000000,-99.000000,-99.000000,1013.250000,0.000000,25.500000,992,1500,1500,1500,992,1500,1500,1500
0.281900,6871393.000000,0.000000,-0.000000,3.320941,3.190658,3.268822,0.000000,0.000000,0.000000,0.200000,0.206635,0.193138,0.000000,0.000000,0.000000,0.000000,0.000000,500000.000000,0.000000,3.268822,-99.000000,-99.000000,-99.000000,-99.000000,-99.000000,-99.000000,1013.250000,0.000000,25.500000,992,1500,1500,1500,992,1500,1500,1500
0.292000,6871393.000000,0.000000,-0.000000,3.443405,3.303505,3.387571,0.000000,0.000000,0.000000,0.200000,0.206868,0.192888,0.000000,0.000000,0.000000,0.000000,0.000000,500000.000000,0.000000,3.387571,-99.000000,-99.000000,-99.000000,-99.000000,-99.000000,-99.000000,1013.250000,0.000000,25.500000,992,1500,1500,1500,992,1500,1500,1500
0.302100,6871393.000000,0.000000,-0.000000,3.566109,3.416241,3.506438,0.000000,0.000000,0.000000,0.200000,0.207101,0.192637,0.000000,0.000000,0.000000,0.000000,0.000000,500000.000000,0.000000,3.506438,-99.000000,-99.000000,-99.000000,-99.000000,-99.000000,-99.000000,1013.250000,0.000000,25.500000,992,1500,1500,1500,992,1500,1500,1500
0.312200,6871393.000000,0.000000,-0.000000,3.689053,3.528867,3.625424,0.000000,0.000000,0.000000,0.200000,0.207334,0.192387,0.000000,0.000000,0.000000,0.000000,0.000000,500000.000000,0.000000,3.625424,-99.000000,-99.000000,-99.000000,-99.000000,-99.000000,-99.000000,1013.250000,0.000000,25.500000,992,1500,1500,1500,992,1500,1500,1500
0.322300,6871393.000000,0.000000,-0.000000,3.812239,3.641380,3.744531,0.000000,0.000000,0.000000,0.200000,0.207567,0.192136,0.000000,0.000000,0.000000,0.000000,0.000000,500000.000000,0.000000,3.744531,-99.000000,-99.000000,-99.000000,-99.000000,-99.000000,-99.000000,1013.250000,0.000000,25.500000,992,1500,1500,1500,992,1500,1500,1500
0.332400,6871393.000000,0.000000,-0.000000,3.935665,3.753782,3.863759,0.000000,0.000000,0.000000,0.200000,0.207799,0.191884,0.000000,0.000000,0.000000,0.000000,0.000000,500000.000000,0.000000,3.863759,-99.000000,-99.000000,-99.000000,-99.000000,-99.000000,-99.000000,1013.250000,0.000000,25.500000,992,1500,1500,1500,992,1500,1500,1500
0.342500,6871393.000000,0.000000,-0.000000,4.059333,3.866071,3.983109,0.000000,0.000000,0.000000,0.200000,0.208031,0.191633,0.000000,0.000000,0.000000,0.000000,0.000000,500000.000000,0.000000,3.983109,-99.000000,-99.000000,-99.000000,-99.000000,-99.000000,-99.000000,1013.250000,0.000000,25.500000,992,1500,1500,1500,992,1500,1500,1500
0.352600,6871393.000000,0.000000,-0.000000,4.183243,3.978247,4.102582,0.000000,0.000000,0.000000,0.200000,0.208262,0.191381,0.000000,0.000000,0.000000,0.000000,0.000000,500000.000000,0.000000,4.102582,-99.000000,-99.000000,-99.000000,-99.000000,-99.000000,-99.000000,1013.250000,0.000000,25.500000,992,1500,1500,1500,992,1500,1500,1500
0.362700,6871393.000000,0.000000,-0.000000,4.307394,4.090309,4.222178,0.000000,0.000000,0.000000,0.200000,0.208494,0.191129,0.000000,0.000000,0.000000,0.000000,0.000000,500000.000000,0.000000,4.222178,-99.000000,-99.000000,-99.000000,-99.000000,-99.000000,-99.000000,1013.250000,0.000000,25.500000,992,1500,1500,1500,992,1500,1500,1500
0.372800,6871393.000000,0.000000,-0.000000,4.431788,4.202256,4.341898,0.000000,0.000000,0.000000,0.200000,0.208725,0.190877,0.000000,0.000000,0.000000,0.000000,0.000000,500000.000000,0.000000,4.341898,-99.000000,-99.000000,-99.000000,-99.000000,-99.000000,-99.000000,1013.250000,0.000000,25.500000,992,1500,1500,1500,992,1500,1500,1500
0.382900,6871393.000000,0.000000,-0.000000,4.556424,4.314089,4.461744,0.000000,0.000000,0.000000,0.200000,0.208956,0.190624,0.000000,0.000000,0.000000,0.000000,0.000000,500000.000000,0.000000,4.461744,-99.000000,-99.000000,-99.000000,-99.000000,-99.000000,-99.000000,1013.250000,0.000000,25.500000,992,1500,1500,1500,992,1500,1500,1500
0.393000,6871393.000000,0.000000,-0.000000,4.681303,4.425805,4.581717,0.000000,0.000000,0.000000,0.200000,0.209186,0.190371,0.000000,0.000000,0.000000,0.000000,0.000000,500000.000000,0.000000,4.581717,-99.000000,-99.000000,-99.000000,-99.000000,-99.000000,-99.000000,1013.250000,0.000000,25.500000,992,1500,1500,1500,992,1500,1500,1500
0.403100,6871393.000000,0.000000,-0.000000,4.806425,4.537405,4.701816,0.000000,0.000000,0.000000,0.200000,0.209416,0.190118,0.000000,0.000000,0.000000,0.000000,0.000000,500000.000000,0.000000,4.701816,-99.000000,-99.000000,-99.000000,-99.000000,-99.000000,-99.000000,1013.250000,0.000000,25.500000,992,1500,1500,1500,992,1500,1500,1500
0.413200,6871393.000000,0.000000,-0.000000,4.931790,4.648889,4.822043,0.000000,0.000000,0.000000,0.200000,0.209646,0.189865,0.000000,0.000000,0.000000,0.000000,0.000000,500000.000000,0.000000,4.822043,-99.000000,-99.000000,-99.000000,-99.000000,-99.000000,-99.000000,1013.250000,0.000000,25.500000,992,1500,1500,1500,992,1500,1500,1500
0.423300,6871393.000000,0.000000,-0.000000,5.057399,4.760254,4.942398,0.000000,0.000000,0.000000,0.200000,0.209875,0.189611,0.000000,0.000000,0.000000,0.000000,0.000000,500000.000000,0.000000,4.942398,-99.000000,-99.000000,-99.000000,-99.000000,-99.000000,-99.000000,1013.250000,0.000000,25.500000,992,1500,1500,1500,992,1500,1500,1500
0.433400,6871393.000000,0.000000,-0.000000,5.183252,4.871502,5.062883,0.000000,0.000000,0.000000,0.200000,0.210105,0.189357,0.000000,0.000000,0.000000,0.000000,0.000000,500000.000000,0.000000,5.062883,-99.000000,-99.000000,-99.000000,-99.000000,-99.000000,-99.000000,1013.250000,0.000000,25.500000,992,1500,1500,1500,992,1500,1500,1500
0.443500,6871393.000000,0.000000,-0.000000,5.309348,4.982630,5.183498,0.000000,0.000000,0.000000,0.200000,0.210333,0.189103,0.000000,0.000000,0.000000,0.000000,0.000000,500000.000000,0.000000,5.183498,-99.000000,-99.000000,-99.000000,-99.000000,-99.000000,-99.000000,1013.250000,0.000000,25.500000,992,1500,1500,1500,992,1500,1500,1500
0.453600,6871393.000000,0.000000,-0.000000,5.435690,5.093640,5.304245,0.000000,0.000000,0.000000,0.200000,0.210562,0.188848,0.000000,0.000000,0.000000,0.000000,0.000000,500000.000000,0.000000,5.304245,-99.000000,-99.000000,-99.000000,-99.000000,-99.000000,-99.000000,1013.250000,0.000000,25.500000,992,1500,1500,1500,992,1500,1500,1500
0.463700,6871393.000000,0.000000,-0.000000,5.562276,5.204529,5.425123,0.000000,0.000000,0.000000,0.200000,0.210790,0.188593,0.000000,0.000000,0.000000,0.000000,0.000000,500000.000000,0.000000,5.425123,-99.000000,-99.000000,-99.000000,-99.000000,-99.000000,-99.000000,1013.250000,0.000000,25.500000,992,1500,1500,1500,992,1500,1500,1500
0.473800,6871393.000000,0.000000,-0.000000,5.689107,5.315297,5.546135,0.000000,0.000000,0.000000,0.200000,0.211018,0.188338,0.000000,0.000000,0.000000,0.000000,0.000000,500000.000000,0.000000,5.546135,-99.000000,-99.000000,-99.000000,-99.000000,-99.000000,-99.000000,1013.250000,0.000000,25.500000,992,1500,1500,1500,992,1500,1500,1500
0.483900,6871393.000000,0.000000,-0.000000,5.816183,5.425945,5.667280,0.000000,0.000000,0.000000,0.200000,0.211246,0.188083,0.000000,0.000000,0.000000,0.000000,0.000000,500000.000000,0.000000,5.667280,-99.000000,-99.000000,-99.000000,-99.000000,-99.000000,-99.000000,1013.250000,0.000000,25.500000,992,1500,1500,1500,992,1500,1500,1500
0.494000,6871393.000000,0.000000,-0.000000,5.943505,5.536470,5.788559,0.000000,0.000000,0.000000,0.200000,0.211473,0.187827,0.000000,0.000000,0.000000,0.000000,0.000000,500000.000000,0.000000,5.788559,-99.000000,-99.000000,-99.000000,-99.000000,-99.000000,-99.000000,1013.250000,0.000000,25.500000,992,1500,1500,1500,992,1500,1500,1500
0.504100,6871393.000000,0.000000,-0.000000,6.071073,5.646873,5.909974,0.000000,0.000000,0.000000,0.200000,0.211700,0.187571,0.000000,0.000000,0.000000,0.000000,0.000000,500000.000000,0.000000,5.909974,-99.000000,-99.000000,-99.000000,-99.000000,-99.000000,-99.000000,1013.250000,0.000000,25.500000,992,1500,1500,1500,992,1500,1500,1500
0.514200,6871393.000000,0.000000,-0.000000,6.198888,5.757152,6.031524,0.000000,0.000000,0.000000,0.200000,0.211927,0.187315,0.000000,0.000000,0.000000,0.000000,0.000000,500000.000000,0.000000,6.031524,-99.000000,-99.000000,-99.000000,-99.000000,-99.000000,-99.000000,1013.250000,0.000000,25.500000,992,1500,1500,1500,992,1500,1500,1500
0.524300,6871393.000000,0.000000,-0.000000,6.326948,5.867308,6.153212,0.000000,0.000000,0.000000,0.200000,0.212153,0.187059,0.000000,0.000000,0.000000,0.000000,0.000000,500000.000000,0.000000,6.153212,-99.000000,-99.000000,-99.000000,-99.000000,-99.000000,-99.000000,1013.250000,0.000000,25.500000,992,1500,1500,1500,992,1500,1500,1500
0.534400,6871393.000000,0.000000,-0.000000,6.455256,5.977339,6.275038,0.000000,0.000000,0.000000,0.200000,0.212380,0.186802,0.000000,0.000000,0.000000,0.000000,0.000000,500000.000000,0.000000,6.275038,-99.000000,-99.000000,-99.000000,-99.000000,-99.000000,-99.000000,1013.250000,0.000000,25.500000,992,1500,1500,1500,992,1500,1500,1500
0.544500,6871393.000000,0.000000,-0.000000,6.583810,6.087245,6.397002,0.000000,0.000000,0.000000,0.200000,0.212605,0.186545,0.000000,0.000000,0.000000,0.000000,0.000000,500000.000000,0.000000,6.397002,-99.000000,-99.000000,-99.000000,-99.000000,-99.000000,-99.000000,1013.250000,0.000000,25.500000,992,1500,1500,1500,992,1500,1500,1500
0.554600,6871393.000000,0.000000,-0.000000,6.712612,6.197026,6.519105,0.000000,0.000000,0.000000,0.200000,0.212831,0.186287,0.000000,0.000000,0.000000,0.000000,0.000000,500000.000000,0.000000,6.519105,-99.000000,-99.000000,-99.000000,-99.000000,-99.000000,-99.000000,1013.250000,0.000000,25.500000,992,1500,1500,1500,992,1500,1500,1500
0.564700,6871393.000000,0.000000,-0.000000,6.841662,6.306680,6.641349,0.000000,0.000000,0.000000,0.200000,0.213056,0.186030,0.000000,0.000000,0.000000,0.000000,0.000000,500000.000000,0.000000,6.641349,-99.000000,-99.000000,-99.000000,-99.000000,-99.000000,-99.000000,1013.250000,0.000000,25.500000,992,1500,1500,1500,992,1500,1500,1500
0.574800,6871393.000000,0.000000,-0.000000,6.970960,6.416207,6.763734,0.000000,0.000000,0.000000,0.200000,0.213281,0.185772,0.000000,0.000000,0.000000,0.000000,0.000000,500000.000000,0.000000,6.763734,-99.000000,-99.000000,-99.000000,-99.000000,-99.000000,-99.000000,1013.250000,0.000000,25.500000,992,1500,1500,1500,992,1500,1500,1500
0.584900,6871393.000000,0.000000,-0.000000,7.100506,6.525606,6.886261,0.000000,0.000000,0.000000,0.200000,0.213505,0.185514,0.000000,0.000000,0.000000,0.000000,0.000000,500000.000000,0.000000,6.886261,-99.000000,-99.000000,-99.000000,-99.000000,-99.000000,-99.000000,1013.250000,0.000000,25.500000,992,1500,1500,1500,992,1500,1500,1500
0.595000,6871393.000000,0.000000,-0.000000,7.230301,6.634877,7.008930,0.000000,0.000000,0.000000,0.200000,0.213730,0.185256,0.000000,0.000000,0.000000,0.000000,0.000000,500000.000000,0.000000,7.008930,-99.000000,-99.000000,-99.000000,-99.000000,-99.000000,-99.000000,1013.250000,0.000000,25.500000,992,1500,1500,1500,992,1500,1500,1500
0.605100,6871393.000000,0.000000,-0.000000,7.360344,6.744019,7.131743,0.000000,0.000000,0.000000,0.200000,0.213954,0.184997,0.000000,0.000000,0.000000,0.000000,0.000000,500000.000000,0.000000,7.131743,-99.000000,-99.000000,-99.000000,-99.000000,-99.000000,-99.000000,1013.250000,0.000000,25.500000,992,1500,1500,1500,992,1500,1500,1500
0.615200,6871393.000000,0.000000,-0.000000,7.490637,6.853031,7.254700,0.000000,0.000000,0.000000,0.200000,0.214177,0.184738,0.000000,0.000000,0.000000,0.000000,0.000000,500000.000000,0.000000,7.254700,-99.000000,-99.000000,-99.000000,-99.000000,-99.000000,-99.000000,1013.250000,0.000000,25.500000,992,1500,1500,1500,992,1500,1500,1500
0.625300,6871393.000000,0.000000,-0.000000,7.621180,6.961913,7.377803,0.000000,0.000000,0.000000,0.200000,0.214401,0.184479,0.000000,0.000000,0.000000,0.000000,0.000000,500000.000000,0.000000,7.377803,-99.000000,-99.000000,-99.000000,-99.000000,-99.000000,-99.000000,1013.250000,0.000000,25.500000,992,1500,1500,1500,992,1500,1500,1500
0.635400,6871393.000000,0.000000,-0.000000,7.751973,7.070664,7.501051,0.000000,0.000000,0.000000,0.200000,0.214623,0.184219,0.000000,0.000000,0.000000,0.000000,0.000000,500000.000000,0.000000,7.501051,-99.000000,-99.000000,-99.000000,-99.000000,-99.000000,-99.000000,1013.250000,0.000000,25.500000,992,1500,1500,1500,992,1500,1500,1500
0.645500,6871393.000000,0.000000,-0.000000,7.883015,7.179284,7.624447,0.000000,0.000000,0.000000,0.200000,0.214846,0.183960,0.000000,0.000000,0.000000,0.000000,0.000000,500000.000000,0.000000,7.624447,-99.000000,-99.000000,-99.000000,-99.000000,-99.000000,-99.000000,1013.250000,0.000000,25.500000,992,1500,1500,1500,992,1500,1500,1500
0.655600,6871393.000000,0.000000,-0.000000,8.014309,7.287771,7.747989,0.000000,0.000000,0.000000,0.200000,0.215069,0.183700,0.000000,0.000000,0.000000,0.000000,0.000000,500000.000000,0.000000,7.747989,-99.000000,-99.000000,-99.000000,-99.000000,-99.000000,-99.000000,1013.250000,0.000000,25.500000,992,1500,1500,1500,992,1500,1500,1500
0.665700,6871393.000000,0.000000,-0.000000,8.145853,7.396125,7.871681,0.000000,0.000000,0.000000,0.200000,0.215291,0.183439,0.000000,0.000000,0.000000,0.000000,0.000000,500000.000000,0.000000,7.871681,-99.000000,-99.000000,-99.000000,-99.000000,-99.000000,-99.000000,1013.250000,0.000000,25.500000,992,1500,1500,1500,992,1500,1500,1500
0.675800,6871393.000000,0.000000,-0.000000,8.277648,7.504346,7.995521,0.000000,0.000000,0.000000,0.200000,0.215512,0.183179,0.000000,0.000000,0.000000,0.000000,0.000000,500000.000000,0.000000,7.995521,-99.000000,-99.000000,-99.000000,-99.000000,-99.000000,-99.000000,1013.250000,0.000000,25.500000,992,1500,1500,1500,992,1500,1500,1500
0.685900,6871393.000000,0.000000,-0.000000,8.409695,7.612433,8.119512,0.000000,0.000000,0.000000,0.200000,0.215734,0.182918,0.000000,0.000000,0.000000,0.000000,0.000000,500000.000000,0.000000,8.119512,-99.000000,-99.000000,-99.000000,-99.000000,-99.000000,-99.000000,1013.250000,0.000000,25.500000,992,1500,1500,1500,992,1500,1500,1500
0.696000,6871393.000000,0.000000,-0.000000,8.541993,7.720384,8.243653,0.000000,0.000000,0.000000,0.200000,0.215955,0.182657,0.000000,0.000000,0.000000,0.000000,0.000000,500000.000000,0.000000,8.243653,-99.000000,-99.000000,-99.000000,-99.000000,-99.000000,-99.000000,1013.250000,0.000000,25.500000,992,1500,1500,1500,992,1500,1500,1500
0.706100,6871393.000000,0.000000,-0.000000,8.674544,7.828200,8.367946,0.000000,0.000000,0.000000,0.200000,0.216176,0.182396,0.000000,0.000000,0.000000,0.000000,0.000000,500000.000000,0.000000,8.367946,-99.000000,-99.000000,-99.000000,-99.000000,-99.000000,-99.000000,1013.250000,0.000000,25.500000,992,1500,1500,1500,992,1500,1500,1500
0.716200,6871393.000000,0.000000,-0.000000,8.807347,7.935880,8.492392,0.000000,0.000000,0.000000,0.200000,0.216396,0.182134,0.000000,0.000000,0.000000,0.000000,0.000000,500000.000000,0.000000,8.492392,-99.000000,-99.000000,-99.000000,-99.000000,-99.000000,-99.000000,1013.250000,0.000000,25.500000,992,1500,1500,1500,992,1500,1500,1500
0.726300,6871393.000000,0.000000,-0.000000,8.940403,8.043422,8.616990,0.000000,0.000000,0.000000,0.200000,0.216616,0.181872,0.000000,0.000000,0.000000,0.000000,0.000000,500000.000000,0.000000,8.616990,-99.000000,-99.000000,-99.000000,-99.000000,-99.000000,-99.000000,1013.250000,0.000000,25.500000,992,1500,1500,1500,992,1500,1500,1500
0.736400,6871393.000000,0.000000,-0.000000,9.073713,8.150827,8.741743,0.000000,0.000000,0.000000,0.200000,0.216836,0.181610,0.000000,0.000000,0.000000,0.000000,0.000000,500000.000000,0.000000,8.741743,-99.000000,-99.000000,-99.000000,-99.000000,-99.000000,-99.000000,1013.250000,0.000000,25.500000,992,1500,1500,1500,992,1500,1500,1500
0.746500,6871393.000000,0.000000,-0.000000,9.207275,8.258094,8.866651,0.000000,0.000000,0.000000,0.200000,0.217056,0.181347,0.000000,0.000000,0.000000,0.000000,0.000000,500000.000000,0.000000,8.866651,-99.000000,-99.000000,-99.000000,-99.000000,-99.000000,-99.000000,1013.250000,0.000000,25.500000,992,1500,1500,1500,992,1500,1500,1500
0.756600,6871393.000000,0.000000,-0.000000,9.341091,8.365222,8.991714,0.000000,0.000000,0.000000,0.200000,0.217275,0.181085,0.000000,0.000000,0.000000,0.000000,0.000000,500000.000000,0.000000,8.991714,-99.000000,-99.000000,-99.000000,-99.000000,-99.000000,-99.000000,1013.250000,0.000000,25.500000,992,1500,1500,1500,992,1500,1500,1500
0.766700,6871393.000000,0.000000,-0.000000,9.475162,8.472210,9.116934,0.000000,0.000000,0.000000,0.200000,0.217494,0.180822,0.000000,0.000000,0.000000,0.000000,0.000000,500000.000000,0.000000,9.116934,-99.000000,-99.000000,-99.000000,-99.000000,-99.000000,-99.000000,1013.250000,0.000000,25.500000,992,1500,1500,1500,992,1500,1500,1500
0.776800,6871393.000000,0.000000,-0.000000,9.609487,8.579057,9.242311,0.000000,0.000000,0.000000,0.200000,0.217712,0.180559,0.000000,0.000000,0.000000,0.000000,0.000000,500000.000000,0.000000,9.242311,-99.000000,-99.000000,-99.000000,-99.000000,-99.000000,-99.000000,1013.250000,0.000000,25.500000,992,1500,1500,1500,992,1500,1500,1500
0.786900,6871393.000000,0.000000,-0.000000,9.744066,8.685764,9.367846,0.000000,0.000000,0.000000,0.200000,0.217930,0.180295,0.000000,0.000000,0.000000,0.000000,0.000000,500000.000000,0.000000,9.367846,-99.000000,-99.000000,-99.000000,-99.000000,-99.000000,-99.000000,1013.250000,0.000000,25.500000,992,1500,1500,1500,992,1500,1500,1500
0.797000,6871393.000000,0.000000,-0.000000,9.878901,8.792329,9.493540,0.000000,0.000000,0.000000,0.200000,0.218148,0.180031,0.000000,0.000000,0.000000,0.000000,0.000000,500000.000000,0.000000,9.493540,-99.000000,-99.000000,-99.000000,-99.000000,-99.000000,-99.000000,1013.250000,0.000000,25.500000,992,1500,1500,1500,992,1500,1500,1500
0.807100,6871393.000000,0.000000,-0.000000,10.013991,8.898751,9.619393,0.000000,0.000000,0.000000,0.200000,0.218366,0.179767,0.000000,0.000000,0.000000,0.000000,0.000000,500000.000000,0.000000,9.619393,-99.000000,-99.000000,-99.000000,-99.000000,-99.000000,-99.000000,1013.250000,0.000000,25.500000,992,1500,1500,1500,992,1500,1500,1500
0.817200,6871393.000000,0.000000,-0.000000,10.149337,9.005031,9.745407,0.000000,0.000000,0.000000,0.200000,0.218583,0.179503,0.000000,0.000000,0.000000,0.000000,0.000000,500000.000000,0.000000,9.745407,-99.000000,-99.000000,-99.000000,-99.000000,-99.000000,-99.000000,1013.250000,0.000000,25.500000,992,1500,1500,1500,992,1500,1500,1500
0.827300,6871393.000000,0.000000,-0.000000,10.284939,9.111166,9.871582,0.000000,0.000000,0.000000,0.200000,0.218800,0.179239,0.000000,0.000000,0.000000,0.000000,0.000000,500000.000000,0.000000,9.871582,-99.000000,-99.000000,-99.000000,-99.000000,-99.000000,-99.000000,1013.250000,0.000000,25.500000,992,1500,1500,1500,992,1500,1500,1500
0.837400,6871393.000000,0.000000,-0.000000,10.420798,9.217157,9.997920,0.000000,0.000000,0.000000,0.200000,0.219017,0.178974,0.000000,0.000000,0.000000,0.000000,0.000000,500000.000000,0.000000,9.997920,-99.000000,-99.000000,-99.000000,-99.000000,-99.000000,-99.000000,1013.250000,0.000000,25.500000,992,1500,1500,1500,992,1500,1500,1500
0.847500,6871393.000000,0.000000,-0.000000,10.556913,9.323003,10.124420,0.000000,0.000000,0.000000,0.200000,0.219233,0.178709,0.000000,0.000000,0.000000,0.000000,0.000000,500000.000000,0.000000,10.124420,-99.000000,-99.000000,-99.000000,-99.000000,-99.000000,-99.000000,1013.250000,0.000000,25.500000,992,1500,1500,1500,992,1500,1500,1500
0.857600,6871393.000000,0.000000,-0.000000,10.693285,9.428702,10.251083,0.000000,0.000000,0.000000,0.200000,0.219449,0.178443,0.000000,0.000000,0.000000,0.000000,0.000000,500000.000000,0.000000,10.251083,-99.000000,-99.000000,-99.000000,-99.000000,-99.000000,-99.000000,1013.250000,0.000000,25.500000,992,1500,1500,1500,992,1500,1500,1500
0.867700,6871393.000000,0.000000,-0.000000,10.829915,9.534256,10.377911,0.000000,0.000000,0.000000,0.200000,0.219665,0.178178,0.000000,0.000000,0.000000,0.000000,0.000000,500000.000000,0.000000,10.377911,-99.000000,-99.000000,-99.000000,-99.000000,-99.000000,-99.000000,1013.250000,0.000000,25.500000,992,1500,1500,1500,992,1500,1500,1500
0.877800,6871393.000000,0.000000,-0.000000,10.966803,9.639661,10.504905,0.000000,0.000000,0.000000,0.200000,0.219880,0.177912,0.000000,0.000000,0.000000,0.000000,0.000000,500000.000000,0.000000,10.504905,-99.000000,-99.000000,-99.000000,-99.000000,-99.000000,-99.000000,1013.250000,0.000000,25.500000,992,1500,1500,1500,992,1500,1500,1500
0.887900,6871393.000000,0.000000,-0.000000,11.103948,9.744919,10.632064,0.000000,0.000000,0.000000,0.200000,0.220095,0.177646,0.000000,0.000000,0.000000,0.000000,0.000000,500000.000000,0.000000,10.632064,-99.000000,-99.000000,-99.000000,-99.000000,-99.000000,-99.000000,1013.250000,0.000000,25.500000,992,1500,1500,1500,992,1500,1500,1500
0.898000,6871393.000000,0.000000,-0.000000,11.241352,9.850028,10.759390,0.000000,0.000000,0.000000,0.200000,0.220310,0.177380,0.000000,0.000000,0.000000,0.000000,0.000000,500000.000000,0.000000,10.759390,-99.000000,-99.000000,-99.000000,-99.000000,-99.000000,-99.000000,1013.250000,0.000000,25.500000,992,1500,1500,1500,992,1500,1500,1500
0.908100,6871393.000000,0.000000,-0.000000,11.379015,9.954988,10.886883,0.000000,0.000000,0.000000,0.200000,0.220524,0.177113,0.000000,0.000000,0.000000,0.000000,0.000000,500000.000000,0.000000,10.886883,-99.000000,-99.000000,-99.000000,-99.000000,-99.000000,-99.000000,1013.250000,0.000000,25.500000,992,1500,1500,1500,992,1500,1500,1500
0.918200,6871393.000000,0.000000,-0.000000,11.516937,10.059797,11.014545,0.000000,0.000000,0.000000,0.200000,0.220738,0.176846,0.000000,0.000000,0.000000,0.000000,0.000000,500000.000000,0.000000,11.014545,-99.000000,-99.000000,-99.000000,-99.000000,-99.000000,-99.000000,1013.250000,0.000000,25.500000,992,1500,1500,1500,992,1500,1500,1500
0.928300,6871393.000000,0.000000,-0.000000,11.655119,10.164455,11.142375,0.000000,0.000000,0.000000,0.200000,0.220952,0.176579,0.000000,0.000000,0.000000,0.000000,0.000000,500000.000000,0.000000,11.142375,-99.000000,-99.000000,-99.000000,-99.000000,-99.000000,-99.000000,1013.250000,0.000000,25.500000,992,1500,1500,1500,992,1500,1500,1500
0.938400,6871393.000000,0.000000,-0.000000,11.793560,10.268962,11.270376,0.000000,0.000000,0.000000,0.200000,0.221166,0.176312,0.000000,0.000000,0.000000,0.000000,0.000000,500000.000000,0.000000,11.270376,-99.000000,-99.000000,-99.000000,-99.000000,-99.000000,-99.000000,1013.250000,0.000000,25.500000,992,1500,1500,1500,992,1500,1500,1500
0.948500,6871393.000000,0.000000,-0.000000,11.932261,10.373316,11.398547,0.000000,0.000000,0.000000,0.200000,0.221379,0.176044,0.000000,0.000000,0.000000,0.000000,0.000000,500000.000000,0.000000,11.398547,-99.000000,-99.000000,-99.000000,-99.000000,-99.000000,-99.000000,1013.250000,0.000000,25.500000,992,1500,1500,1500,992,1500,1500,1500
0.958600,6871393.000000,0.000000,-0.000000,12.071223,10.477517,11.526890,0.000000,0.000000,0.000000,0.200000,0.221591,0.175776,0.000000,0.000000,0.000000,0.000000,0.000000,500000.000000,0.000000,11.526890,-99.000000,-99.000000,-99.000000,-99.000000,-99.000000,-99.000000,1013.250000,0.000000,25.500000,992,1500,1500,1500,992,1500,1500,1500
0.968700,6871393.000000,0.000000,-0.000000,12.210446,10.581565,11.655404,0.000000,0.000000,0.000000,0.200000,0.221804,0.175508,0.000000,0.000000,0.000000,0.000000,0.000000,500000.000000,0.000000,11.655404,-99.000000,-99.000000,-99.000000,-99.000000,-99.000000,-99.000000,1013.250000,0.000000,25.500000,992,1500,1500,1500,992,1500,1500,1500
0.978800,6871393.000000,0.000000,-0.000000,12.349929,10.685458,11.784092,0.000000,0.000000,0.000000,0.200000,0.222016,0.175239,0.000000,0.000000,0.000000,0.000000,0.000000,500000.000000,0.000000,11.784092,-99.000000,-99.000000,-99.000000,-99.000000,-99.000000,-99.000000,1013.250000,0.000000,25.500000,992,1500,1500,1500,992,1500,1500,1500
0.988900,6871393.000000,0.000000,-0.000000,12.489675,10.789195,11.912953,0.000000,0.000000,0.000000,0.200000,0.222228,0.174971,0.000000,0.000000,0.000000,0.000000,0.000000,500000.000000,0.000000,11.912953,-99.000000,-99.000000,-99.000000,-99.000000,-99.000000,-99.000000,1013.250000,0.000000,25.500000,992,1500,1500,1500,992,1500,1500,1500
0.999000,6871393.000000,0.000000,-0.000000,12.629682,10.892777,12.041989,0.000000,0.000000,0.000000,0.200000,0.222439,0.174702,0.000000,0.000000,0.000000,0.000000,0.000000,500000.000000,0.000000,12.041989,-99.000000,-99.000000,-99.000000,-99.000000,-99.000000,-99.000000,1013.250000,0.000000,25.500000,992,1500,1500,1500,992,1500,1500,1500
1.009100,6871388.779155,7616.178441,-0.000000,12.769951,10.996202,90.146900,7615.417942,0.000000,0.000000,0.200000,0.222650,0.174433,0.000000,0.000000,0.000000,0.000000,0.063506,500000.000002,90.031753,12.171200,-99.000000,-99.000000,-99.000000,-99.000000,-99.000000,-99.000000,1013.250000,0.000000,25.500000,992,1500,1500,1500,992,1500,1500,1500
1.019200,6871388.779155,7616.178441,-0.000000,12.910483,11.099469,90.276287,7615.417942,0.000000,0.000000,0.200000,0.222861,0.174163,0.000000,0.000000,0.000000,0.000000,0.063506,500000.000002,90.031753,12.300586,-99.000000,-99.000000,-99.000000,-99.000000,-99.000000,-99.000000,1013.250000,0.000000,25.500000,992,1500,1500,1500,992,1500,1500,1500
1.029300,6871388.779155,7616.178441,-0.000000,13.051277,11.202578,90.405850,7615.417942,0.000000,0.000000,0.200000,0.223072,0.173894,0.000000,0.000000,0.000000,0.000000,0.063506,500000.000002,90.031753,12.430150,-99.000000,-99.000000,-99.000000,-99.000000,-99.000000,-99.000000,1013.250000,0.000000,25.500000,992,1500,1500,1500,992,1500,1500,1500
1.039400,6871388.779155,7616.178441,-0.000000,13.192335,11.305528,90.535591,7615.417942,0.000000,0.000000,0.200000,0.223282,0.173624,0.000000,0.000000,0.000000,0.000000,0.063506,500000.000002,90.031753,12.559891,-99.000000,-99.000000,-99.000000,-99.000000,-99.000000,-99.000000,1013.250000,0.000000,25.500000,992,1500,1500,1500,992,1500,1500,1500
1.049500,6871388.779155,7616.178441,-0.000000,13.333656,11.408318,90.665510,7615.417942,0.000000,0.000000,0.200000,0.223492,0.173353,0.000000,0.000000,0.000000,0.000000,0.063506,500000.000002,90.031753,12.689810,-99.000000,-99.000000,-99.000000,-99.000000,-99.000000,-99.000000,1013.250000,0.000000,25.500000,992,1500,1500,1500,992,1500,1500,1500
1.059600,6871388.779155,7616.178441,-0.000000,13.475241,11.510948,90.795609,7615.417942,0.000000,0.000000,0.200000,0.223701,0.173083,0.000000,0.000000,0.000000,0.000000,0.063506,500000.000002,90.031753,12.819908,-99.000000,-99.000000,-99.000000,-99.000000,-99.000000,-99.000000,1013.250000,0.000000,25.500000,992,1500,1500,1500,992,1500,1500,1500
1.069700,6871388.779155,7616.178441,-0.000000,13.617090,11.613417,90.925887,7615.417942,0.000000,0.000000,0.200000,0.223911,0.172812,0.000000,0.000000,0.000000,0.000000,0.063506,500000.000002,90.031753,12.950186,-99.000000,-99.000000,-99.000000,-99.000000,-99.000000,-99.000000,1013.250000,0.000000,25.500000,992,1500,1500,1500,992,1500,1500,1500
1.079800,6871388.779155,7616.178441,-0.000000,13.759204,11.715724,91.056345,7615.417942,0.000000,0.000000,0.200000,0.224119,0.172541,0.000000,0.000000,0.000000,0.000000,0.063506,500000.000002,90.031753,13.080645,-99.000000,-99.000000,-99.000000,-99.000000,-99.000000,-99.000000,1013.250000,0.000000,25.500000,992,1500,1500,1500,992,1500,1500,1500
1.089900,6871388.779155,7616.178441,-0.000000,13.901583,11.817867,91.186984,7615.417942,0.000000,0.000000,0.200000,0.224328,0.172270,0.000000,0.000000,0.000000,0.000000,0.063506,500000.000002,90.031753,13.211284,-99.000000,-99.000000,-99.000000,-99.000000,-99.000000,-99.000000,1013.250000,0.000000,25.500000,992,1500,1500,1500,992,1500,1500,1500
1.100000,6871388.779155,7616.178441,-0.000000,14.044227,11.919848,91.317806,7615.417942,0.000000,0.000000,0.200000,0.224536,0.171999,0.000000,0.000000,0.000000,0.000000,0.063506,500000.000002,90.031753,13.342106,-99.000000,-99.000000,-99.000000,-99.000000,-99.000000,-99.000000,1013.250000,0.000000,25.500000,992,1500,1500,1500,992,1500,1500,1500
1.110100,6871388.779155,7616.178441,-0.000000,14.187136,12.021664,91.448810,7615.417942,0.000000,0.000000,0.200000,0.224744,0.171727,0.000000,0.000000,0.000000,0.000000,0.063506,500000.000002,90.031753,13.473110,-99.000000,-99.000000,-99.000000,-99.000000,-99.000000,-99.000000,1013.250000,0.000000,25.500000,992,1500,1500,1500,992,1500,1500,1500
1.120200,6871388.779155,7616.178441,-0.000000,14.330312,12.123315,91.579998,7615.417942,0.000000,0.000000,0.200000,0.224952,0.171455,0.000000,0.000000,0.000000,0.000000,0.063506,500000.000002,90.031753,13.604298,-99.000000,-99.000000,-99.000000,-99.000000,-99.000000,-99.000000,1013.250000,0.000000,25.500000,992,1500,1500,1500,992,1500,1500,1500
1.130300,6871388.779155,7616.178441,-0.000000,14.473753,12.224801,91.711370,7615.417942,0.000000,0.000000,0.200000,0.225159,0.171183,0.000000,0.000000,0.000000,0.000000,0.063506,500000.000002,90.031753,13.735669,-99.000000,-99.000000,-99.000000,-99.000000,-99.000000,-99.000000,1013.250000,0.000000,25.500000,992,1500,1500,1500,992,1500,1500,1500
1.140400,6871388.779155,7616.178441,-0.000000,14.617461,12.326119,91.842927,7615.417942,0.000000,0.000000,0.200000,0.225366,0.170910,0.000000,0.000000,0.000000,0.000000,0.063506,500000.000002,90.031753,13.867226,-99.000000,-99.000000,-99.000000,-99.000000,-99.000000,-99.000000,1013.250000,0.000000,25.500000,992,1500,1500,1500,992,1500,1500,1500
1.150500,6871388.779155,7616.178441,-0.000000,14.761436,12.427271,91.974669,7615.417942,0.000000,0.000000,0.200000,0.225572,0.170637,0.000000,0.000000,0.000000,0.000000,0.063506,500000.000002,90.031753,13.998969,-99.000000,-99.000000,-99.000000,-99.000000,-99.000000,-99.000000,1013.250000,0.000000,25.500000,992,1500,1500,1500,992,1500,1500,1500
1.160600,6871388.779155,7616.178441,-0.000000,14.905678,12.528254,92.106598,7615.417942,0.000000,0.000000,0.200000,0.225779,0.170364,0.000000,0.000000,0.000000,0.000000,0.063506,500000.000002,90.031753,14.130897,-99.000000,-99.000000,-99.000000,-99.000000,-99.000000,-99.000000,1013.250000,0.000000,25.500000,992,1500,1500,1500,992,1500,1500,1500
1.170700,6871388.779155,7616.178441,-0.000000,15.050188,12.629069,92.238713,7615.417942,0.000000,0.000000,0.200000,0.225984,0.170091,0.000000,0.000000,0.000000,0.000000,0.063506,500000.000002,90.031753,14.263013,-99.000000,-99.000000,-99.000000,-99.000000,-99.000000,-99.000000,1013.250000,0.000000,25.500000,992,1500,1500,1500,992,1500,1500,1500
1.180800,6871388.779155,7616.178441,-0.000000,15.194966,12.729714,92.371017,7615.417942,0.000000,0.000000,0.200000,0.226190,0.169818,0.000000,0.000000,0.000000,0.000000,0.063506,500000.000002,90.031753,14.395317,-99.000000,-99.000000,-99.000000,-99.000000,-99.000000,-99.000000,1013.250000,0.000000,25.500000,992,1500,1500,1500,992,1500,1500,1500
1.190900,6871388.779155,7616.178441,-0.000000,15.340011,12.830188,92.503509,7615.417942,0.000000,0.000000,0.200000,0.226395,0.169544,0.000000,0.000000,0.000000,0.000000,0.063506,500000.000002,90.031753,14.527809,-99.000000,-99.000000,-99.000000,-99.000000,-99.000000,-99.000000,1013.250000,0.000000,25.500000,992,1500,1500,1500,992,1500,1500,1500
1.201000,6871388.779155,7616.178441,-0.000000,15.485326,12.930492,92.636191,7615.417942,0.000000,0.000000,0.200000,0.226600,0.169270,0.000000,0.000000,0.000000,0.000000,0.063506,500000.000002,90.031753,14.660490,-99.000000,-99.000000,-99.000000,-99.000000,-99.000000,-99.000000,1013.250000,0.000000,25.500000,992,1500,1500,1500,992,1500,1500,1500
1.211100,6871388.779155,7616.178441,-0.000000,15.630909,13.030623,92.769062,7615.417942,0.000000,0.000000,0.200000,0.226805,0.168996,0.000000,0.000000,0.000000,0.000000,0.063506,500000.000002,90.031753,14.793362,-99.000000,-99.000000,-99.000000,-99.000000,-99.000000,-99.000000,1013.250000,0.000000,25.500000,992,1500,1500,1500,992,1500,1500,1500
1.221200,6871388.779155,7616.178441,-0.000000,15.776761,13.130581,92.902124,7615.417942,0.000000,0.000000,0.200000,0.227009,0.168721,0.000000,0.000000,0.000000,0.000000,0.063506,500000.000002,90.031753,14.926424,-99.000000,-99.000000,-99.000000,-99.000000,-99.000000,-99.000000,1013.250000,0.000000,25.500000,992,1500,1500,1500,992,1500,1500,1500
1.231300,6871388.779155,7616.178441,-0.000000,15.922883,13.230366,93.035378,7615.417942,0.000000,0.000000,0.200000,0.227213,0.168447,0.000000,0.000000,0.000000,0.000000,0.063506,500000.000002,90.031753,15.059677,-99.000000,-99.000000,-99.000000,-99.000000,-99.000000,-99.000000,1013.250000,0.000000,25.500000,992,1500,1500,1500,992,1500,1500,1500
1.241400,6871388.779155,7616.178441,-0.000000,16.069275,13.329977,93.168823,7615.417942,0.000000,0.000000,0.200000,0.227416,0.168172,0.000000,0.000000,0.000000,0.000000,0.063506,500000.000002,90.031753,15.193123,-99.000000,-99.000000,-99.000000,-99.000000,-99.000000,-99.000000,1013.250000,0.000000,25.500000,992,1500,1500,1500,992,1500,1500,1500
1.251500,6871388.779155,7616.178441,-0.000000,16.215937,13.429413,93.302462,7615.417942,0.000000,0.000000,0.200000,0.227620,0.167897,0.000000,0.000000,0.000000,0.000000,0.063506,500000.000002,90.031753,15.326761,-99.000000,-99.000000,-99.000000,-99.000000,-99.000000,-99.000000,1013.250000,0.000000,25.500000,992,1500,1500,1500,992,1500,1500,1500
1.261600,6871388.779155,7616.178441,-0.000000,16.362869,13.528672,93.436294,7615.417942,0.000000,0.000000,0.200000,0.227823,0.167621,0.000000,0.000000,0.000000,0.000000,0.063506,500000.000002,90.031753,15.460593,-99.000000,-99.000000,-99.000000,-99.000000,-99.000000,-99.000000,1013.250000,0.000000,25.500000,992,1500,1500,1500,992,1500,1500,1500
1.271700,6871388.779155,7616.178441,-0.000000,16.510072,13.627755,93.570320,7615.417942,0.000000,0.000000,0.200000,0.228025,0.167345,0.000000,0.000000,0.000000,0.000000,0.063506,500000.000002,90.031753,15.594619,-99.000000,-99.000000,-99.000000,-99.000000,-99.000000,-99.000000,1013.250000,0.000000,25.500000,992,1500,1500,1500,992,1500,1500,1500
1.281800,6871388.779155,7616.178441,-0.000000,16.657546,13.726660,93.704541,7615.417942,0.000000,0.000000,0.200000,0.228227,0.167069,0.000000,0.000000,0.000000,0.000000,0.063506,500000.000002,90.031753,15.728841,-99.000000,-99.000000,-99.000000,-99.000000,-99.000000,-99.000000,1013.250000,0.000000,25.500000,992,1500,1500,1500,992,1500,1500,1500
1.291900,6871388.779155,7616.178441,-0.000000,16.805292,13.825387,93.838958,7615.417942,0.000000,0.000000,0.200000,0.228429,0.166793,0.000000,0.000000,0.000000,0.000000,0.063506,500000.000002,90.031753,15.863257,-99.000000,-99.000000,-99.000000,-99.000000,-99.000000,-99.000000,1013.250000,0.000000,25.500000,992,1500,1500,1500,992,1500,1500,1500
1.302000,6871388.779155,7616.178441,-0.000000,16.953310,13.923935,93.973571,7615.417942,0.000000,0.000000,0.200000,0.228631,0.166517,0.000000,0.000000,0.000000,0.000000,0.063506,500000.000002,90.031753,15.997870,-99.000000,-99.000000,-99.000000,-99.000000,-99.000000,-99.000000,1013.250000,0.000000,25.500000,992,1500,1500,1500,992,1500,1500,1500
1.312100,6871388.779155,7616.178441,-0.000000,17.101599,14.022303,94.108380,7615.417942,0.000000,0.000000,0.200000,0.228832,0.166240,0.000000,0.000000,0.000000,0.000000,0.063506,500000.000002,90.031753,16.132680,-99.000000,-99.000000,-99.000000,-99.000000,-99.000000,-99.000000,1013.250000,0.000000,25.500000,992,1500,1500,1500,992,1500,1500,1500
1.322200,6871388.779155,7616.178441,-0.000000,17.250161,14.120490,94.243388,7615.417942,0.000000,0.000000,0.200000,0.229033,0.165963,0.000000,0.000000,0.000000,0.000000,0.063506,500000.000002,90.031753,16.267688,-99.000000,-99.000000,-99.000000,-99.000000,-99.000000,-99.000000,1013.250000,0.000000,25.500000,992,1500,1500,1500,992,1500,1500,1500
1.332300,6871388.779155,7616.178441,0.000000,17.398996,14.218496,94.378594,7615.417942,0.000000,0.000000,0.200000,0.229234,0.165686,0.000000,0.000000,0.000000,0.000000,0.063506,500000.000002,90.031753,16.402894,-99.000000,-99.000000,-99.000000,-99.000000,-99.000000,-99.000000,1013.250000,-0.000000,25.500000,992,1500,1500,1500,992,1500,1500,1500
1.342400,6871388.779155,7616.178441,0.000000,17.548104,14.316319,94.513999,7615.417942,0.000000,0.000000,0.200000,0.229434,0.165409,0.000000,0.000000,0.000000,0.000000,0.063506,500000.000002,90.031753,16.538299,-99.000000,-99.000000,-99.000000,-99.000000,-99.000000,-99.000000,1013.250000,-0.000000,25.500000,992,1500,1500,1500,992,1500,1500,1500
1.352500,6871388.779155,7616.178441,0.000000,17.697485,14.413959,94.649604,7615.417942,0.000000,0.000000,0.200000,0.229634,0.165131,0.000000,0.000000,0.000000,0.000000,0.063506,500000.000002,90.031753,16.673904,-99.000000,-99.000000,-99.000000,-99.000000,-99.000000,-99.000000,1013.250000,-0.000000,25.500000,992,1500,1500,1500,992,1500,1500,1500
1.362600,6871388.779155,7616.178441,0.000000,17.847140,14.511415,94.785409,7615.417942,0.000000,0.000000,0.200000,0.229833,0.164853,0.000000,0.000000,0.000000,0.000000,0.063506,500000.000002,90.031753,16.809709,-99.000000,-99.000000,-99.000000,-99.000000,-99.000000,-99.000000,1013.250000,-0.000000,25.500000,992,1500,1500,1500,992,1500,1500,1500
1.372700,6871388.779155,7616.178441,0.000000,17.997069,14.608686,94.921415,7615.417942,0.000000,0.000000,0.200000,0.230033,0.164575,0.000000,0.000000,0.000000,0.000000,0.063506,500000.000002,90.031753,16.945715,-99.000000,-99.000000,-99.000000,-99.000000,-99.000000,-99.000000,1013.250000,-0.000000,25.500000,992,1500,1500,1500,992,1500,1500,1500
1.382800,6871388.779155,7616.178441,0.000000,18.147272,14.705772,95.057623,7615.417942,0.000000,0.000000,0.200000,0.230232,0.164297,0.000000,0.000000,0.000000,0.000000,0.063506,500000.000002,90.031753,17.081923,-99.000000,-99.000000,-99.000000,-99.000000,-99.000000,-99.000000,1013.250000,-0.000000,25.500000,992,1500,1500,1500,992,1500,1500,1500
1.392900,6871388.779155,7616.178441,0.000000,18.297749,14.802671,95.194033,7615.417942,0.000000,0.000000,0.200000,0.230430,0.164018,0.000000,0.000000,0.000000,0.000000,0.063506,500000.000002,90.031753,17.218333,-99.000000,-99.000000,-99.000000,-99.000000,-99.000000,-99.000000,1013.250000,-0.000000,25.500000,992,1500,1500,1500,992,1500,1500,1500
1.403000,6871388.779155,7616.178441,0.000000,18.448502,14.899383,95.330647,7615.417942,0.000000,0.000000,0.200000,0.230628,0.163739,0.000000,0.000000,0.000000,0.000000,0.063506,500000.000002,90.031753,17.354946,-99.000000,-99.000000,-99.000000,-99.000000,-99.000000,-99.000000,1013.250000,-0.000000,25.500000,992,1500,1500,1500,992,1500,1500,1500
1.413100,6871388.779155,7616.178441,0.000000,18.599529,14.995906,95.467464,7615.417942,0.000000,0.000000,0.200000,0.230826,0.163460,0.000000,0.000000,0.000000,0.000000,0.063506,500000.000002,90.031753,17.491763,-99.000000,-99.000000,-99.000000,-99.000000,-99.000000,-99.000000,1013.250000,-0.000000,25.500000,992,1500,1500,1500,992,1500,1500,1500
1.423200,6871388.779155,7616.178441,0.000000,18.750832,15.092241,95.604485,7615.417942,0.000000,0.000000,0.200000,0.231024,0.163181,0.000000,0.000000,0.000000,0.000000,0.063506,500000.000002,90.031753,17.628785,-99.000000,-99.000000,-99.000000,-99.000000,-99.000000,-99.000000,1013.250000,-0.000000,25.500000,992,1500,1500,1500,992,1500,1500,1500
1.433300,6871388.779155,7616.178441,0.000000,18.902411,15.188386,95.741712,7615.417942,0.000000,0.000000,0.200000,0.231221,0.162901,0.000000,0.000000,0.000000,0.000000,0.063506,500000.000002,90.031753,17.766011,-99.000000,-99.000000,-99.000000,-99.000000,-99.000000,-99.000000,1013.250000,-0.000000,25.500000,992,1500,1500,1500,992,1500,1500,1500
1.443400,6871388.779155,7616.178441,0.000000,19.054266,15.284340,95.879144,7615.417942,0.000000,0.000000,0.200000,0.231418,0.162622,0.000000,0.000000,0.000000,0.000000,0.063506,500000.000002,90.031753,17.903443,-99.000000,-99.000000,-99.000000,-99.000000,-99.000000,-99.000000,1013.250000,-0.000000,25.500000,992,1500,1500,1500,992,1500,1500,1500
1.453500,6871388.779155,7616.178441,0.000000,19.206397,15.380103,96.016782,7615.417942,0.000000,0.000000,0.200000,0.231614,0.162341,0.000000,0.000000,0.000000,0.000000,0.063506,500000.000002,90.031753,18.041082,-99.000000,-99.000000,-99.000000,-99.000000,-99.000000,-99.000000,1013.250000,-0.000000,25.500000,992,1500,1500,1500,992,1500,1500,1500
1.463600,6871388.779155,7616.178441,0.000000,19.358805,15.475673,96.154627,7615.417942,0.000000,0.000000,0.200000,0.231811,0.162061,0.000000,0.000000,0.000000,0.000000,0.063506,500000.000002,90.031753,18.178927,-99.000000,-99.000000,-99.000000,-99.000000,-99.000000,-99.000000,1013.250000,-0.000000,25.500000,992,1500,1500,1500,992,1500,1500,1500
1.473700,6871388.779155,7616.178441,0.000000,19.511490,15.571051,96.292680,7615.417942,0.000000,0.000000,0.200000,0.232006,0.161781,0.000000,0.000000,0.000000,0.000000,0.063506,500000.000002,90.031753,18.316980,-99.000000,-99.000000,-99.000000,-99.000000,-99.000000,-99.000000,1013.250000,-0.000000,25.500000,992,1500,1500,1500,992,1500,1500,1500
1.483800,6871388.779155,7616.178441,0.000000,19.664452,15.666234,96.430941,7615.417942,0.000000,0.000000,0.200000,0.232202,0.161500,0.000000,0.000000,0.000000,0.000000,0.063506,500000.000002,90.031753,18.455241,-99.000000,-99.000000,-99.000000,-99.000000,-99.000000,-99.000000,1013.250000,-0.000000,25.500000,992,1500,1500,1500,992,1500,1500,1500
1.493900,6871388.779155,7616.178441,0.000000,19.817692,15.761223,96.569411,7615.417942,0.000000,0.000000,0.200000,0.232397,0.161219,0.000000,0.000000,0.000000,0.000000,0.063506,500000.000002,90.031753,18.593711,-99.000000,-99.000000,-99.000000,-99.000000,-99.000000,-99.000000,1013.250000,-0.000000,25.500000,992,1500,1500,1500,992,1500,1500,1500
1.504000,6871388.779155,7616.178441,0.000000,19.971209,15.856015,96.708091,7615.417942,0.000000,0.000000,0.200000,0.232592,0.160938,0.000000,0.000000,0.000000,0.000000,0.063506,500000.000002,90.031753,18.732390,-99.000000,-99.000000,-99.000000,-99.000000,-99.000000,-99.000000,1013.250000,-0.000000,25.500000,992,1500,1500,1500,992,1500,1500,1500
1.514100,6871388.779155,7616.178441,0.000000,20.125004,15.950612,96.846980,7615.417942,0.000000,0.000000,0.200000,0.232786,0.160656,0.000000,0.000000,0.000000,0.000000,0.063506,500000.000002,90.031753,18.871280,-99.000000,-99.000000,-99.000000,-99.000000,-99.000000,-99.000000,1013.250000,-0.000000,25.500000,992,1500,1500,1500,992,1500,1500,1500
1.524200,6871388.779155,7616.178441,0.000000,20.279078,16.045010,96.986080,7615.417942,0.000000,0.000000,0.200000,0.232981,0.160375,0.000000,0.000000,0.000000,0.000000,0.063506,500000.000002,90.031753,19.010380,-99.000000,-99.000000,-99.000000,-99.000000,-99.000000,-99.000000,1013.250000,-0.000000,25.500000,992,1500,1500,1500,992,1500,1500,1500
1.534300,6871388.779155,7616.178441,0.000000,20.433430,16.139211,97.125392,7615.417942,0.000000,0.000000,0.200000,0.233174,0.160093,0.000000,0.000000,0.000000,0.000000,0.063506,500000.000002,90.031753,19.149691,-99.000000,-99.000000,-99.000000,-99.000000,-99.000000,-99.000000,1013.250000,-0.000000,25.500000,992,1500,1500,1500,992,1500,1500,1500
1.544400,6871388.779155,7616.178441,0.000000,20.588061,16.233212,97.264915,7615.417942,0.000000,0.000000,0.200000,0.233368,0.159811,0.000000,0.000000,0.000000,0.000000,0.063506,500000.000002,90.031753,19.289215,-99.000000,-99.000000,-99.000000,-99.000000,-99.000000,-99.000000,1013.250000,-0.000000,25.500000,992,1500,1500,1500,992,1500,1500,1500
1.554500,6871388.779155,7616.178441,0.000000,20.742971,16.327014,97.404651,7615.417942,0.000000,0.000000,0.200000,0.233561,0.159528,0.000000,0.000000,0.000000,0.000000,0.063506,500000.000002,90.031753,19.428950,-99.000000,-99.000000,-99.000000,-99.000000,-99.000000,-99.000000,1013.250000,-0.000000,25.500000,992,1500,1500,1500,992,1500,1500,1500
1.564600,6871388.779155,7616.178441,0.000000,20.898161,16.420615,97.544600,7615.417942,0.000000,0.000000,0.200000,0.233754,0.159246,0.000000,0.000000,0.000000,0.000000,0.063506,500000.000002,90.031753,19.568899,-99.000000,-99.000000,-99.000000,-99.000000,-99.000000,-99.000000,1013.250000,-0.000000,25.500000,992,1500,1500,1500,992,1500,1500,1500
1.574700,6871388.779155,7616.178441,0.000000,21.053630,16.514014,97.684762,7615.417942,0.000000,0.000000,0.200000,0.233946,0.158963,0.000000,0.000000,0.000000,0.000000,0.063506,500000.000002,90.031753,19.709062,-99.000000,-99.000000,-99.000000,-99.000000,-99.000000,-99.000000,1013.250000,-0.000000,25.500000,992,1500,1500,1500,992,1500,1500,1500
1.584800,6871388.779155,7616.178441,0.000000,21.209379,16.607210,97.825139,7615.417942,0.000000,0.000000,0.200000,0.234138,0.158680,0.000000,0.000000,0.000000,0.000000,0.063506,500000.000002,90.031753,19.849439,-99.000000,-99.000000,-99.000000,-99.000000,-99.000000,-99.000000,1013.250000,-0.000000,25.500000,992,1500,1500,1500,992,1500,1500,1500
1.594900,6871388.779155,7616.178441,0.000000,21.365408,16.700203,97.965731,7615.417942,0.000000,0.000000,0.200000,0.234330,0.158396,0.000000,0.000000,0.000000,0.000000,0.063506,500000.000002,90.031753,19.990031,-99.000000,-99.000000,-99.000000,-99.000000,-99.000000,-99.000000,1013.250000,-0.000000,25.500000,992,1500,1500,1500,992,1500,1500,1500
1.605000,6871388.779155,7616.178441,0.000000,21.521718,16.792991,98.106539,7615.417942,0.000000,0.000000,0.200000,0.234522,0.158113,0.000000,0.000000,0.000000,0.000000,0.063506,500000.000002,90.031753,20.130838,-99.000000,-99.000000,-99.000000,-99.000000,-99.000000,-99.000000,1013.250000,-0.000000,25.500000,992,1500,1500,1500,992,1500,1500,1500
1.615100,6871388.779155,7616.178441,0.000000,21.678308,16.885575,98.247562,7615.417942,0.000000,0.000000,0.200000,0.234713,0.157829,0.000000,0.000000,0.000000,0.000000,0.063506,500000.000002,90.031753,20.271862,-99.000000,-99.000000,-99.000000,-99.000000,-99.000000,-99.000000,1013.250000,-0.000000,25.500000,992,1500,1500,1500,992,1500,1500,1500
1.625200,6871388.779155,7616.178441,0.000000,21.835180,16.977952,98.388802,7615.417942,0.000000,0.000000,0.200000,0.234903,0.157545,0.000000,0.000000,0.000000,0.000000,0.063506,500000.000002,90.031753,20.413102,-99.000000,-99.000000,-99.000000,-99.000000,-99.000000,-99.000000,1013.250000,-0.000000,25.500000,992,1500,1500,1500,992,1500,1500,1500
1.635300,6871388.779155,7616.178441,0.000000,21.992332,17.070123,98.530259,7615.417942,0.000000,0.000000,0.200000,0.235094,0.157261,0.000000,0.000000,0.000000,0.000000,0.063506,500000.000002,90.031753,20.554559,-99.000000,-99.000000,-99.000000,-99.000000,-99.000000,-99.000000,1013.250000,-0.000000,25.500000,992,1500,1500,1500,992,1500,1500,1500
1.645400,6871388.779155,7616.178441,0.000000,22.149766,17.162085,98.671934,7615.417942,0.000000,0.000000,0.200000,0.235284,0.156976,0.000000,0.000000,0.000000,0.000000,0.063506,500000.000002,90.031753,20.696234,-99.000000,-99.000000,-99.000000,-99.000000,-99.000000,-99.000000,1013.250000,-0.000000,25.500000,992,1500,1500,1500,992,1500,1500,1500
1.655500,6871388.779155,7616.178441,0.000000,22.307481,17.253839,98.813827,7615.417942,0.000000,0.000000,0.200000,0.235474,0.156691,0.000000,0.000000,0.000000,0.000000,0.063506,500000.000002,90.031753,20.838127,-99.000000,-99.000000,-99.000000,-99.000000,-99.000000,-99.000000,1013.250000,-0.000000,25.500000,992,1500,1500,1500,992,1500,1500,1500
1.665600,6871388.779155,7616.178441,0.000000,22.465478,17.345383,98.955939,7615.417942,0.000000,0.000000,0.200000,0.235663,0.156406,0.000000,0.000000,0.000000,0.000000,0.063506,500000.000002,90.031753,20.980239,-99.000000,-99.000000,-99.000000,-99.000000,-99.000000,-99.000000,1013.250000,-0.000000,25.500000,992,1500,1500,1500,992,1500,1500,1500
1.675700,6871388.779155,7616.178441,0.000000,22.623758,17.436717,99.098271,7615.417942,0.000000,0.000000,0.200000,0.235852,0.156121,0.000000,0.000000,0.000000,0.000000,0.063506,500000.000002,90.031753,21.122571,-99.000000,-99.000000,-99.000000,-99.000000,-99.000000,-99.000000,1013.250000,-0.000000,25.500000,992,1500,1500,1500,992,1500,1500,1500
1.685800,6871388.779155,7616.178441,0.000000,22.782319,17.527839,99.240823,7615.417942,0.000000,0.000000,0.200000,0.236041,0.155836,0.000000,0.000000,0.000000,0.000000,0.063506,500000.000002,90.031753,21.265122,-99.000000,-99.000000,-99.000000,-99.000000,-99.000000,-99.000000,1013.250000,-0.000000,25.500000,992,1500,1500,1500,992,1500,1500,1500
1.695900,6871388.779155,7616.178441,0.000000,22.941163,17.618750,99.383595,7615.417942,0.000000,0.000000,0.200000,0.236229,0.155550,0.000000,0.000000,0.000000,0.000000,0.063506,500000.000002,90.031753,21.407894,-99.000000,-99.000000,-99.000000,-99.000000,-99.000000,-99.000000,1013.250000,-0.000000,25.500000,992,1500,1500,1500,992,1500,1500,1500
1.706000,6871388.779155,7616.178441,0.000000,23.100290,17.709447,99.526588,7615.417942,0.000000,0.000000,0.200000,0.236417,0.155264,0.000000,0.000000,0.000000,0.000000,0.063506,500000.000002,90.031753,21.550887,-99.000000,-99.000000,-99.000000,-99.000000,-99.000000,-99.000000,1013.250000,-0.000000,25.500000,992,1500,1500,1500,992,1500,1500,1500
1.716100,6871388.779155,7616.178441,0.000000,23.259700,17.799930,99.669802,7615.417942,0.000000,0.000000,0.200000,0.236605,0.154978,0.000000,0.000000,0.000000,0.000000,0.063506,500000.000002,90.031753,21.694102,-99.000000,-99.000000,-99.000000,-99.000000,-99.000000,-99.000000,1013.250000,-0.000000,25.500000,992,1500,1500,1500,992,1500,1500,1500
1.726200,6871388.779155,7616.178441,0.000000,23.419393,17.890198,99.813239,7615.417942,0.000000,0.000000,0.200000,0.236792,0.154692,0.000000,0.000000,0.000000,0.000000,0.063506,500000.000002,90.031753,21.837539,-99.000000,-99.000000,-99.000000,-99.000000,-99.000000,-99.000000,1013.250000,-0.000000,25.500000,992,1500,1500,1500,992,1500,1500,1500
1.736300,6871388.779155,7616.178441,0.000000,23.579369,17.980250,99.956898,7615.417942,0.000000,0.000000,0.200000,0.236979,0.154406,0.000000,0.000000,0.000000,0.000000,0.063506,500000.000002,90.031753,21.981198,-99.000000,-99.000000,-99.000000,-99.000000,-99.000000,-99.000000,1013.250000,-0.000000,25.500000,992,1500,1500,1500,992,1500,1500,1500
