Time (sec) ,Sense X(m) ,Sense Y(m) ,Sense Z(m) ,Sense Roll (deg) ,Sense Pitch (deg) ,Sense Compass (deg) ,Sense U(m/s) ,Sense V(m/s) ,Sense W(m/s) ,Sense P(rad/s) ,Sense Q(rad/s) ,Sense R(rad/s) ,Sense Mx(Gauss) ,Sense My(Gauss) ,Sense Mz(Gauss) ,Sense GPS Latitude (deg) ,Sense GPS Longitude (deg) ,Sense GPS Altitude (m) ,Sense GPS Heading (deg) ,Sense IMU Heading (deg) ,Sense Analog 1 (V) ,Sense Analog 2 (V) ,Sense Analog 3 (V) ,Sense Analog 4 (V) ,Sense Analog 5 (V) ,Sense Analog 6 (V) ,Sense Pressure (Pa) ,Sense Pressure Altitude (m) ,Sense Temperature (C) ,RC Channel #1 ,RC Channel #2 ,RC Channel #3 ,RC Channel #4 ,RC Channel #5 ,PWM Hardware Out 1 ,PWM Hardware Out 2 
 0.000000,6871393.000000,0.000000,-0.000000,0.000000,0.000000,0.000000,0.000000,0.000000,0.000000,0.200000,0.200000,0.200000,0.000000,0.000000,0.000000,0.000000,0.000000,500000.000000,0.000000,0.000000,-99.000000,-99.000000,-99.000000,-99.000000,-99.000000,-99.000000,1013.250000,0.000000,25.500000,992,1500,1500,1500,992,1500,1500
0.010100,6871393.000000,0.000000,-0.000000,0.111884,0.110830,0.114634,0.000000,0.000000,0.000000,0.190239,0.187402,0.199774,0.000000,0.000000,0.000000,0.000000,0.000000,500000.000000,0.000000,0.114634,-99.000000,-99.000000,-99.000000,-99.000000,-99.000000,-99.000000,1013.250000,0.000000,25.500000,992,1500,1500,1500,992,1499,1498
0.020200,6871393.000000,0.000000,-0.000000,0.219568,0.215455,0.230483,0.000000,0.000000,0.000000,0.180863,0.175482,0.199570,0.000000,0.000000,0.000000,0.000000,0.000000,500000.000000,0.000000,0.230483,-99.000000,-99.000000,-99.000000,-99.000000,-99.000000,-99.000000,1013.250000,0.000000,25.500000,992,1500,1500,1500,992,1499,1498
0.030300,6871393.000000,0.000000,-0.000000,0.322167,0.313192,0.346383,0.000000,0.000000,0.000000,0.171950,0.164321,0.199389,0.000000,0.000000,0.000000,0.000000,0.000000,500000.000000,0.000000,0.346383,-99.000000,-99.000000,-99.000000,-99.000000,-99.000000,-99.000000,1013.250000,0.000000,25.500000,992,1500,1500,1500,992,1499,1498
0.040300,6871393.000000,0.000000,-0.000000,0.418982,0.403603,0.461167,0.000000,0.000000,0.000000,0.163558,0.153970,0.199229,0.000000,0.000000,0.000000,0.000000,0.000000,500000.000000,0.000000,0.461167,-99.000000,-99.000000,-99.000000,-99.000000,-99.000000,-99.000000,1013.250000,0.000000,25.500000,992,1500,1500,1500,992,1499,1498
0.050300,6871393.000000,0.000000,-0.000000,0.511282,0.488083,0.575968,0.000000,0.000000,0.000000,0.155575,0.144271,0.199087,0.000000,0.000000,0.000000,0.000000,0.000000,500000.000000,0.000000,0.575968,-99.000000,-99.000000,-99.000000,-99.000000,-99.000000,-99.000000,1013.250000,0.000000,25.500000,992,1500,1500,1500,992,1499,1498
0.060300,6871393.000000,0.000000,-0.000000,0.599284,0.567002,0.690774,0.000000,0.000000,0.000000,0.147982,0.135183,0.198960,0.000000,0.000000,0.000000,0.000000,0.000000,500000.000000,0.000000,0.690774,-99.000000,-99.000000,-99.000000,-99.000000,-99.000000,-99.000000,1013.250000,0.000000,25.500000,992,1500,1500,1500,992,1499,1498
0.070300,6871393.000000,0.000000,-0.000000,0.683196,0.640710,0.805575,0.000000,0.000000,0.000000,0.140760,0.126667,0.198847,0.000000,0.000000,0.000000,0.000000,0.000000,500000.000000,0.000000,0.805575,-99.000000,-99.000000,-99.000000,-99.000000,-99.000000,-99.000000,1013.250000,0.000000,25.500000,992,1500,1500,1500,992,1500,1499
0.080300,6871393.000000,0.000000,-0.000000,0.763214,0.709531,0.920362,0.000000,0.000000,0.000000,0.133890,0.118688,0.198746,0.000000,0.000000,0.000000,0.000000,0.000000,500000.000000,0.000000,0.920362,-99.000000,-99.000000,-99.000000,-99.000000,-99.000000,-99.000000,1013.250000,0.000000,25.500000,992,1500,1500,1500,992,1500,1499
0.090300,6871393.000000,0.000000,-0.000000,0.839526,0.773770,1.035128,0.000000,0.000000,0.000000,0.127355,0.111212,0.198656,0.000000,0.000000,0.000000,0.000000,0.000000,500000.000000,0.000000,1.035128,-99.000000,-99.000000,-99.000000,-99.000000,-99.000000,-99.000000,1013.250000,0.000000,25.500000,992,1500,1500,1500,992,1500,1499
0.100300,6871393.000000,0.000000,-0.000000,0.912310,0.833713,1.149867,0.000000,0.000000,0.000000,0.121139,0.104206,0.198576,0.000000,0.000000,0.000000,0.000000,0.000000,500000.000000,0.000000,1.149867,-99.000000,-99.000000,-99.000000,-99.000000,-99.000000,-99.000000,1013.250000,0.000000,25.500000,992,1500,1500,1500,992,1500,1499
0.110300,6871393.000000,0.000000,-0.000000,0.981735,0.889629,1.264574,0.000000,0.000000,0.000000,0.115227,0.097642,0.198504,0.000000,0.000000,0.000000,0.000000,0.000000,500000.000000,0.000000,1.264574,-99.000000,-99.000000,-99.000000,-99.000000,-99.000000,-99.000000,1013.250000,0.000000,25.500000,992,1500,1500,1500,992,1500,1499
0.120300,6871393.000000,0.000000,-0.000000,1.047964,0.941770,1.379246,0.000000,0.000000,0.000000,0.109603,0.091491,0.198441,0.000000,0.000000,0.000000,0.000000,0.000000,500000.000000,0.000000,1.379246,-99.000000,-99.000000,-99.000000,-99.000000,-99.000000,-99.000000,1013.250000,0.000000,25.500000,992,1500,1500,1500,992,1500,1499
0.130400,6871393.000000,0.000000,-0.000000,1.111767,0.990839,1.495026,0.000000,0.000000,0.000000,0.104202,0.085672,0.198383,0.000000,0.000000,0.000000,0.000000,0.000000,500000.000000,0.000000,1.495026,-99.000000,-99.000000,-99.000000,-99.000000,-99.000000,-99.000000,1013.250000,0.000000,25.500000,992,1500,1500,1500,992,1500,1499
0.140500,6871393.000000,0.000000,-0.000000,1.172617,1.036524,1.610765,0.000000,0.000000,0.000000,0.099066,0.080223,0.198333,0.000000,0.000000,0.000000,0.000000,0.000000,500000.000000,0.000000,1.610765,-99.000000,-99.000000,-99.000000,-99.000000,-99.000000,-99.000000,1013.250000,0.000000,25.500000,992,1500,1500,1500,992,1500,1499
0.150600,6871393.000000,0.000000,-0.000000,1.230658,1.079039,1.726461,0.000000,0.000000,0.000000,0.094184,0.075121,0.198287,0.000000,0.000000,0.000000,0.000000,0.000000,500000.000000,0.000000,1.726461,-99.000000,-99.000000,-99.000000,-99.000000,-99.000000,-99.000000,1013.250000,0.000000,25.500000,992,1500,1500,1500,992,1500,1499
0.160700,6871393.000000,0.000000,-0.000000,1.286025,1.118583,1.842113,0.000000,0.000000,0.000000,0.089543,0.070343,0.198247,0.000000,0.000000,0.000000,0.000000,0.000000,500000.000000,0.000000,1.842113,-99.000000,-99.000000,-99.000000,-99.000000,-99.000000,-99.000000,1013.250000,0.000000,25.500000,992,1500,1500,1500,992,1500,1499
0.170800,6871393.000000,0.000000,-0.000000,1.338849,1.155342,1.957720,0.000000,0.000000,0.000000,0.085130,0.065869,0.198211,0.000000,0.000000,0.000000,0.000000,0.000000,500000.000000,0.000000,1.957720,-99.000000,-99.000000,-99.000000,-99.000000,-99.000000,-99.000000,1013.250000,0.000000,25.500000,992,1500,1500,1500,992,1500,1499
0.180900,6871393.000000,0.000000,-0.000000,1.389253,1.189493,2.073282,0.000000,0.000000,0.000000,0.080934,0.061679,0.198179,0.000000,0.000000,0.000000,0.000000,0.000000,500000.000000,0.000000,2.073282,-99.000000,-99.000000,-99.000000,-99.000000,-99.000000,-99.000000,1013.250000,0.000000,25.500000,992,1500,1500,1500,992,1500,1499
0.191000,6871393.000000,0.000000,-0.000000,1.437355,1.221200,2.188800,0.000000,0.000000,0.000000,0.076946,0.057757,0.198150,0.000000,0.000000,0.000000,0.000000,0.000000,500000.000000,0.000000,2.188800,-99.000000,-99.000000,-99.000000,-99.000000,-99.000000,-99.000000,1013.250000,0.000000,25.500000,992,1500,1500,1500,992,1500,1499
0.201100,6871393.000000,0.000000,-0.000000,1.483268,1.250615,2.304274,0.000000,0.000000,0.000000,0.073154,0.054083,0.198125,0.000000,0.000000,0.000000,0.000000,0.000000,500000.000000,0.000000,2.304274,-99.000000,-99.000000,-99.000000,-99.000000,-99.000000,-99.000000,1013.250000,0.000000,25.500000,992,1500,1500,1500,992,1500,1499
0.211200,6871393.000000,0.000000,-0.000000,1.527096,1.277884,2.419704,0.000000,0.000000,0.000000,0.069549,0.050643,0.198102,0.000000,0.000000,0.000000,0.000000,0.000000,500000.000000,0.000000,2.419704,-99.000000,-99.000000,-99.000000,-99.000000,-99.000000,-99.000000,1013.250000,0.000000,25.500000,992,1500,1500,1500,992,1500,1499
0.221300,6871393.000000,0.000000,-0.000000,1.568942,1.303141,2.535091,0.000000,0.000000,0.000000,0.066121,0.047422,0.198082,0.000000,0.000000,0.000000,0.000000,0.000000,500000.000000,0.000000,2.535091,-99.000000,-99.000000,-99.000000,-99.000000,-99.000000,-99.000000,1013.250000,0.000000,25.500000,992,1500,1500,1500,992,1500,1499
0.231400,6871393.000000,0.000000,-0.000000,1.608901,1.326513,2.650436,0.000000,0.000000,0.000000,0.062862,0.044406,0.198064,0.000000,0.000000,0.000000,0.000000,0.000000,500000.000000,0.000000,2.650436,-99.000000,-99.000000,-99.000000,-99.000000,-99.000000,-99.000000,1013.250000,0.000000,25.500000,992,1500,1500,1500,992,1500,1499
0.241500,6871393.000000,0.000000,-0.000000,1.647066,1.348117,2.765740,0.000000,0.000000,0.000000,0.059764,0.041582,0.198048,0.000000,0.000000,0.000000,0.000000,0.000000,500000.000000,0.000000,2.765740,-99.000000,-99.000000,-99.000000,-99.000000,-99.000000,-99.000000,1013.250000,0.000000,25.500000,992,1500,1500,1500,992,1500,1500
0.251600,6871393.000000,0.000000,-0.000000,1.683524,1.368066,2.881005,0.000000,0.000000,0.000000,0.056819,0.038937,0.198034,0.000000,0.000000,0.000000,0.000000,0.000000,500000.000000,0.000000,2.881005,-99.000000,-99.000000,-99.000000,-99.000000,-99.000000,-99.000000,1013.250000,0.000000,25.500000,992,1500,1500,1500,992,1500,1500
0.261700,6871393.000000,0.000000,-0.000000,1.718357,1.386462,2.996231,0.000000,0.000000,0.000000,0.054019,0.036460,0.198022,0.000000,0.000000,0.000000,0.000000,0.000000,500000.000000,0.000000,2.996231,-99.000000,-99.000000,-99.000000,-99.000000,-99.000000,-99.000000,1013.250000,0.000000,25.500000,992,1500,1500,1500,992,1500,1500
0.271800,6871393.000000,0.000000,-0.000000,1.751645,1.403404,3.111420,0.000000,0.000000,0.000000,0.051357,0.034141,0.198010,0.000000,0.000000,0.000000,0.000000,0.000000,500000.000000,0.000000,3.111420,-99.000000,-99.000000,-99.000000,-99.000000,-99.000000,-99.000000,1013.250000,0.000000,25.500000,992,1500,1500,1500,992,1500,1500
0.281900,6871393.000000,0.000000,-0.000000,1.783462,1.418983,3.226573,0.000000,0.000000,0.000000,0.048826,0.031970,0.198000,0.000000,0.000000,0.000000,0.000000,0.000000,500000.000000,0.000000,3.226573,-99.000000,-99.000000,-99.000000,-99.000000,-99.000000,-99.000000,1013.250000,0.000000,25.500000,992,1500,1500,1500,992,1500,1500
0.292000,6871393.000000,0.000000,-0.000000,1.813880,1.433283,3.341692,0.000000,0.000000,0.000000,0.046420,0.029937,0.197991,0.000000,0.000000,0.000000,0.000000,0.000000,500000.000000,0.000000,3.341692,-99.000000,-99.000000,-99.000000,-99.000000,-99.000000,-99.000000,1013.250000,0.000000,25.500000,992,1500,1500,1500,992,1500,1500
0.302100,6871393.000000,0.000000,-0.000000,1.842967,1.446386,3.456778,0.000000,0.000000,0.000000,0.044132,0.028033,0.197983,0.000000,0.000000,0.000000,0.000000,0.000000,500000.000000,0.000000,3.456778,-99.000000,-99.000000,-99.000000,-99.000000,-99.000000,-99.000000,1013.250000,0.000000,25.500000,992,1500,1500,1500,992,1500,1500
0.312200,6871393.000000,0.000000,-0.000000,1.870788,1.458365,3.571832,0.000000,0.000000,0.000000,0.041957,0.026250,0.197976,0.000000,0.000000,0.000000,0.000000,0.000000,500000.000000,0.000000,3.571832,-99.000000,-99.000000,-99.000000,-99.000000,-99.000000,-99.000000,1013.250000,0.000000,25.500000,992,1500,1500,1500,992,1500,1500
0.322300,6871393.000000,0.000000,-0.000000,1.897403,1.469293,3.686855,0.000000,0.000000,0.000000,0.039889,0.024580,0.197970,0.000000,0.000000,0.000000,0.000000,0.000000,500000.000000,0.000000,3.686855,-99.000000,-99.000000,-99.000000,-99.000000,-99.000000,-99.000000,1013.250000,0.000000,25.500000,992,1500,1500,1500,992,1500,1500
0.332400,6871393.000000,0.000000,-0.000000,1.922872,1.479233,3.801850,0.000000,0.000000,0.000000,0.037923,0.023017,0.197964,0.000000,0.000000,0.000000,0.000000,0.000000,500000.000000,0.000000,3.801850,-99.000000,-99.000000,-99.000000,-99.000000,-99.000000,-99.000000,1013.250000,0.000000,25.500000,992,1500,1500,1500,992,1500,1500
0.342500,6871393.000000,0.000000,-0.000000,1.947249,1.488249,3.916816,0.000000,0.000000,0.000000,0.036055,0.021553,0.197959,0.000000,0.000000,0.000000,0.000000,0.000000,500000.000000,0.000000,3.916816,-99.000000,-99.000000,-99.000000,-99.000000,-99.000000,-99.000000,1013.250000,0.000000,25.500000,992,1500,1500,1500,992,1500,1500
0.352600,6871393.000000,0.000000,-0.000000,1.970588,1.496397,4.031756,0.000000,0.000000,0.000000,0.034278,0.020182,0.197955,0.000000,0.000000,0.000000,0.000000,0.000000,500000.000000,0.000000,4.031756,-99.000000,-99.000000,-99.000000,-99.000000,-99.000000,-99.000000,1013.250000,0.000000,25.500000,992,1500,1500,1500,992,1500,1500
0.362700,6871393.000000,0.000000,-0.000000,1.992940,1.503732,4.146671,0.000000,0.000000,0.000000,0.032588,0.018898,0.197951,0.000000,0.000000,0.000000,0.000000,0.000000,500000.000000,0.000000,4.146671,-99.000000,-99.000000,-99.000000,-99.000000,-99.000000,-99.000000,1013.250000,0.000000,25.500000,992,1500,1500,1500,992,1500,1500
0.372800,6871393.000000,0.000000,-0.000000,2.014351,1.510305,4.261561,0.000000,0.000000,0.000000,0.030982,0.017696,0.197948,0.000000,0.000000,0.000000,0.000000,0.000000,500000.000000,0.000000,4.261561,-99.000000,-99.000000,-99.000000,-99.000000,-99.000000,-99.000000,1013.250000,0.000000,25.500000,992,1500,1500,1500,992,1500,1500
0.382900,6871393.000000,0.000000,-0.000000,2.034869,1.516163,4.376429,0.000000,0.000000,0.000000,0.029455,0.016571,0.197944,0.000000,0.000000,0.000000,0.000000,0.000000,500000.000000,0.000000,4.376429,-99.000000,-99.000000,-99.000000,-99.000000,-99.000000,-99.000000,1013.250000,0.000000,25.500000,992,1500,1500,1500,992,1500,1500
0.393000,6871393.000000,0.000000,-0.000000,2.054535,1.521351,4.491275,0.000000,0.000000,0.000000,0.028004,0.015517,0.197942,0.000000,0.000000,0.000000,0.000000,0.000000,500000.000000,0.000000,4.491275,-99.000000,-99.000000,-99.000000,-99.000000,-99.000000,-99.000000,1013.250000,0.000000,25.500000,992,1500,1500,1500,992,1500,1500
0.403100,6871393.000000,0.000000,-0.000000,2.073391,1.525911,4.606100,0.000000,0.000000,0.000000,0.026624,0.014530,0.197939,0.000000,0.000000,0.000000,0.000000,0.000000,500000.000000,0.000000,4.606100,-99.000000,-99.000000,-99.000000,-99.000000,-99.000000,-99.000000,1013.250000,0.000000,25.500000,992,1500,1500,1500,992,1500,1500
0.413200,6871393.000000,0.000000,-0.000000,2.091476,1.529881,4.720905,0.000000,0.000000,0.000000,0.025312,0.013606,0.197937,0.000000,0.000000,0.000000,0.000000,0.000000,500000.000000,0.000000,4.720905,-99.000000,-99.000000,-99.000000,-99.000000,-99.000000,-99.000000,1013.250000,0.000000,25.500000,992,1500,1500,1500,992,1500,1500
0.423300,6871393.000000,0.000000,-0.000000,2.108828,1.533299,4.835691,0.000000,0.000000,0.000000,0.024064,0.012740,0.197935,0.000000,0.000000,0.000000,0.000000,0.000000,500000.000000,0.000000,4.835691,-99.000000,-99.000000,-99.000000,-99.000000,-99.000000,-99.000000,1013.250000,0.000000,25.500000,992,1500,1500,1500,992,1500,1500
0.433400,6871393.000000,0.000000,-0.000000,2.125481,1.536198,4.950460,0.000000,0.000000,0.000000,0.022878,0.011930,0.197933,0.000000,0.000000,0.000000,0.000000,0.000000,500000.000000,0.000000,4.950460,-99.000000,-99.000000,-99.000000,-99.000000,-99.000000,-99.000000,1013.250000,0.000000,25.500000,992,1500,1500,1500,992,1500,1500
0.443500,6871393.000000,0.000000,-0.000000,2.141470,1.538611,5.065211,0.000000,0.000000,0.000000,0.021751,0.011171,0.197932,0.000000,0.000000,0.000000,0.000000,0.000000,500000.000000,0.000000,5.065211,-99.000000,-99.000000,-99.000000,-99.000000,-99.000000,-99.000000,1013.250000,0.000000,25.500000,992,1500,1500,1500,992,1500,1500
0.453600,6871393.000000,0.000000,-0.000000,2.156827,1.540568,5.179947,0.000000,0.000000,0.000000,0.020679,0.010461,0.197930,0.000000,0.000000,0.000000,0.000000,0.000000,500000.000000,0.000000,5.179947,-99.000000,-99.000000,-99.000000,-99.000000,-99.000000,-99.000000,1013.250000,0.000000,25.500000,992,1500,1500,1500,992,1500,1500
0.463700,6871393.000000,0.000000,-0.000000,2.171582,1.542097,5.294667,0.000000,0.000000,0.000000,0.019660,0.009795,0.197929,0.000000,0.000000,0.000000,0.000000,0.000000,500000.000000,0.000000,5.294667,-99.000000,-99.000000,-99.000000,-99.000000,-99.000000,-99.000000,1013.250000,0.000000,25.500000,992,1500,1500,1500,992,1500,1500
0.473800,6871393.000000,0.000000,-0.000000,2.185765,1.543225,5.409373,0.000000,0.000000,0.000000,0.018691,0.009172,0.197928,0.000000,0.000000,0.000000,0.000000,0.000000,500000.000000,0.000000,5.409373,-99.000000,-99.000000,-99.000000,-99.000000,-99.000000,-99.000000,1013.250000,0.000000,25.500000,992,1500,1500,1500,992,1500,1500
0.483900,6871393.000000,0.000000,-0.000000,2.199402,1.543976,5.524066,0.000000,0.000000,0.000000,0.017770,0.008589,0.197927,0.000000,0.000000,0.000000,0.000000,0.000000,500000.000000,0.000000,5.524066,-99.000000,-99.000000,-99.000000,-99.000000,-99.000000,-99.000000,1013.250000,0.000000,25.500000,992,1500,1500,1500,992,1500,1500
0.494000,6871393.000000,0.000000,-0.000000,2.212520,1.544374,5.638745,0.000000,0.000000,0.000000,0.016894,0.008043,0.197926,0.000000,0.000000,0.000000,0.000000,0.000000,500000.000000,0.000000,5.638745,-99.000000,-99.000000,-99.000000,-99.000000,-99.000000,-99.000000,1013.250000,0.000000,25.500000,992,1500,1500,1500,992,1500,1500
0.504100,6871393.000000,0.000000,-0.000000,2.225144,1.544441,5.753413,0.000000,0.000000,0.000000,0.016062,0.007531,0.197925,0.000000,0.000000,0.000000,0.000000,0.000000,500000.000000,0.000000,5.753413,-99.000000,-99.000000,-99.000000,-99.000000,-99.000000,-99.000000,1013.250000,0.000000,25.500000,992,1500,1500,1500,992,1500,1500
0.514200,6871393.000000,0.000000,-0.000000,2.237297,1.544197,5.868068,0.000000,0.000000,0.000000,0.015270,0.007052,0.197925,0.000000,0.000000,0.000000,0.000000,0.000000,500000.000000,0.000000,5.868068,-99.000000,-99.000000,-99.000000,-99.000000,-99.000000,-99.000000,1013.250000,0.000000,25.500000,992,1500,1500,1500,992,1500,1500
0.524300,6871393.000000,0.000000,-0.000000,2.249003,1.543660,5.982713,0.000000,0.000000,0.000000,0.014517,0.006604,0.197924,0.000000,0.000000,0.000000,0.000000,0.000000,500000.000000,0.000000,5.982713,-99.000000,-99.000000,-99.000000,-99.000000,-99.000000,-99.000000,1013.250000,0.000000,25.500000,992,1500,1500,1500,992,1500,1500
0.534400,6871393.000000,0.000000,-0.000000,2.260283,1.542850,6.097348,0.000000,0.000000,0.000000,0.013802,0.006184,0.197923,0.000000,0.000000,0.000000,0.000000,0.000000,500000.000000,0.000000,6.097348,-99.000000,-99.000000,-99.000000,-99.000000,-99.000000,-99.000000,1013.250000,0.000000,25.500000,992,1500,1500,1500,992,1500,1500
0.544500,6871393.000000,0.000000,-0.000000,2.271157,1.541783,6.211972,0.000000,0.000000,0.000000,0.013122,0.005790,0.197923,0.000000,0.000000,0.000000,0.000000,0.000000,500000.000000,0.000000,6.211972,-99.000000,-99.000000,-99.000000,-99.000000,-99.000000,-99.000000,1013.250000,0.000000,25.500000,992,1500,1500,1500,992,1500,1500
0.554600,6871393.000000,0.000000,-0.000000,2.281644,1.540474,6.326587,0.000000,0.000000,0.000000,0.012475,0.005422,0.197923,0.000000,0.000000,0.000000,0.000000,0.000000,500000.000000,0.000000,6.326587,-99.000000,-99.000000,-99.000000,-99.000000,-99.000000,-99.000000,1013.250000,0.000000,25.500000,992,1500,1500,1500,992,1500,1500
0.564700,6871393.000000,0.000000,-0.000000,2.291763,1.538938,6.441194,0.000000,0.000000,0.000000,0.011860,0.005077,0.197922,0.000000,0.000000,0.000000,0.000000,0.000000,500000.000000,0.000000,6.441194,-99.000000,-99.000000,-99.000000,-99.000000,-99.000000,-99.000000,1013.250000,0.000000,25.500000,992,1500,1500,1500,992,1500,1500
0.574800,6871393.000000,0.000000,-0.000000,2.301532,1.537190,6.555792,0.000000,0.000000,0.000000,0.011276,0.004754,0.197922,0.000000,0.000000,0.000000,0.000000,0.000000,500000.000000,0.000000,6.555792,-99.000000,-99.000000,-99.000000,-99.000000,-99.000000,-99.000000,1013.250000,0.000000,25.500000,992,1500,1500,1500,992,1500,1500
0.584900,6871393.000000,0.000000,-0.000000,2.310967,1.535241,6.670382,0.000000,0.000000,0.000000,0.010720,0.004452,0.197922,0.000000,0.000000,0.000000,0.000000,0.000000,500000.000000,0.000000,6.670382,-99.000000,-99.000000,-99.000000,-99.000000,-99.000000,-99.000000,1013.250000,0.000000,25.500000,992,1500,1500,1500,992,1500,1500
0.595000,6871393.000000,0.000000,-0.000000,2.320085,1.533105,6.784965,0.000000,0.000000,0.000000,0.010192,0.004169,0.197921,0.000000,0.000000,0.000000,0.000000,0.000000,500000.000000,0.000000,6.784965,-99.000000,-99.000000,-99.000000,-99.000000,-99.000000,-99.000000,1013.250000,0.000000,25.500000,992,1500,1500,1500,992,1500,1500
0.605100,6871393.000000,0.000000,-0.000000,2.328899,1.530793,6.899541,0.000000,0.000000,0.000000,0.009690,0.003904,0.197921,0.000000,0.000000,0.000000,0.000000,0.000000,500000.000000,0.000000,6.899541,-99.000000,-99.000000,-99.000000,-99.000000,-99.000000,-99.000000,1013.250000,0.000000,25.500000,992,1500,1500,1500,992,1500,1500
0.615200,6871393.000000,0.000000,-0.000000,2.337425,1.528314,7.014110,0.000000,0.000000,0.000000,0.009212,0.003655,0.197921,0.000000,0.000000,0.000000,0.000000,0.000000,500000.000000,0.000000,7.014110,-99.000000,-99.000000,-99.000000,-99.000000,-99.000000,-99.000000,1013.250000,0.000000,25.500000,992,1500,1500,1500,992,1500,1500
0.625300,6871393.000000,0.000000,-0.000000,2.345676,1.525680,7.128673,0.000000,0.000000,0.000000,0.008758,0.003423,0.197921,0.000000,0.000000,0.000000,0.000000,0.000000,500000.000000,0.000000,7.128673,-99.000000,-99.000000,-99.000000,-99.000000,-99.000000,-99.000000,1013.250000,0.000000,25.500000,992,1500,1500,1500,992,1500,1500
0.635400,6871393.000000,0.000000,-0.000000,2.353666,1.522900,7.243230,0.000000,0.000000,0.000000,0.008326,0.003205,0.197920,0.000000,0.000000,0.000000,0.000000,0.000000,500000.000000,0.000000,7.243230,-99.000000,-99.000000,-99.000000,-99.000000,-99.000000,-99.000000,1013.250000,0.000000,25.500000,992,1500,1500,1500,992,1500,1500
0.645500,6871393.000000,0.000000,-0.000000,2.361406,1.519982,7.357782,0.000000,0.000000,0.000000,0.007916,0.003001,0.197920,0.000000,0.000000,0.000000,0.000000,0.000000,500000.000000,0.000000,7.357782,-99.000000,-99.000000,-99.000000,-99.000000,-99.000000,-99.000000,1013.250000,0.000000,25.500000,992,1500,1500,1500,992,1500,1500
0.655600,6871393.000000,0.000000,-0.000000,2.368908,1.516935,7.472328,0.000000,0.000000,0.000000,0.007526,0.002810,0.197920,0.000000,0.000000,0.000000,0.000000,0.000000,500000.000000,0.000000,7.472328,-99.000000,-99.000000,-99.000000,-99.000000,-99.000000,-99.000000,1013.250000,0.000000,25.500000,992,1500,1500,1500,992,1500,1500
0.665700,6871393.000000,0.000000,-0.000000,2.376184,1.513766,7.586868,0.000000,0.000000,0.000000,0.007155,0.002632,0.197920,0.000000,0.000000,0.000000,0.000000,0.000000,500000.000000,0.000000,7.586868,-99.000000,-99.000000,-99.000000,-99.000000,-99.000000,-99.000000,1013.250000,0.000000,25.500000,992,1500,1500,1500,992,1500,1500
0.675800,6871393.000000,0.000000,-0.000000,2.383245,1.510483,7.701405,0.000000,0.000000,0.000000,0.006802,0.002464,0.197920,0.000000,0.000000,0.000000,0.000000,0.000000,500000.000000,0.000000,7.701405,-99.000000,-99.000000,-99.000000,-99.000000,-99.000000,-99.000000,1013.250000,0.000000,25.500000,992,1500,1500,1500,992,1500,1500
0.685900,6871393.000000,0.000000,-0.000000,2.390099,1.507093,7.815936,0.000000,0.000000,0.000000,0.006467,0.002307,0.197920,0.000000,0.000000,0.000000,0.000000,0.000000,500000.000000,0.000000,7.815936,-99.000000,-99.000000,-99.000000,-99.000000,-99.000000,-99.000000,1013.250000,0.000000,25.500000,992,1500,1500,1500,992,1500,1500
0.696000,6871393.000000,0.000000,-0.000000,2.396757,1.503601,7.930463,0.000000,0.000000,0.000000,0.006148,0.002161,0.197920,0.000000,0.000000,0.000000,0.000000,0.000000,500000.000000,0.000000,7.930463,-99.000000,-99.000000,-99.000000,-99.000000,-99.000000,-99.000000,1013.250000,0.000000,25.500000,992,1500,1500,1500,992,1500,1500
0.706100,6871393.000000,0.000000,-0.000000,2.403228,1.500014,8.044987,0.000000,0.000000,0.000000,0.005845,0.002023,0.197920,0.000000,0.000000,0.000000,0.000000,0.000000,500000.000000,0.000000,8.044987,-99.000000,-99.000000,-99.000000,-99.000000,-99.000000,-99.000000,1013.250000,0.000000,25.500000,992,1500,1500,1500,992,1500,1500
0.716200,6871393.000000,0.000000,-0.000000,2.409521,1.496337,8.159506,0.000000,0.000000,0.000000,0.005557,0.001895,0.197920,0.000000,0.000000,0.000000,0.000000,0.000000,500000.000000,0.000000,8.159506,-99.000000,-99.000000,-99.000000,-99.000000,-99.000000,-99.000000,1013.250000,0.000000,25.500000,992,1500,1500,1500,992,1500,1500
0.726300,6871393.000000,0.000000,-0.000000,2.415644,1.492576,8.274022,0.000000,0.000000,0.000000,0.005284,0.001774,0.197920,0.000000,0.000000,0.000000,0.000000,0.000000,500000.000000,0.000000,8.274022,-99.000000,-99.000000,-99.000000,-99.000000,-99.000000,-99.000000,1013.250000,0.000000,25.500000,992,1500,1500,1500,992,1500,1500
0.736400,6871393.000000,0.000000,-0.000000,2.421604,1.488735,8.388534,0.000000,0.000000,0.000000,0.005023,0.001661,0.197919,0.000000,0.000000,0.000000,0.000000,0.000000,500000.000000,0.000000,8.388534,-99.000000,-99.000000,-99.000000,-99.000000,-99.000000,-99.000000,1013.250000,0.000000,25.500000,992,1500,1500,1500,992,1500,1500
0.746500,6871393.000000,0.000000,-0.000000,2.427410,1.484820,8.503043,0.000000,0.000000,0.000000,0.004776,0.001556,0.197919,0.000000,0.000000,0.000000,0.000000,0.000000,500000.000000,0.000000,8.503043,-99.000000,-99.000000,-99.000000,-99.000000,-99.000000,-99.000000,1013.250000,0.000000,25.500000,992,1500,1500,1500,992,1500,1500
0.756600,6871393.000000,0.000000,-0.000000,2.433068,1.480834,8.617548,0.000000,0.000000,0.000000,0.004540,0.001457,0.197919,0.000000,0.000000,0.000000,0.000000,0.000000,500000.000000,0.000000,8.617548,-99.000000,-99.000000,-99.000000,-99.000000,-99.000000,-99.000000,1013.250000,0.000000,25.500000,992,1500,1500,1500,992,1500,1500
0.766700,6871393.000000,0.000000,-0.000000,2.438585,1.476781,8.732051,0.000000,0.000000,0.000000,0.004316,0.001364,0.197919,0.000000,0.000000,0.000000,0.000000,0.000000,500000.000000,0.000000,8.732051,-99.000000,-99.000000,-99.000000,-99.000000,-99.000000,-99.000000,1013.250000,0.000000,25.500000,992,1500,1500,1500,992,1500,1500
0.776800,6871393.000000,0.000000,-0.000000,2.443968,1.472666,8.846551,0.000000,0.000000,0.000000,0.004104,0.001277,0.197919,0.000000,0.000000,0.000000,0.000000,0.000000,500000.000000,0.000000,8.846551,-99.000000,-99.000000,-99.000000,-99.000000,-99.000000,-99.000000,1013.250000,0.000000,25.500000,992,1500,1500,1500,992,1500,1500
0.786900,6871393.000000,0.000000,-0.000000,2.449222,1.468491,8.961048,0.000000,0.000000,0.000000,0.003902,0.001196,0.197919,0.000000,0.000000,0.000000,0.000000,0.000000,500000.000000,0.000000,8.961048,-99.000000,-99.000000,-99.000000,-99.000000,-99.000000,-99.000000,1013.250000,0.000000,25.500000,992,1500,1500,1500,992,1500,1500
0.797000,6871393.000000,0.000000,-0.000000,2.454353,1.464261,9.075543,0.000000,0.000000,0.000000,0.003709,0.001120,0.197919,0.000000,0.000000,0.000000,0.000000,0.000000,500000.000000,0.000000,9.075543,-99.000000,-99.000000,-99.000000,-99.000000,-99.000000,-99.000000,1013.250000,0.000000,25.500000,992,1500,1500,1500,992,1500,1500
0.807100,6871393.000000,0.000000,-0.000000,2.459368,1.459978,9.190035,0.000000,0.000000,0.000000,0.003526,0.001049,0.197919,0.000000,0.000000,0.000000,0.000000,0.000000,500000.000000,0.000000,9.190035,-99.000000,-99.000000,-99.000000,-99.000000,-99.000000,-99.000000,1013.250000,0.000000,25.500000,992,1500,1500,1500,992,1500,1500
0.817200,6871393.000000,0.000000,-0.000000,2.464271,1.455645,9.304525,0.000000,0.000000,0.000000,0.003353,0.000982,0.197919,0.000000,0.000000,0.000000,0.000000,0.000000,500000.000000,0.000000,9.304525,-99.000000,-99.000000,-99.000000,-99.000000,-99.000000,-99.000000,1013.250000,0.000000,25.500000,992,1500,1500,1500,992,1500,1500
0.827300,6871393.000000,0.000000,-0.000000,2.469066,1.451265,9.419013,0.000000,0.000000,0.000000,0.003187,0.000920,0.197919,0.000000,0.000000,0.000000,0.000000,0.000000,500000.000000,0.000000,9.419013,-99.000000,-99.000000,-99.000000,-99.000000,-99.000000,-99.000000,1013.250000,0.000000,25.500000,992,1500,1500,1500,992,1500,1500
0.837400,6871393.000000,0.000000,-0.000000,2.473760,1.446841,9.533499,0.000000,0.000000,0.000000,0.003030,0.000861,0.197919,0.000000,0.000000,0.000000,0.000000,0.000000,500000.000000,0.000000,9.533499,-99.000000,-99.000000,-99.000000,-99.000000,-99.000000,-99.000000,1013.250000,0.000000,25.500000,992,1500,1500,1500,992,1500,1500
0.847500,6871393.000000,0.000000,-0.000000,2.478357,1.442375,9.647982,0.000000,0.000000,0.000000,0.002881,0.000806,0.197919,0.000000,0.000000,0.000000,0.000000,0.000000,500000.000000,0.000000,9.647982,-99.000000,-99.000000,-99.000000,-99.000000,-99.000000,-99.000000,1013.250000,0.000000,25.500000,992,1500,1500,1500,992,1500,1500
0.857600,6871393.000000,0.000000,-0.000000,2.482859,1.437869,9.762464,0.000000,0.000000,0.000000,0.002739,0.000755,0.197919,0.000000,0.000000,0.000000,0.000000,0.000000,500000.000000,0.000000,9.762464,-99.000000,-99.000000,-99.000000,-99.000000,-99.000000,-99.000000,1013.250000,0.000000,25.500000,992,1500,1500,1500,992,1500,1500
0.867700,6871393.000000,0.000000,-0.000000,2.487273,1.433325,9.876944,0.000000,0.000000,0.000000,0.002604,0.000707,0.197919,0.000000,0.000000,0.000000,0.000000,0.000000,500000.000000,0.000000,9.876944,-99.000000,-99.000000,-99.000000,-99.000000,-99.000000,-99.000000,1013.250000,0.000000,25.500000,992,1500,1500,1500,992,1500,1500
0.877800,6871393.000000,0.000000,-0.000000,2.491602,1.428746,9.991422,0.000000,0.000000,0.000000,0.002476,0.000662,0.197919,0.000000,0.000000,0.000000,0.000000,0.000000,500000.000000,0.000000,9.991422,-99.000000,-99.000000,-99.000000,-99.000000,-99.000000,-99.000000,1013.250000,0.000000,25.500000,992,1500,1500,1500,992,1500,1500
0.887900,6871393.000000,0.000000,-0.000000,2.495848,1.424133,10.105898,0.000000,0.000000,0.000000,0.002354,0.000620,0.197919,0.000000,0.000000,0.000000,0.000000,0.000000,500000.000000,0.000000,10.105898,-99.000000,-99.000000,-99.000000,-99.000000,-99.000000,-99.000000,1013.250000,0.000000,25.500000,992,1500,1500,1500,992,1500,1500
0.898000,6871393.000000,0.000000,-0.000000,2.500017,1.419488,10.220373,0.000000,0.000000,0.000000,0.002238,0.000580,0.197919,0.000000,0.000000,0.000000,0.000000,0.000000,500000.000000,0.000000,10.220373,-99.000000,-99.000000,-99.000000,-99.000000,-99.000000,-99.000000,1013.250000,0.000000,25.500000,992,1500,1500,1500,992,1500,1500
0.908100,6871393.000000,0.000000,-0.000000,2.504111,1.414813,10.334846,0.000000,0.000000,0.000000,0.002127,0.000544,0.197919,0.000000,0.000000,0.000000,0.000000,0.000000,500000.000000,0.000000,10.334846,-99.000000,-99.000000,-99.000000,-99.000000,-99.000000,-99.000000,1013.250000,0.000000,25.500000,992,1500,1500,1500,992,1500,1500
0.918200,6871393.000000,0.000000,-0.000000,2.508133,1.410109,10.449318,0.000000,0.000000,0.000000,0.002023,0.000509,0.197919,0.000000,0.000000,0.000000,0.000000,0.000000,500000.000000,0.000000,10.449318,-99.000000,-99.000000,-99.000000,-99.000000,-99.000000,-99.000000,1013.250000,0.000000,25.500000,992,1500,1500,1500,992,1500,1500
0.928300,6871393.000000,0.000000,-0.000000,2.512087,1.405378,10.563789,0.000000,0.000000,0.000000,0.001923,0.000477,0.197919,0.000000,0.000000,0.000000,0.000000,0.000000,500000.000000,0.000000,10.563789,-99.000000,-99.000000,-99.000000,-99.000000,-99.000000,-99.000000,1013.250000,0.000000,25.500000,992,1500,1500,1500,992,1500,1500
0.938400,6871393.000000,0.000000,-0.000000,2.515975,1.400620,10.678258,0.000000,0.000000,0.000000,0.001828,0.000446,0.197919,0.000000,0.000000,0.000000,0.000000,0.000000,500000.000000,0.000000,10.678258,-99.000000,-99.000000,-99.000000,-99.000000,-99.000000,-99.000000,1013.250000,0.000000,25.500000,992,1500,1500,1500,992,1500,1500
0.948500,6871393.000000,0.000000,-0.000000,2.519799,1.395838,10.792726,0.000000,0.000000,0.000000,0.001738,0.000418,0.197919,0.000000,0.000000,0.000000,0.000000,0.000000,500000.000000,0.000000,10.792726,-99.000000,-99.000000,-99.000000,-99.000000,-99.000000,-99.000000,1013.250000,0.000000,25.500000,992,1500,1500,1500,992,1500,1500
0.958600,6871393.000000,0.000000,-0.000000,2.523564,1.391033,10.907192,0.000000,0.000000,0.000000,0.001652,0.000391,0.197919,0.000000,0.000000,0.000000,0.000000,0.000000,500000.000000,0.000000,10.907192,-99.000000,-99.000000,-99.000000,-99.000000,-99.000000,-99.000000,1013.250000,0.000000,25.500000,992,1500,1500,1500,992,1500,1500
0.968700,6871393.000000,0.000000,-0.000000,2.527270,1.386205,11.021657,0.000000,0.000000,0.000000,0.001571,0.000366,0.197919,0.000000,0.000000,0.000000,0.000000,0.000000,500000.000000,0.000000,11.021657,-99.000000,-99.000000,-99.000000,-99.000000,-99.000000,-99.000000,1013.250000,0.000000,25.500000,992,1500,1500,1500,992,1500,1500
0.978800,6871393.000000,0.000000,-0.000000,2.530921,1.381356,11.136122,0.000000,0.000000,0.000000,0.001494,0.000343,0.197919,0.000000,0.000000,0.000000,0.000000,0.000000,500000.000000,0.000000,11.136122,-99.000000,-99.000000,-99.000000,-99.000000,-99.000000,-99.000000,1013.250000,0.000000,25.500000,992,1500,1500,1500,992,1500,1500
0.988900,6871393.000000,0.000000,-0.000000,2.534518,1.376487,11.250585,0.000000,0.000000,0.000000,0.001420,0.000321,0.197919,0.000000,0.000000,0.000000,0.000000,0.000000,500000.000000,0.000000,11.250585,-99.000000,-99.000000,-99.000000,-99.000000,-99.000000,-99.000000,1013.250000,0.000000,25.500000,992,1500,1500,1500,992,1500,1500
0.999000,6871393.000000,0.000000,-0.000000,2.538064,1.371599,11.365047,0.000000,0.000000,0.000000,0.001350,0.000301,0.197919,0.000000,0.000000,0.000000,0.000000,0.000000,500000.000000,0.000000,11.365047,-99.000000,-99.000000,-99.000000,-99.000000,-99.000000,-99.000000,1013.250000,0.000000,25.500000,992,1500,1500,1500,992,1500,1500
1.009100,6871388.779155,7616.178441,-0.000000,2.541561,1.366692,90.133748,7615.417942,0.000000,0.000000,0.001283,0.000282,0.197919,0.000000,0.000000,0.000000,0.000000,0.063506,500000.000002,90.031753,11.479507,-99.000000,-99.000000,-99.000000,-99.000000,-99.000000,-99.000000,1013.250000,0.000000,25.500000,992,1500,1500,1500,992,1500,1500
1.019200,6871388.779155,7616.178441,-0.000000,2.545010,1.361767,90.248208,7615.417942,0.000000,0.000000,0.001220,0.000264,0.197919,0.000000,0.000000,0.000000,0.000000,0.063506,500000.000002,90.031753,11.593967,-99.000000,-99.000000,-99.000000,-99.000000,-99.000000,-99.000000,1013.250000,0.000000,25.500000,992,1500,1500,1500,992,1500,1500
1.029300,6871388.779155,7616.178441,-0.000000,2.548414,1.356825,90.362667,7615.417942,0.000000,0.000000,0.001160,0.000247,0.197919,0.000000,0.000000,0.000000,0.000000,0.063506,500000.000002,90.031753,11.708426,-99.000000,-99.000000,-99.000000,-99.000000,-99.000000,-99.000000,1013.250000,0.000000,25.500000,992,1500,1500,1500,992,1500,1500
1.039400,6871388.779155,7616.178441,-0.000000,2.551774,1.351868,90.477125,7615.417942,0.000000,0.000000,0.001103,0.000231,0.197919,0.000000,0.000000,0.000000,0.000000,0.063506,500000.000002,90.031753,11.822884,-99.000000,-99.000000,-99.000000,-99.000000,-99.000000,-99.000000,1013.250000,0.000000,25.500000,992,1500,1500,1500,992,1500,1500
1.049500,6871388.779155,7616.178441,-0.000000,2.555091,1.346895,90.591582,7615.417942,0.000000,0.000000,0.001049,0.000217,0.197919,0.000000,0.000000,0.000000,0.000000,0.063506,500000.000002,90.031753,11.937341,-99.000000,-99.000000,-99.000000,-99.000000,-99.000000,-99.000000,1013.250000,0.000000,25.500000,992,1500,1500,1500,992,1500,1500
1.059600,6871388.779155,7616.178441,-0.000000,2.558369,1.341907,90.706038,7615.417942,0.000000,0.000000,0.000997,0.000203,0.197919,0.000000,0.000000,0.000000,0.000000,0.063506,500000.000002,90.031753,12.051797,-99.000000,-99.000000,-99.000000,-99.000000,-99.000000,-99.000000,1013.250000,0.000000,25.500000,992,1500,1500,1500,992,1500,1500
1.069700,6871388.779155,7616.178441,-0.000000,2.561606,1.336904,90.820493,7615.417942,0.000000,0.000000,0.000948,0.000190,0.197919,0.000000,0.000000,0.000000,0.000000,0.063506,500000.000002,90.031753,12.166253,-99.000000,-99.000000,-99.000000,-99.000000,-99.000000,-99.000000,1013.250000,0.000000,25.500000,992,1500,1500,1500,992,1500,1500
1.079800,6871388.779155,7616.178441,-0.000000,2.564807,1.331889,90.934948,7615.417942,0.000000,0.000000,0.000901,0.000178,0.197919,0.000000,0.000000,0.000000,0.000000,0.063506,500000.000002,90.031753,12.280707,-99.000000,-99.000000,-99.000000,-99.000000,-99.000000,-99.000000,1013.250000,0.000000,25.500000,992,1500,1500,1500,992,1500,1500
1.089900,6871388.779155,7616.178441,-0.000000,2.567970,1.326860,91.049401,7615.417942,0.000000,0.000000,0.000857,0.000167,0.197919,0.000000,0.000000,0.000000,0.000000,0.063506,500000.000002,90.031753,12.395161,-99.000000,-99.000000,-99.000000,-99.000000,-99.000000,-99.000000,1013.250000,0.000000,25.500000,992,1500,1500,1500,992,1500,1500
1.100000,6871388.779155,7616.178441,-0.000000,2.571099,1.321818,91.163854,7615.417942,0.000000,0.000000,0.000814,0.000156,0.197919,0.000000,0.000000,0.000000,0.000000,0.063506,500000.000002,90.031753,12.509614,-99.000000,-99.000000,-99.000000,-99.000000,-99.000000,-99.000000,1013.250000,0.000000,25.500000,992,1500,1500,1500,992,1500,1500
1.110100,6871388.779155,7616.178441,-0.000000,2.574194,1.316764,91.278306,7615.417942,0.000000,0.000000,0.000774,0.000146,0.197919,0.000000,0.000000,0.000000,0.000000,0.063506,500000.000002,90.031753,12.624066,-99.000000,-99.000000,-99.000000,-99.000000,-99.000000,-99.000000,1013.250000,0.000000,25.500000,992,1500,1500,1500,992,1500,1500
1.120200,6871388.779155,7616.178441,-0.000000,2.577256,1.311699,91.392758,7615.417942,0.000000,0.000000,0.000736,0.000137,0.197919,0.000000,0.000000,0.000000,0.000000,0.063506,500000.000002,90.031753,12.738517,-99.000000,-99.000000,-99.000000,-99.000000,-99.000000,-99.000000,1013.250000,0.000000,25.500000,992,1500,1500,1500,992,1500,1500
1.130300,6871388.779155,7616.178441,-0.000000,2.580286,1.306622,91.507208,7615.417942,0.000000,0.000000,0.000700,0.000128,0.197919,0.000000,0.000000,0.000000,0.000000,0.063506,500000.000002,90.031753,12.852968,-99.000000,-99.000000,-99.000000,-99.000000,-99.000000,-99.000000,1013.250000,0.000000,25.500000,992,1500,1500,1500,992,1500,1500
1.140400,6871388.779155,7616.178441,-0.000000,2.583286,1.301535,91.621658,7615.417942,0.000000,0.000000,0.000665,0.000120,0.197919,0.000000,0.000000,0.000000,0.000000,0.063506,500000.000002,90.031753,12.967418,-99.000000,-99.000000,-99.000000,-99.000000,-99.000000,-99.000000,1013.250000,0.000000,25.500000,992,1500,1500,1500,992,1500,1500
1.150500,6871388.779155,7616.178441,-0.000000,2.586255,1.296437,91.736107,7615.417942,0.000000,0.000000,0.000633,0.000112,0.197919,0.000000,0.000000,0.000000,0.000000,0.063506,500000.000002,90.031753,13.081867,-99.000000,-99.000000,-99.000000,-99.000000,-99.000000,-99.000000,1013.250000,0.000000,25.500000,992,1500,1500,1500,992,1500,1500
1.160600,6871388.779155,7616.178441,-0.000000,2.589197,1.291328,91.850556,7615.417942,0.000000,0.000000,0.000601,0.000105,0.197919,0.000000,0.000000,0.000000,0.000000,0.063506,500000.000002,90.031753,13.196315,-99.000000,-99.000000,-99.000000,-99.000000,-99.000000,-99.000000,1013.250000,0.000000,25.500000,992,1500,1500,1500,992,1500,1500
1.170700,6871388.779155,7616.178441,-0.000000,2.592110,1.286210,91.965003,7615.417942,0.000000,0.000000,0.000572,0.000098,0.197919,0.000000,0.000000,0.000000,0.000000,0.063506,500000.000002,90.031753,13.310763,-99.000000,-99.000000,-99.000000,-99.000000,-99.000000,-99.000000,1013.250000,0.000000,25.500000,992,1500,1500,1500,992,1500,1500
1.180800,6871388.779155,7616.178441,-0.000000,2.594997,1.281083,92.079451,7615.417942,0.000000,0.000000,0.000544,0.000092,0.197919,0.000000,0.000000,0.000000,0.000000,0.063506,500000.000002,90.031753,13.425210,-99.000000,-99.000000,-99.000000,-99.000000,-99.000000,-99.000000,1013.250000,0.000000,25.500000,992,1500,1500,1500,992,1500,1500
1.190900,6871388.779155,7616.178441,-0.000000,2.597857,1.275946,92.193897,7615.417942,0.000000,0.000000,0.000517,0.000086,0.197919,0.000000,0.000000,0.000000,0.000000,0.063506,500000.000002,90.031753,13.539657,-99.000000,-99.000000,-99.000000,-99.000000,-99.000000,-99.000000,1013.250000,0.000000,25.500000,992,1500,1500,1500,992,1500,1500
1.201000,6871388.779155,7616.178441,-0.000000,2.600692,1.270800,92.308343,7615.417942,0.000000,0.000000,0.000491,0.000081,0.197919,0.000000,0.000000,0.000000,0.000000,0.063506,500000.000002,90.031753,13.654103,-99.000000,-99.000000,-99.000000,-99.000000,-99.000000,-99.000000,1013.250000,0.000000,25.500000,992,1500,1500,1500,992,1500,1500
1.211100,6871388.779155,7616.178441,-0.000000,2.603502,1.265645,92.422788,7615.417942,0.000000,0.000000,0.000467,0.000076,0.197919,0.000000,0.000000,0.000000,0.000000,0.063506,500000.000002,90.031753,13.768548,-99.000000,-99.000000,-99.000000,-99.000000,-99.000000,-99.000000,1013.250000,0.000000,25.500000,992,1500,1500,1500,992,1500,1500
1.221200,6871388.779155,7616.178441,-0.000000,2.606288,1.260482,92.537233,7615.417942,0.000000,0.000000,0.000444,0.000071,0.197919,0.000000,0.000000,0.000000,0.000000,0.063506,500000.000002,90.031753,13.882993,-99.000000,-99.000000,-99.000000,-99.000000,-99.000000,-99.000000,1013.250000,0.000000,25.500000,992,1500,1500,1500,992,1500,1500
1.231300,6871388.779155,7616.178441,-0.000000,2.609051,1.255311,92.651677,7615.417942,0.000000,0.000000,0.000422,0.000066,0.197919,0.000000,0.000000,0.000000,0.000000,0.063506,500000.000002,90.031753,13.997437,-99.000000,-99.000000,-99.000000,-99.000000,-99.000000,-99.000000,1013.250000,0.000000,25.500000,992,1500,1500,1500,992,1500,1500
1.241400,6871388.779155,7616.178441,-0.000000,2.611792,1.250132,92.766120,7615.417942,0.000000,0.000000,0.000401,0.000062,0.197919,0.000000,0.000000,0.000000,0.000000,0.063506,500000.000002,90.031753,14.111880,-99.000000,-99.000000,-99.000000,-99.000000,-99.000000,-99.000000,1013.250000,0.000000,25.500000,992,1500,1500,1500,992,1500,1500
1.251500,6871388.779155,7616.178441,-0.000000,2.614510,1.244945,92.880563,7615.417942,0.000000,0.000000,0.000382,0.000058,0.197919,0.000000,0.000000,0.000000,0.000000,0.063506,500000.000002,90.031753,14.226323,-99.000000,-99.000000,-99.000000,-99.000000,-99.000000,-99.000000,1013.250000,0.000000,25.500000,992,1500,1500,1500,992,1500,1500
1.261600,6871388.779155,7616.178441,-0.000000,2.617206,1.239750,92.995006,7615.417942,0.000000,0.000000,0.000363,0.000054,0.197919,0.000000,0.000000,0.000000,0.000000,0.063506,500000.000002,90.031753,14.340765,-99.000000,-99.000000,-99.000000,-99.000000,-99.000000,-99.000000,1013.250000,0.000000,25.500000,992,1500,1500,1500,992,1500,1500
1.271700,6871388.779155,7616.178441,-0.000000,2.619882,1.234548,93.109447,7615.417942,0.000000,0.000000,0.000345,0.000051,0.197919,0.000000,0.000000,0.000000,0.000000,0.063506,500000.000002,90.031753,14.455207,-99.000000,-99.000000,-99.000000,-99.000000,-99.000000,-99.000000,1013.250000,0.000000,25.500000,992,1500,1500,1500,992,1500,1500
1.281800,6871388.779155,7616.178441,-0.000000,2.622537,1.229339,93.223889,7615.417942,0.000000,0.000000,0.000328,0.000048,0.197919,0.000000,0.000000,0.000000,0.000000,0.063506,500000.000002,90.031753,14.569648,-99.000000,-99.000000,-99.000000,-99.000000,-99.000000,-99.000000,1013.250000,0.000000,25.500000,992,1500,1500,1500,992,1500,1500
1.291900,6871388.779155,7616.178441,-0.000000,2.625172,1.224122,93.338329,7615.417942,0.000000,0.000000,0.000312,0.000045,0.197919,0.000000,0.000000,0.000000,0.000000,0.063506,500000.000002,90.031753,14.684089,-99.000000,-99.000000,-99.000000,-99.000000,-99.000000,-99.000000,1013.250000,0.000000,25.500000,992,1500,1500,1500,992,1500,1500
1.302000,6871388.779155,7616.178441,-0.000000,2.627788,1.218899,93.452769,7615.417942,0.000000,0.000000,0.000296,0.000042,0.197919,0.000000,0.000000,0.000000,0.000000,0.063506,500000.000002,90.031753,14.798529,-99.000000,-99.000000,-99.000000,-99.000000,-99.000000,-99.000000,1013.250000,0.000000,25.500000,992,1500,1500,1500,992,1500,1500
1.312100,6871388.779155,7616.178441,-0.000000,2.630384,1.213669,93.567209,7615.417942,0.000000,0.000000,0.000282,0.000039,0.197919,0.000000,0.000000,0.000000,0.000000,0.063506,500000.000002,90.031753,14.912968,-99.000000,-99.000000,-99.000000,-99.000000,-99.000000,-99.000000,1013.250000,0.000000,25.500000,992,1500,1500,1500,992,1500,1500
1.322200,6871388.779155,7616.178441,-0.000000,2.632962,1.208432,93.681648,7615.417942,0.000000,0.000000,0.000268,0.000037,0.197919,0.000000,0.000000,0.000000,0.000000,0.063506,500000.000002,90.031753,15.027407,-99.000000,-99.000000,-99.000000,-99.000000,-99.000000,-99.000000,1013.250000,0.000000,25.500000,992,1500,1500,1500,992,1500,1500
1.332300,6871388.779155,7616.178441,-0.000000,2.635521,1.203188,93.796086,7615.417942,0.000000,0.000000,0.000255,0.000034,0.197919,0.000000,0.000000,0.000000,0.000000,0.063506,500000.000002,90.031753,15.141846,-99.000000,-99.000000,-99.000000,-99.000000,-99.000000,-99.000000,1013.250000,0.000000,25.500000,992,1500,1500,1500,992,1500,1500
1.342400,6871388.779155,7616.178441,-0.000000,2.638063,1.197939,93.910524,7615.417942,0.000000,0.000000,0.000242,0.000032,0.197919,0.000000,0.000000,0.000000,0.000000,0.063506,500000.000002,90.031753,15.256284,-99.000000,-99.000000,-99.000000,-99.000000,-99.000000,-99.000000,1013.250000,0.000000,25.500000,992,1500,1500,1500,992,1500,1500
1.352500,6871388.779155,7616.178441,-0.000000,2.640587,1.192682,94.024962,7615.417942,0.000000,0.000000,0.000230,0.000030,0.197919,0.000000,0.000000,0.000000,0.000000,0.063506,500000.000002,90.031753,15.370721,-99.000000,-99.000000,-99.000000,-99.000000,-99.000000,-99.000000,1013.250000,0.000000,25.500000,992,1500,1500,1500,992,1500,1500
1.362600,6871388.779155,7616.178441,-0.000000,2.643093,1.187420,94.139399,7615.417942,0.000000,0.000000,0.000219,0.000028,0.197919,0.000000,0.000000,0.000000,0.000000,0.063506,500000.000002,90.031753,15.485158,-99.000000,-99.000000,-99.000000,-99.000000,-99.000000,-99.000000,1013.250000,0.000000,25.500000,992,1500,1500,1500,992,1500,1500
1.372700,6871388.779155,7616.178441,-0.000000,2.645583,1.182152,94.253835,7615.417942,0.000000,0.000000,0.000208,0.000026,0.197919,0.000000,0.000000,0.000000,0.000000,0.063506,500000.000002,90.031753,15.599595,-99.000000,-99.000000,-99.000000,-99.000000,-99.000000,-99.000000,1013.250000,0.000000,25.500000,992,1500,1500,1500,992,1500,1500
1.382800,6871388.779155,7616.178441,-0.000000,2.648056,1.176878,94.368271,7615.417942,0.000000,0.000000,0.000198,0.000025,0.197919,0.000000,0.000000,0.000000,0.000000,0.063506,500000.000002,90.031753,15.714031,-99.000000,-99.000000,-99.000000,-99.000000,-99.000000,-99.000000,1013.250000,0.000000,25.500000,992,1500,1500,1500,992,1500,1500
1.392900,6871388.779155,7616.178441,-0.000000,2.650513,1.171597,94.482707,7615.417942,0.000000,0.000000,0.000188,0.000023,0.197919,0.000000,0.000000,0.000000,0.000000,0.063506,500000.000002,90.031753,15.828466,-99.000000,-99.000000,-99.000000,-99.000000,-99.000000,-99.000000,1013.250000,0.000000,25.500000,992,1500,1500,1500,992,1500,1500
1.403000,6871388.779155,7616.178441,-0.000000,2.652953,1.166312,94.597142,7615.417942,0.000000,0.000000,0.000179,0.000022,0.197919,0.000000,0.000000,0.000000,0.000000,0.063506,500000.000002,90.031753,15.942902,-99.000000,-99.000000,-99.000000,-99.000000,-99.000000,-99.000000,1013.250000,0.000000,25.500000,992,1500,1500,1500,992,1500,1500
1.413100,6871388.779155,7616.178441,-0.000000,2.655378,1.161020,94.711576,7615.417942,0.000000,0.000000,0.000170,0.000020,0.197919,0.000000,0.000000,0.000000,0.000000,0.063506,500000.000002,90.031753,16.057336,-99.000000,-99.000000,-99.000000,-99.000000,-99.000000,-99.000000,1013.250000,0.000000,25.500000,992,1500,1500,1500,992,1500,1500
1.423200,6871388.779155,7616.178441,-0.000000,2.657788,1.155723,94.826011,7615.417942,0.000000,0.000000,0.000162,0.000019,0.197919,0.000000,0.000000,0.000000,0.000000,0.063506,500000.000002,90.031753,16.171770,-99.000000,-99.000000,-99.000000,-99.000000,-99.000000,-99.000000,1013.250000,0.000000,25.500000,992,1500,1500,1500,992,1500,1500
1.433300,6871388.779155,7616.178441,-0.000000,2.660182,1.150420,94.940444,7615.417942,0.000000,0.000000,0.000154,0.000018,0.197919,0.000000,0.000000,0.000000,0.000000,0.063506,500000.000002,90.031753,16.286204,-99.000000,-99.000000,-99.000000,-99.000000,-99.000000,-99.000000,1013.250000,0.000000,25.500000,992,1500,1500,1500,992,1500,1500
1.443400,6871388.779155,7616.178441,-0.000000,2.662561,1.145112,95.054877,7615.417942,0.000000,0.000000,0.000146,0.000017,0.197919,0.000000,0.000000,0.000000,0.000000,0.063506,500000.000002,90.031753,16.400637,-99.000000,-99.000000,-99.000000,-99.000000,-99.000000,-99.000000,1013.250000,0.000000,25.500000,992,1500,1500,1500,992,1500,1500
1.453500,6871388.779155,7616.178441,-0.000000,2.664925,1.139798,95.169310,7615.417942,0.000000,0.000000,0.000139,0.000016,0.197919,0.000000,0.000000,0.000000,0.000000,0.063506,500000.000002,90.031753,16.515070,-99.000000,-99.000000,-99.000000,-99.000000,-99.000000,-99.000000,1013.250000,0.000000,25.500000,992,1500,1500,1500,992,1500,1500
1.463600,6871388.779155,7616.178441,-0.000000,2.667274,1.134480,95.283742,7615.417942,0.000000,0.000000,0.000132,0.000015,0.197919,0.000000,0.000000,0.000000,0.000000,0.063506,500000.000002,90.031753,16.629502,-99.000000,-99.000000,-99.000000,-99.000000,-99.000000,-99.000000,1013.250000,0.000000,25.500000,992,1500,1500,1500,992,1500,1500
1.473700,6871388.779155,7616.178441,-0.000000,2.669609,1.129156,95.398174,7615.417942,0.000000,0.000000,0.000126,0.000014,0.197919,0.000000,0.000000,0.000000,0.000000,0.063506,500000.000002,90.031753,16.743934,-99.000000,-99.000000,-99.000000,-99.000000,-99.000000,-99.000000,1013.250000,0.000000,25.500000,992,1500,1500,1500,992,1500,1500
1.483800,6871388.779155,7616.178441,-0.000000,2.671929,1.123826,95.512605,7615.417942,0.000000,0.000000,0.000119,0.000013,0.197919,0.000000,0.000000,0.000000,0.000000,0.063506,500000.000002,90.031753,16.858365,-99.000000,-99.000000,-99.000000,-99.000000,-99.000000,-99.000000,1013.250000,0.000000,25.500000,992,1500,1500,1500,992,1500,1500
1.493900,6871388.779155,7616.178441,-0.000000,2.674236,1.118492,95.627036,7615.417942,0.000000,0.000000,0.000113,0.000012,0.197919,0.000000,0.000000,0.000000,0.000000,0.063506,500000.000002,90.031753,16.972796,-99.000000,-99.000000,-99.000000,-99.000000,-99.000000,-99.000000,1013.250000,0.000000,25.500000,992,1500,1500,1500,992,1500,1500
1.504000,6871388.779155,7616.178441,-0.000000,2.676528,1.113153,95.741467,7615.417942,0.000000,0.000000,0.000108,0.000011,0.197919,0.000000,0.000000,0.000000,0.000000,0.063506,500000.000002,90.031753,17.087226,-99.000000,-99.000000,-99.000000,-99.000000,-99.000000,-99.000000,1013.250000,0.000000,25.500000,992,1500,1500,1500,992,1500,1500
1.514100,6871388.779155,7616.178441,-0.000000,2.678807,1.107808,95.855897,7615.417942,0.000000,0.000000,0.000103,0.000011,0.197919,0.000000,0.000000,0.000000,0.000000,0.063506,500000.000002,90.031753,17.201656,-99.000000,-99.000000,-99.000000,-99.000000,-99.000000,-99.000000,1013.250000,0.000000,25.500000,992,1500,1500,1500,992,1500,1500
1.524200,6871388.779155,7616.178441,-0.000000,2.681072,1.102459,95.970326,7615.417942,0.000000,0.000000,0.000097,0.000010,0.197919,0.000000,0.000000,0.000000,0.000000,0.063506,500000.000002,90.031753,17.316086,-99.000000,-99.000000,-99.000000,-99.000000,-99.000000,-99.000000,1013.250000,0.000000,25.500000,992,1500,1500,1500,992,1500,1500
1.534300,6871388.779155,7616.178441,-0.000000,2.683323,1.097105,96.084755,7615.417942,0.000000,0.000000,0.000093,0.000009,0.197919,0.000000,0.000000,0.000000,0.000000,0.063506,500000.000002,90.031753,17.430515,-99.000000,-99.000000,-99.000000,-99.000000,-99.000000,-99.000000,1013.250000,0.000000,25.500000,992,1500,1500,1500,992,1500,1500
1.544400,6871388.779155,7616.178441,-0.000000,2.685561,1.091746,96.199184,7615.417942,0.000000,0.000000,0.000088,0.000009,0.197919,0.000000,0.000000,0.000000,0.000000,0.063506,500000.000002,90.031753,17.544944,-99.000000,-99.000000,-99.000000,-99.000000,-99.000000,-99.000000,1013.250000,0.000000,25.500000,992,1500,1500,1500,992,1500,1500
1.554500,6871388.779155,7616.178441,-0.000000,2.687785,1.086382,96.313612,7615.417942,0.000000,0.000000,0.000084,0.000008,0.197919,0.000000,0.000000,0.000000,0.000000,0.063506,500000.000002,90.031753,17.659372,-99.000000,-99.000000,-99.000000,-99.000000,-99.000000,-99.000000,1013.250000,0.000000,25.500000,992,1500,1500,1500,992,1500,1500
1.564600,6871388.779155,7616.178441,-0.000000,2.689997,1.081013,96.428040,7615.417942,0.000000,0.000000,0.000080,0.000008,0.197919,0.000000,0.000000,0.000000,0.000000,0.063506,500000.000002,90.031753,17.773800,-99.000000,-99.000000,-99.000000,-99.000000,-99.000000,-99.000000,1013.250000,0.000000,25.500000,992,1500,1500,1500,992,1500,1500
1.574700,6871388.779155,7616.178441,-0.000000,2.692195,1.075640,96.542467,7615.417942,0.000000,0.000000,0.000076,0.000007,0.197919,0.000000,0.000000,0.000000,0.000000,0.063506,500000.000002,90.031753,17.888227,-99.000000,-99.000000,-99.000000,-99.000000,-99.000000,-99.000000,1013.250000,0.000000,25.500000,992,1500,1500,1500,992,1500,1500
1.584800,6871388.779155,7616.178441,-0.000000,2.694381,1.070262,96.656894,7615.417942,0.000000,0.000000,0.000072,0.000007,0.197919,0.000000,0.000000,0.000000,0.000000,0.063506,500000.000002,90.031753,18.002654,-99.000000,-99.000000,-99.000000,-99.000000,-99.000000,-99.000000,1013.250000,0.000000,25.500000,992,1500,1500,1500,992,1500,1500
1.594900,6871388.779155,7616.178441,-0.000000,2.696553,1.064880,96.771321,7615.417942,0.000000,0.000000,0.000068,0.000006,0.197919,0.000000,0.000000,0.000000,0.000000,0.063506,500000.000002,90.031753,18.117081,-99.000000,-99.000000,-99.000000,-99.000000,-99.000000,-99.000000,1013.250000,0.000000,25.500000,992,1500,1500,1500,992,1500,1500
1.605000,6871388.779155,7616.178441,-0.000000,2.698713,1.059493,96.885747,7615.417942,0.000000,0.000000,0.000065,0.000006,0.197919,0.000000,0.000000,0.000000,0.000000,0.063506,500000.000002,90.031753,18.231507,-99.000000,-99.000000,-99.000000,-99.000000,-99.000000,-99.000000,1013.250000,0.000000,25.500000,992,1500,1500,1500,992,1500,1500
1.615100,6871388.779155,7616.178441,-0.000000,2.700860,1.054101,97.000173,7615.417942,0.000000,0.000000,0.000062,0.000005,0.197919,0.000000,0.000000,0.000000,0.000000,0.063506,500000.000002,90.031753,18.345933,-99.000000,-99.000000,-99.000000,-99.000000,-99.000000,-99.000000,1013.250000,0.000000,25.500000,992,1500,1500,1500,992,1500,1500
1.625200,6871388.779155,7616.178441,-0.000000,2.702995,1.048705,97.114598,7615.417942,0.000000,0.000000,0.000059,0.000005,0.197919,0.000000,0.000000,0.000000,0.000000,0.063506,500000.000002,90.031753,18.460358,-99.000000,-99.000000,-99.000000,-99.000000,-99.000000,-99.000000,1013.250000,0.000000,25.500000,992,1500,1500,1500,992,1500,1500
1.635300,6871388.779155,7616.178441,-0.000000,2.705117,1.043305,97.229023,7615.417942,0.000000,0.000000,0.000056,0.000005,0.197919,0.000000,0.000000,0.000000,0.000000,0.063506,500000.000002,90.031753,18.574783,-99.000000,-99.000000,-99.000000,-99.000000,-99.000000,-99.000000,1013.250000,0.000000,25.500000,992,1500,1500,1500,992,1500,1500
1.645400,6871388.779155,7616.178441,-0.000000,2.707226,1.037900,97.343448,7615.417942,0.000000,0.000000,0.000053,0.000004,0.197919,0.000000,0.000000,0.000000,0.000000,0.063506,500000.000002,90.031753,18.689207,-99.000000,-99.000000,-99.000000,-99.000000,-99.000000,-99.000000,1013.250000,0.000000,25.500000,992,1500,1500,1500,992,1500,1500
1.655500,6871388.779155,7616.178441,-0.000000,2.709324,1.032490,97.457872,7615.417942,0.000000,0.000000,0.000051,0.000004,0.197919,0.000000,0.000000,0.000000,0.000000,0.063506,500000.000002,90.031753,18.803631,-99.000000,-99.000000,-99.000000,-99.000000,-99.000000,-99.000000,1013.250000,0.000000,25.500000,992,1500,1500,1500,992,1500,1500
1.665600,6871388.779155,7616.178441,-0.000000,2.711409,1.027077,97.572296,7615.417942,0.000000,0.000000,0.000048,0.000004,0.197919,0.000000,0.000000,0.000000,0.000000,0.063506,500000.000002,90.031753,18.918055,-99.000000,-99.000000,-99.000000,-99.000000,-99.000000,-99.000000,1013.250000,0.000000,25.500000,992,1500,1500,1500,992,1500,1500
1.675700,6871388.779155,7616.178441,-0.000000,2.713481,1.021659,97.686719,7615.417942,0.000000,0.000000,0.000046,0.000004,0.197919,0.000000,0.000000,0.000000,0.000000,0.063506,500000.000002,90.031753,19.032479,-99.000000,-99.000000,-99.000000,-99.000000,-99.000000,-99.000000,1013.250000,0.000000,25.500000,992,1500,1500,1500,992,1500,1500
1.685800,6871388.779155,7616.178441,-0.000000,2.715542,1.016237,97.801142,7615.417942,0.000000,0.000000,0.000043,0.000003,0.197919,0.000000,0.000000,0.000000,0.000000,0.063506,500000.000002,90.031753,19.146901,-99.000000,-99.000000,-99.000000,-99.000000,-99.000000,-99.000000,1013.250000,0.000000,25.500000,992,1500,1500,1500,992,1500,1500
1.695900,6871388.779155,7616.178441,-0.000000,2.717590,1.010810,97.915564,7615.417942,0.000000,0.000000,0.000041,0.000003,0.197919,0.000000,0.000000,0.000000,0.000000,0.063506,500000.000002,90.031753,19.261324,-99.000000,-99.000000,-99.000000,-99.000000,-99.000000,-99.000000,1013.250000,0.000000,25.500000,992,1500,1500,1500,992,1500,1500
1.706000,6871388.779155,7616.178441,-0.000000,2.719627,1.005380,98.029987,7615.417942,0.000000,0.000000,0.000039,0.000003,0.197919,0.000000,0.000000,0.000000,0.000000,0.063506,500000.000002,90.031753,19.375746,-99.000000,-99.000000,-99.000000,-99.000000,-99.000000,-99.000000,1013.250000,0.000000,25.500000,992,1500,1500,1500,992,1500,1500
1.716100,6871388.779155,7616.178441,-0.000000,2.721651,0.999945,98.144408,7615.417942,0.000000,0.000000,0.000037,0.000003,0.197919,0.000000,0.000000,0.000000,0.000000,0.063506,500000.000002,90.031753,19.490168,-99.000000,-99.000000,-99.000000,-99.000000,-99.000000,-99.000000,1013.250000,0.000000,25.500000,992,1500,1500,1500,992,1500,1500
1.726200,6871388.779155,7616.178441,-0.000000,2.723664,0.994506,98.258830,7615.417942,0.000000,0.000000,0.000035,0.000003,0.197919,0.000000,0.000000,0.000000,0.000000,0.063506,500000.000002,90.031753,19.604589,-99.000000,-99.000000,-99.000000,-99.000000,-99.000000,-99.000000,1013.250000,0.000000,25.500000,992,1500,1500,1500,992,1500,1500
1.736300,6871388.779155,7616.178441,-0.000000,2.725664,0.989063,98.373251,7615.417942,0.000000,0.000000,0.000034,0.000002,0.197919,0.000000,0.000000,0.000000,0.000000,0.063506,500000.000002,90.031753,19.719010,-99.000000,-99.000000,-99.000000,-99.000000,-99.000000,-99.000000,1013.250000,0.000000,25.500000,992,1500,1500,1500,992,1500,1500
1.746400,6871388.779155,7616.178441,-0.000000,2.727653,0.983616,98.487671,7615.417942,0.000000,0.000000,0.000032,0.000002,0.197919,0.000000,0.000000,0.000000,0.000000,0.063506,500000.000002,90.031753,19.833431,-99.000000,-99.000000,-99.000000,-99.000000,-99.000000,-99.000000,1013.250000,0.000000,25.500000,992,1500,1500,1500,992,1500,1500
1.756500,6871388.779155,7616.178441,-0.000000,2.729630,0.978165,98.602091,7615.417942,0.000000,0.000000,0.000030,0.000002,0.197919,0.000000,0.000000,0.000000,0.000000,0.063506,500000.000002,90.031753,19.947851,-99.000000,-99.000000,-99.000000,-99.000000,-99.000000,-99.000000,1013.250000,0.000000,25.500000,992,1500,1500,1500,992,1500,1500
1.766600,6871388.779155,7616.178441,-0.000000,2.731595,0.972710,98.716511,7615.417942,0.000000,0.000000,0.000029,0.000002,0.197919,0.000000,0.000000,0.000000,0.000000,0.063506,500000.000002,90.031753,20.062271,-99.000000,-99.000000,-99.000000,-99.000000,-99.000000,-99.000000,1013.250000,0.000000,25.500000,992,1500,1500,1500,992,1500,1500
1.776700,6871388.779155,7616.178441,-0.000000,2.733548,0.967250,98.830931,7615.417942,0.000000,0.000000,0.000028,0.000002,0.197919,0.000000,0.000000,0.000000,0.000000,0.063506,500000.000002,90.031753,20.176690,-99.000000,-99.000000,-99.000000,-99.000000,-99.000000,-99.000000,1013.250000,0.000000,25.500000,992,1500,1500,1500,992,1500,1500
