Time (sec) ,Sense X(m) ,Sense Y(m) ,Sense Z(m) ,Sense Roll (deg) ,Sense Pitch (deg) ,Sense Compass (deg) ,Sense U(m/s) ,Sense V(m/s) ,Sense W(m/s) ,Sense P(rad/s) ,Sense Q(rad/s) ,Sense R(rad/s) ,Sense Mx(Gauss) ,Sense My(Gauss) ,Sense Mz(Gauss) ,Sense GPS Latitude (deg) ,Sense GPS Longitude (deg) ,Sense GPS Altitude (m) ,Sense GPS Heading (deg) ,Sense IMU Heading (deg) ,Sense Analog 1 (V) ,Sense Analog 2 (V) ,Sense Analog 3 (V) ,Sense Analog 4 (V) ,Sense Analog 5 (V) ,Sense Analog 6 (V) ,Sense Pressure (Pa) ,Sense Pressure Altitude (m) ,Sense Temperature (C) ,RC Channel #1 ,RC Channel #2 ,RC Channel #3 ,RC Channel #4 ,RC Channel #5 ,PWM Hardware Out 1 ,PWM Hardware Out 2 ,PWM Hardware Out 3 ,PWM Hardware Out 4 
 0.000000,0.000000,0.000000,-nan,0.000000,0.000000,0.000000,0.000000,0.000000,0.000000,0.012451,-0.001511,-0.003608,41.595703,-1.645313,5.820117,-99.000000,-99.000000,0.000000,0.000000,-0.000000,5.145000,0.000000,0.000000,0.000000,0.020000,0.026000,0.000000,nan,0.000000,992,1500,1500,1500,992,992,1500,1500,1500
 0.256520,0.000000,0.000000,-nan,-7.073017,1.689761,0.067536,0.000000,0.000000,0.000000,0.012451,-0.001511,-0.002543,41.232422,0.182813,6.172852,-99.000000,-99.000000,0.000000,0.000000,0.067536,5.145000,0.000000,0.000000,0.000000,0.020000,0.026000,0.000000,nan,0.000000,992,1500,1500,1500,992,992,1500,1500,1500
 0.357561,0.000000,0.000000,-nan,-9.191067,2.207383,0.138007,0.000000,0.000000,0.000000,0.009259,-0.002575,0.004906,41.232422,0.182813,6.172852,-99.000000,-99.000000,0.000000,0.000000,0.138007,5.145000,0.000000,0.000000,0.000000,0.020000,0.026000,0.000000,nan,0.000000,992,1500,1500,1500,992,992,1500,1500,1500
 0.457703,0.000000,0.000000,-nan,-11.133148,2.717336,0.229904,0.000000,0.000000,0.000000,0.010323,0.001681,0.000649,40.324219,0.731250,4.938282,-99.000000,-99.000000,0.000000,0.000000,0.229904,5.145000,0.000000,0.000000,0.000000,0.020000,0.026000,0.000000,nan,0.000000,992,1500,1500,1500,992,992,1500,1500,1500
 0.558982,0.000000,0.000000,-nan,-12.908389,3.159505,0.323181,0.000000,0.000000,0.000000,-0.001383,0.001681,0.000649,40.869141,-0.548438,6.525586,-99.000000,-99.000000,0.000000,0.000000,0.323181,5.145000,0.000000,0.000000,0.000000,0.020000,0.026000,0.000000,nan,0.000000,992,1500,1500,1500,992,992,1500,1500,1500
 0.659407,0.000000,0.000000,-nan,-14.519155,3.563059,0.420129,0.000000,0.000000,0.000000,0.002873,0.001681,-0.007865,40.869141,-0.548438,6.525586,-99.000000,-99.000000,0.000000,0.000000,0.420129,5.145000,0.000000,0.000000,0.000000,0.020000,0.026000,0.000000,nan,0.000000,992,1500,1500,1500,992,992,1500,1500,1500
 0.760914,0.000000,0.000000,-nan,-15.965845,3.963932,0.523048,0.000000,0.000000,0.000000,-0.008833,-0.006832,0.009163,40.869141,-0.548438,6.525586,-99.000000,-99.000000,0.000000,0.000000,0.523048,5.145000,0.000000,0.000000,0.000000,0.020000,0.026000,0.000000,nan,0.000000,992,1500,1500,1500,992,992,1500,1500,1500
 0.861281,0.000000,0.000000,-nan,-17.315779,4.294056,0.653315,0.000000,0.000000,0.000000,0.002873,-0.000447,0.000649,40.869141,-0.548438,6.525586,-99.000000,-99.000000,0.000000,0.000000,0.653315,5.145000,0.000000,0.000000,0.000000,0.020000,0.026000,0.000000,nan,0.000000,992,1500,1500,1500,992,992,1500,1500,1500
 0.962719,0.000000,0.000000,-nan,-18.509925,4.644161,0.732128,0.000000,0.000000,0.000000,0.003938,-0.000447,-0.006800,40.869141,-0.548438,6.525586,-99.000000,-99.000000,0.000000,0.000000,0.732128,5.145000,0.000000,0.000000,0.000000,0.020000,0.026000,0.000000,nan,0.000000,992,1500,1500,1500,992,992,1500,1500,1500
 1.144744,0.000000,0.000000,-nan,-20.480424,5.233864,0.085687,0.000000,0.000000,0.000000,0.006066,0.003810,-0.007865,41.595703,-0.914063,4.056446,-99.000000,-99.000000,0.000000,0.000000,0.850307,5.145000,0.000000,0.000000,0.000000,0.020000,0.026000,0.000000,nan,0.000000,992,1500,1500,1500,992,992,1500,1500,1500
 1.245791,0.000000,0.000000,-0.000000,-21.335527,5.487574,0.141686,0.000000,0.000000,0.000000,0.001809,0.004874,-0.002543,41.595703,-1.279688,4.761914,-99.000000,-99.000000,0.000000,0.000000,0.906306,5.145000,0.000000,0.000000,0.000000,0.020000,0.026000,1018.544434,0.000000,25.548464,992,1500,1500,1500,992,992,1500,1500,1500
 1.346195,0.000000,0.000000,-0.000000,-22.160565,5.722884,0.263835,0.000000,0.000000,0.000000,-0.008833,-0.000447,0.007035,41.595703,-1.279688,4.761914,-99.000000,-99.000000,0.000000,0.000000,1.028455,5.145000,0.000000,0.000000,0.000000,0.020000,0.026000,1018.544434,0.000000,25.548464,992,1500,1500,1500,992,992,1500,1500,1500
 1.447654,0.000000,0.000000,-0.000000,-22.924743,5.920743,0.343277,0.000000,0.000000,0.000000,0.000745,-0.001511,-0.004672,40.324219,-0.731250,4.585547,-99.000000,-99.000000,0.000000,0.000000,1.107898,5.145000,0.000000,0.000000,0.000000,0.020000,0.026000,1018.544434,0.000000,25.548464,992,1500,1500,1500,992,992,1500,1500,1500
 1.548618,0.000000,0.000000,-0.000000,-23.570212,6.116299,0.417277,0.000000,0.000000,0.000000,-0.008833,-0.003640,0.003842,40.324219,-0.731250,4.585547,-99.000000,-99.000000,0.000000,0.000000,1.181897,5.145000,0.000000,0.000000,0.000000,0.020000,0.026000,1018.544434,0.000000,25.548464,992,1500,1500,1500,992,992,1500,1500,1500
 1.649581,0.000000,0.000000,-0.000000,-24.193929,6.281377,0.489410,0.000000,0.000000,0.000000,0.001809,0.000617,-0.002543,40.324219,-0.731250,4.585547,-99.000000,-99.000000,0.000000,0.000000,1.254030,5.145000,0.000000,0.000000,0.000000,0.020000,0.026000,1018.544434,0.000000,25.548464,992,1500,1500,1500,992,992,1500,1500,1500
 1.750437,0.000000,0.000000,-0.000000,-24.737563,6.440500,0.533196,0.000000,0.000000,0.000000,0.001809,-0.000447,-0.002543,40.324219,-0.731250,4.585547,-99.000000,-99.000000,0.000000,0.000000,1.297816,5.145000,0.000000,0.000000,0.000000,0.020000,0.026000,1018.544434,0.000000,25.548464,992,1500,1500,1500,992,992,1500,1500,1500
 1.851592,0.000000,0.000000,-0.000000,-25.233144,6.588110,0.600658,0.000000,0.000000,0.000000,-0.004576,-0.000447,0.005970,40.324219,-0.731250,4.585547,-99.000000,-99.000000,0.000000,0.000000,1.365278,5.145000,0.000000,0.000000,0.000000,0.020000,0.026000,1018.544434,0.000000,25.548464,992,1500,1500,1500,992,992,1500,1500,1500
 1.952692,0.000000,0.000000,-0.000000,-25.690860,6.718157,0.674106,0.000000,0.000000,0.000000,0.002873,0.002746,-0.005736,40.505859,-0.548438,5.467383,-99.000000,-99.000000,0.000000,0.000000,1.438726,5.145000,0.000000,0.000000,0.000000,0.020000,0.026000,1018.544434,0.000000,25.548464,992,1500,1500,1500,992,992,1500,1500,1500
 2.157785,0.000000,0.000000,-0.000000,-26.438486,6.969306,0.067626,0.000000,0.000000,0.000000,0.000745,0.001681,-0.001479,40.505859,-0.548438,5.467383,-99.000000,-99.000000,0.000000,0.000000,1.528746,5.145000,0.000000,0.000000,0.000000,0.020000,0.026000,1018.544434,0.000000,25.548464,992,1500,1500,1500,992,992,1500,1500,1500
 2.258342,0.000000,0.000000,-5477.323543,-26.777401,7.069384,0.122005,0.000000,0.000000,0.000000,-0.002448,0.002746,0.002778,42.685547,-0.182813,4.056446,-99.000000,-99.000000,0.000000,0.000000,1.583125,5.145000,0.000000,0.000000,0.000000,0.020000,0.026000,1018.570557,5477.323543,25.566084,992,1500,1500,1500,992,992,1500,1500,1500
 2.359159,0.000000,0.000000,-5477.323543,-27.073186,7.170290,0.168357,0.000000,0.000000,0.000000,0.007130,0.000617,0.003842,42.685547,-0.182813,4.056446,-99.000000,-99.000000,0.000000,0.000000,1.629476,5.145000,0.000000,0.000000,0.000000,0.020000,0.026000,1018.570557,5477.323543,25.566084,992,1500,1500,1500,992,992,1500,1500,1500
 2.459397,0.000000,0.000000,-5477.323543,-27.355787,7.260994,0.222716,0.000000,0.000000,0.000000,-0.003512,-0.001511,0.003842,42.685547,-0.182813,4.056446,-99.000000,-99.000000,0.000000,0.000000,1.683836,5.145000,0.000000,0.000000,0.000000,0.020000,0.026000,1018.570557,5477.323543,25.566084,992,1500,1500,1500,992,992,1500,1500,1500
 2.560937,0.000000,0.000000,-5477.323543,-27.603404,7.325748,0.242490,0.000000,0.000000,0.000000,0.000745,0.000617,-0.000415,41.050781,-1.462500,3.880078,-99.000000,-99.000000,0.000000,0.000000,1.703610,5.145000,0.000000,0.000000,0.000000,0.020000,0.026000,1018.570557,5477.323543,25.566084,992,1500,1500,1500,992,992,1500,1500,1500
 2.661066,0.000000,0.000000,-5477.323543,-27.826713,7.396999,0.285199,0.000000,0.000000,0.000000,-0.000319,0.001681,0.001713,41.050781,-0.365625,3.880078,-99.000000,-99.000000,0.000000,0.000000,1.746319,5.145000,0.000000,0.000000,0.000000,0.020000,0.026000,1018.570557,5477.323543,25.566084,992,1500,1500,1500,992,992,1500,1500,1500
 2.762498,0.000000,0.000000,-5477.323543,-28.026623,7.447448,0.288558,0.000000,0.000000,0.000000,0.006066,0.004874,-0.001479,41.050781,-0.365625,2.469141,-99.000000,-99.000000,0.000000,0.000000,1.749678,5.145000,0.000000,0.000000,0.000000,0.020000,0.026000,1018.570557,5477.323543,25.566084,992,1500,1500,1500,992,992,1500,1500,1500
 2.862700,0.000000,0.000000,-5477.323543,-28.194493,7.518399,0.329670,0.000000,0.000000,0.000000,0.000745,-0.001511,0.000649,41.050781,-0.365625,2.469141,-99.000000,-99.000000,0.000000,0.000000,1.790789,5.145000,0.000000,0.000000,0.000000,0.020000,0.026000,1018.570557,5477.323543,25.566084,992,1500,1500,1500,992,992,1500,1500,1500
 2.963579,0.000000,0.000000,-5477.323543,-28.387294,7.556750,0.352904,0.000000,0.000000,0.000000,0.006066,0.001681,-0.005736,41.050781,-0.365625,2.469141,-99.000000,-99.000000,0.000000,0.000000,1.814024,5.145000,0.000000,0.000000,0.000000,0.020000,0.026000,1018.570557,5477.323543,25.566084,992,1500,1500,1500,992,992,1500,1500,1500
 3.156436,0.000000,0.000000,-5477.323543,-28.745651,7.779481,0.139923,0.000000,0.000000,0.000000,-0.004576,-0.000447,0.004906,41.050781,-0.365625,2.469141,-99.000000,-99.000000,0.000000,0.000000,1.945162,5.145000,0.000000,0.000000,0.000000,0.020000,0.026000,1018.570557,5477.323543,25.566084,992,1500,1500,1500,992,992,1500,1500,1500
 3.256671,0.000000,0.000000,-8361.881656,-28.867202,7.793868,0.125540,0.000000,0.000000,0.000000,0.010323,0.005938,-0.009993,42.685547,-0.182813,3.350977,-99.000000,-99.000000,0.000000,0.000000,1.930779,5.145000,0.000000,0.000000,0.000000,0.020000,0.026000,1018.620728,8361.881656,25.594107,992,1500,1500,1500,992,992,1500,1500,1500
 3.357867,0.000000,0.000000,-8361.881656,-28.934211,7.829847,0.137479,0.000000,0.000000,0.000000,-0.007769,0.000617,0.003842,42.867188,-2.193750,5.291016,-99.000000,-99.000000,0.000000,0.000000,1.942718,5.145000,0.000000,0.000000,0.000000,0.020000,0.026000,1018.620728,8361.881656,25.594107,992,1500,1500,1500,992,992,1500,1500,1500
 3.458474,0.000000,0.000000,-8361.881656,-29.049383,7.847344,0.167960,0.000000,0.000000,0.000000,0.005002,0.002746,-0.001479,42.867188,-2.193750,5.291016,-99.000000,-99.000000,0.000000,0.000000,1.973199,5.145000,0.000000,0.000000,0.000000,0.020000,0.026000,1018.620728,8361.881656,25.594107,992,1500,1500,1500,992,992,1500,1500,1500
 3.558777,0.000000,0.000000,-8361.881656,-29.109017,7.867638,0.151015,0.000000,0.000000,0.000000,-0.001383,0.001681,-0.002543,42.867188,-2.193750,5.291016,-99.000000,-99.000000,0.000000,0.000000,1.956254,5.145000,0.000000,0.000000,0.000000,0.020000,0.026000,1018.620728,8361.881656,25.594107,992,1500,1500,1500,992,992,1500,1500,1500
 3.658884,0.000000,0.000000,-8361.881656,-29.185690,7.894565,0.182619,0.000000,0.000000,0.000000,-0.004576,-0.002575,0.001713,40.869141,-1.279688,4.056446,-99.000000,-99.000000,0.000000,0.000000,1.987857,5.145000,0.000000,0.000000,0.000000,0.020000,0.026000,1018.620728,8361.881656,25.594107,992,1500,1500,1500,992,992,1500,1500,1500
 3.759260,0.000000,0.000000,-8361.881656,-29.266242,7.901067,0.191653,0.000000,0.000000,0.000000,-0.000319,0.000617,-0.001479,40.869141,-1.279688,4.056446,-99.000000,-99.000000,0.000000,0.000000,1.996892,5.145000,0.000000,0.000000,0.000000,0.020000,0.026000,1018.620728,8361.881656,25.594107,992,1500,1500,1500,992,992,1500,1500,1500
 3.860654,0.000000,0.000000,-8361.881656,-29.309693,7.910346,0.188822,0.000000,0.000000,0.000000,-0.002448,-0.003640,-0.001479,40.869141,-1.279688,4.056446,-99.000000,-99.000000,0.000000,0.000000,1.994061,5.145000,0.000000,0.000000,0.000000,0.020000,0.026000,1018.620728,8361.881656,25.594107,992,1500,1500,1500,992,992,1500,1500,1500
 3.961404,0.000000,0.000000,-8361.881656,-29.388938,7.939486,0.226754,0.000000,0.000000,0.000000,-0.001383,-0.001511,0.001713,40.869141,-1.279688,4.056446,-99.000000,-99.000000,0.000000,0.000000,2.031992,5.145000,0.000000,0.000000,0.000000,0.020000,0.026000,1018.620728,8361.881656,25.594107,992,1500,1500,1500,992,992,1500,1500,1500
 4.157529,0.000000,0.000000,-8361.881656,-29.577610,7.916283,0.012492,0.000000,0.000000,0.000000,-0.000319,-0.001511,0.001713,40.687500,-0.365625,6.349219,-99.000000,-99.000000,0.000000,0.000000,2.040675,5.145000,0.000000,0.000000,0.000000,0.020000,0.026000,1018.620728,8361.881656,25.594107,992,1500,1500,1500,992,992,1500,1500,1500
 4.258276,0.000000,0.000000,-10277.868625,-29.615493,7.921463,0.021765,0.000000,0.000000,0.000000,-0.001383,-0.002575,-0.003608,41.414062,-1.462500,4.585547,-99.000000,-99.000000,0.000000,0.000000,2.049948,5.145000,0.000000,0.000000,0.000000,0.020000,0.026000,1018.622681,10277.868625,25.614197,992,1500,1500,1500,992,992,1500,1500,1500
 4.358689,0.000000,0.000000,-10277.868625,-29.635727,7.934293,0.019234,0.000000,0.000000,0.000000,-0.000319,-0.000447,0.000649,41.414062,-1.462500,4.585547,-99.000000,-99.000000,0.000000,0.000000,2.047417,5.145000,0.000000,0.000000,0.000000,0.020000,0.026000,1018.622681,10277.868625,25.614197,992,1500,1500,1500,992,992,1500,1500,1500
 4.460236,0.000000,0.000000,-10277.868625,-29.676762,7.951422,0.045017,0.000000,0.000000,0.000000,-0.000319,-0.005768,0.002778,41.414062,-1.462500,4.585547,-99.000000,-99.000000,0.000000,0.000000,2.073200,5.145000,0.000000,0.000000,0.000000,0.020000,0.026000,1018.622681,10277.868625,25.614197,992,1500,1500,1500,992,992,1500,1500,1500
 4.560365,0.000000,0.000000,-10277.868625,-29.693102,7.950103,0.036046,0.000000,0.000000,0.000000,-0.000319,0.000617,-0.000415,41.232422,-2.010938,3.703711,-99.000000,-99.000000,0.000000,0.000000,2.064229,5.145000,0.000000,0.000000,0.000000,0.020000,0.026000,1018.622681,10277.868625,25.614197,992,1500,1500,1500,992,992,1500,1500,1500
 4.660504,0.000000,0.000000,-10277.868625,-29.703194,7.960295,0.037308,0.000000,0.000000,0.000000,-0.002448,0.001681,0.004906,41.232422,-2.010938,3.703711,-99.000000,-99.000000,0.000000,0.000000,2.065491,5.145000,0.000000,0.000000,0.000000,0.020000,0.026000,1018.622681,10277.868625,25.614197,992,1500,1500,1500,992,992,1500,1500,1500
 4.761786,0.000000,0.000000,-10277.868625,-29.726728,7.973445,0.050236,0.000000,0.000000,0.000000,0.003938,-0.000447,0.002778,39.960938,0.365625,4.938282,-99.000000,-99.000000,0.000000,0.000000,2.078419,5.145000,0.000000,0.000000,0.000000,0.020000,0.026000,1018.622681,10277.868625,25.614197,992,1500,1500,1500,992,992,1500,1500,1500
 4.861928,0.000000,0.000000,-10277.868625,-29.745159,7.979369,0.049539,0.000000,0.000000,0.000000,-0.001383,0.000617,0.000649,39.960938,0.365625,4.938282,-99.000000,-99.000000,0.000000,0.000000,2.077722,5.145000,0.000000,0.000000,0.000000,0.020000,0.026000,1018.622681,10277.868625,25.614197,992,1500,1500,1500,992,992,1500,1500,1500
 4.962021,0.000000,0.000000,-10277.868625,-29.762323,7.986554,0.062759,0.000000,0.000000,0.000000,-0.006705,-0.001511,0.001713,39.960938,0.365625,4.938282,-99.000000,-99.000000,0.000000,0.000000,2.090941,5.145000,0.000000,0.000000,0.000000,0.020000,0.026000,1018.622681,10277.868625,25.614197,992,1500,1500,1500,992,992,1500,1500,1500
 5.157507,0.000000,0.000000,-10277.868625,-29.777597,8.036445,0.002527,0.000000,0.000000,0.000000,0.000745,0.000617,-0.002543,41.777344,0.000000,4.232813,-99.000000,-99.000000,0.000000,0.000000,2.099857,5.145000,0.000000,0.000000,0.000000,0.020000,0.026000,1018.622681,10277.868625,25.614197,992,1500,1500,1500,992,992,1500,1500,1500
 5.259012,0.000000,0.000000,-11693.705504,-29.815896,8.038453,0.029189,0.000000,0.000000,0.000000,-0.003512,0.005938,0.004906,41.414062,-0.731250,5.996485,-99.000000,-99.000000,0.000000,0.000000,2.126520,5.145000,0.000000,0.000000,0.000000,0.020000,0.026000,1018.571228,11693.705504,25.615107,992,1500,1500,1500,992,992,1500,1500,1500
 5.360286,0.000000,0.000000,-11693.705504,-29.819990,8.041476,0.019885,0.000000,0.000000,0.000000,0.000745,-0.001511,-0.005736,41.414062,-0.731250,5.996485,-99.000000,-99.000000,0.000000,0.000000,2.117215,5.145000,0.000000,0.000000,0.000000,0.020000,0.026000,1018.571228,11693.705504,25.615107,992,1500,1500,1500,992,992,1500,1500,1500
 5.460618,0.000000,0.000000,-11693.705504,-29.803244,8.048765,0.014207,0.000000,0.000000,0.000000,0.001809,-0.000447,0.000649,41.414062,-0.731250,5.996485,-99.000000,-99.000000,0.000000,0.000000,2.111537,5.145000,0.000000,0.000000,0.000000,0.020000,0.026000,1018.571228,11693.705504,25.615107,992,1500,1500,1500,992,992,1500,1500,1500
 5.560943,0.000000,0.000000,-11693.705504,-29.837466,8.050243,0.043340,0.000000,0.000000,0.000000,-0.000319,-0.004704,0.001713,41.414062,-0.731250,5.996485,-99.000000,-99.000000,0.000000,0.000000,2.140671,5.145000,0.000000,0.000000,0.000000,0.020000,0.026000,1018.571228,11693.705504,25.615107,992,1500,1500,1500,992,992,1500,1500,1500
 5.661315,0.000000,0.000000,-11693.705504,-29.848915,8.044699,0.038590,0.000000,0.000000,0.000000,-0.000319,0.002746,0.001713,41.414062,-0.731250,4.938282,-99.000000,-99.000000,0.000000,0.000000,2.135921,5.145000,0.000000,0.000000,0.000000,0.020000,0.026000,1018.571228,11693.705504,25.615107,992,1500,1500,1500,992,992,1500,1500,1500
 5.762239,0.000000,0.000000,-11693.705504,-29.842904,8.046952,0.036313,0.000000,0.000000,0.000000,0.001809,-0.001511,-0.001479,40.687500,-2.925000,4.938282,-99.000000,-99.000000,0.000000,0.000000,2.133643,5.145000,0.000000,0.000000,0.000000,0.020000,0.026000,1018.571228,11693.705504,25.615107,992,1500,1500,1500,992,992,1500,1500,1500
 5.862431,0.000000,0.000000,-11693.705504,-29.852567,8.055064,0.045302,0.000000,0.000000,0.000000,0.005002,-0.000447,-0.000415,40.687500,-2.925000,4.938282,-99.000000,-99.000000,0.000000,0.000000,2.142633,5.145000,0.000000,0.000000,0.000000,0.020000,0.026000,1018.571228,11693.705504,25.615107,992,1500,1500,1500,992,992,1500,1500,1500
 5.962659,0.000000,0.000000,-11693.705504,-29.838103,8.045905,0.023175,0.000000,0.000000,0.000000,0.001809,0.000617,-0.004672,40.687500,-2.925000,4.938282,-99.000000,-99.000000,0.000000,0.000000,2.120505,5.145000,0.000000,0.000000,0.000000,0.020000,0.026000,1018.571228,11693.705504,25.615107,992,1500,1500,1500,992,992,1500,1500,1500
 6.161364,0.000000,0.000000,-11693.705504,-29.714025,8.103301,-0.026344,0.000000,0.000000,0.000000,0.005002,0.005938,-0.002543,42.140625,-1.828125,5.643750,-99.000000,-99.000000,0.000000,0.000000,2.099606,5.145000,0.000000,0.000000,0.000000,0.020000,0.026000,1018.571228,11693.705504,25.615107,992,1500,1500,1500,992,992,1500,1500,1500
 6.261657,0.000000,0.000000,-11693.705504,-29.719175,8.101634,-0.030628,0.000000,0.000000,0.000000,-0.001383,0.000617,0.000649,40.869141,-0.914063,4.056446,-99.000000,-99.000000,0.000000,0.000000,2.095322,5.145000,0.000000,0.000000,0.000000,0.020000,0.026000,1018.571228,11693.705504,25.615107,992,1500,1500,1500,992,992,1500,1500,1500
 6.361849,0.000000,0.000000,0.191149,-29.745234,8.091590,-0.044845,0.000000,0.000000,0.000000,0.001809,0.000617,-0.004672,40.869141,-0.914063,4.056446,-99.000000,-99.000000,0.000000,0.000000,2.081105,5.145000,0.000000,0.000000,0.000000,0.020000,0.026000,1018.609009,-0.191149,25.622713,992,1500,1500,1500,992,992,1500,1500,1500
 6.463234,0.000000,0.000000,0.191149,-29.735852,8.089501,-0.054096,0.000000,0.000000,0.000000,-0.006705,-0.003640,0.002778,40.869141,-0.914063,4.056446,-99.000000,-99.000000,0.000000,0.000000,2.071854,5.145000,0.000000,0.000000,0.000000,0.020000,0.026000,1018.609009,-0.191149,25.622713,992,1500,1500,1500,992,992,1500,1500,1500
 6.564785,0.000000,0.000000,0.191149,-29.782429,8.088517,-0.028834,0.000000,0.000000,0.000000,-0.000319,-0.003640,0.000649,40.869141,-0.914063,4.056446,-99.000000,-99.000000,0.000000,0.000000,2.097117,5.145000,0.000000,0.000000,0.000000,0.020000,0.026000,1018.609009,-0.191149,25.622713,992,1500,1500,1500,992,992,1500,1500,1500
 6.664787,0.000000,0.000000,0.191149,-29.782539,8.082371,-0.053624,0.000000,0.000000,0.000000,0.005002,-0.000447,-0.004672,39.960938,-1.096875,3.880078,-99.000000,-99.000000,0.000000,0.000000,2.072326,5.145000,0.000000,0.000000,0.000000,0.020000,0.026000,1018.609009,-0.191149,25.622713,992,1500,1500,1500,992,992,1500,1500,1500
 6.765049,0.000000,0.000000,0.191149,-29.789073,8.097015,-0.026010,0.000000,0.000000,0.000000,-0.007769,-0.001511,0.007035,39.779297,-0.914063,5.114649,-99.000000,-99.000000,0.000000,0.000000,2.099940,5.145000,0.000000,0.000000,0.000000,0.020000,0.026000,1018.609009,-0.191149,25.622713,992,1500,1500,1500,992,992,1500,1500,1500
 6.865869,0.000000,0.000000,0.191149,-29.821424,8.078913,-0.034104,0.000000,0.000000,0.000000,0.007130,-0.000447,-0.004672,41.050781,-0.731250,5.291016,-99.000000,-99.000000,0.000000,0.000000,2.091846,5.145000,0.000000,0.000000,0.000000,0.020000,0.026000,1018.609009,-0.191149,25.622713,992,1500,1500,1500,992,992,1500,1500,1500
 6.966250,0.000000,0.000000,0.191149,-29.804776,8.083508,-0.054978,0.000000,0.000000,0.000000,0.001809,-0.004704,0.000649,41.050781,-0.731250,5.291016,-99.000000,-99.000000,0.000000,0.000000,2.070973,5.145000,0.000000,0.000000,0.000000,0.020000,0.026000,1018.609009,-0.191149,25.622713,992,1500,1500,1500,992,992,1500,1500,1500
 7.167413,0.000000,0.000000,0.191149,-29.948659,8.065308,-0.103145,0.000000,0.000000,0.000000,0.010323,0.005938,-0.006800,41.050781,-0.731250,5.291016,-99.000000,-99.000000,0.000000,0.000000,1.981469,5.145000,0.000000,0.000000,0.000000,0.020000,0.026000,1018.609009,-0.191149,25.622713,992,1500,1500,1500,992,992,1500,1500,1500
 7.268874,0.000000,0.000000,0.191149,-29.899865,8.072007,-0.142682,0.000000,0.000000,0.000000,-0.002448,0.000617,-0.001479,42.867188,-1.828125,4.585547,-99.000000,-99.000000,0.000000,0.000000,1.941932,5.145000,0.000000,0.000000,0.000000,0.020000,0.026000,1018.609009,-0.191149,25.622713,992,1500,1500,1500,992,992,1500,1500,1500
 7.370349,0.000000,0.000000,-0.036289,-29.925860,8.077382,-0.090479,0.000000,0.000000,0.000000,-0.006705,-0.001511,0.005970,41.414062,-0.365625,5.291016,-99.000000,-99.000000,0.000000,0.000000,1.994135,5.145000,0.000000,0.000000,0.000000,0.020000,0.026000,1018.581543,0.036289,25.609451,992,1500,1500,1500,992,992,1500,1500,1500
 7.471883,0.000000,0.000000,-0.036289,-29.934048,8.070645,-0.113522,0.000000,0.000000,0.000000,0.009259,0.000617,-0.005736,41.414062,-0.365625,5.291016,-99.000000,-99.000000,0.000000,0.000000,1.971091,5.145000,0.000000,0.000000,0.000000,0.020000,0.026000,1018.581543,0.036289,25.609451,992,1500,1500,1500,992,992,1500,1500,1500
 7.571898,0.000000,0.000000,-0.036289,-29.907734,8.073009,-0.115898,0.000000,0.000000,0.000000,-0.004576,-0.001511,0.002778,41.414062,-0.365625,5.291016,-99.000000,-99.000000,0.000000,0.000000,1.968716,5.145000,0.000000,0.000000,0.000000,0.020000,0.026000,1018.581543,0.036289,25.609451,992,1500,1500,1500,992,992,1500,1500,1500
 7.673319,0.000000,0.000000,-0.036289,-29.930496,8.068010,-0.111262,0.000000,0.000000,0.000000,0.003938,0.003810,0.000649,41.414062,-0.365625,5.291016,-99.000000,-99.000000,0.000000,0.000000,1.973352,5.145000,0.000000,0.000000,0.000000,0.020000,0.026000,1018.581543,0.036289,25.609451,992,1500,1500,1500,992,992,1500,1500,1500
 7.774718,0.000000,0.000000,-0.036289,-29.904189,8.070141,-0.129647,0.000000,0.000000,0.000000,0.002873,-0.001511,0.002778,41.414062,-0.365625,5.291016,-99.000000,-99.000000,0.000000,0.000000,1.954967,5.145000,0.000000,0.000000,0.000000,0.020000,0.026000,1018.581543,0.036289,25.609451,992,1500,1500,1500,992,992,1500,1500,1500
 7.876103,0.000000,0.000000,-0.036289,-29.920312,8.067334,-0.104638,0.000000,0.000000,0.000000,-0.002448,-0.003640,0.004906,41.414062,-0.365625,5.291016,-99.000000,-99.000000,0.000000,0.000000,1.979976,5.145000,0.000000,0.000000,0.000000,0.020000,0.026000,1018.581543,0.036289,25.609451,992,1500,1500,1500,992,992,1500,1500,1500
 7.976197,0.000000,0.000000,-0.036289,-29.930915,8.057769,-0.110470,0.000000,0.000000,0.000000,0.006066,0.000617,-0.004672,40.142578,0.548438,4.056446,-99.000000,-99.000000,0.000000,0.000000,1.974144,5.145000,0.000000,0.000000,0.000000,0.020000,0.026000,1018.581543,0.036289,25.609451,992,1500,1500,1500,992,992,1500,1500,1500
 8.160950,0.000000,0.000000,-0.036289,-30.009910,8.043788,0.014873,0.000000,0.000000,0.000000,-0.003512,-0.001511,0.001713,39.960938,-0.365625,4.938282,-99.000000,-99.000000,0.000000,0.000000,1.981493,5.145000,0.000000,0.000000,0.000000,0.020000,0.026000,1018.581543,0.036289,25.609451,992,1500,1500,1500,992,992,1500,1500,1500
 8.261273,0.000000,0.000000,-0.036289,-30.006731,8.040536,0.008800,0.000000,0.000000,0.000000,-0.004576,-0.000447,-0.002543,39.960938,-0.365625,4.938282,-99.000000,-99.000000,0.000000,0.000000,1.975419,5.145000,0.000000,0.000000,0.000000,0.020000,0.026000,1018.581543,0.036289,25.609451,992,1500,1500,1500,992,992,1500,1500,1500
 8.361417,0.000000,0.000000,0.092088,-29.989926,8.048224,0.018315,0.000000,0.000000,0.000000,-0.000319,0.001681,0.002778,39.960938,-0.365625,4.938282,-99.000000,-99.000000,0.000000,0.000000,1.984934,5.145000,0.000000,0.000000,0.000000,0.020000,0.026000,1018.597046,-0.092088,25.616343,992,1500,1500,1500,992,992,1500,1500,1500
 8.462064,0.000000,0.000000,0.092088,-29.986430,8.046056,0.014626,0.000000,0.000000,0.000000,0.002873,0.000617,-0.002543,39.960938,-0.365625,4.938282,-99.000000,-99.000000,0.000000,0.000000,1.981246,5.145000,0.000000,0.000000,0.000000,0.020000,0.026000,1018.597046,-0.092088,25.616343,992,1500,1500,1500,992,992,1500,1500,1500
 8.562096,0.000000,0.000000,0.092088,-29.994393,8.049583,0.015650,0.000000,0.000000,0.000000,0.005002,-0.003640,-0.004672,40.869141,-1.279688,3.703711,-99.000000,-99.000000,0.000000,0.000000,1.982269,5.145000,0.000000,0.000000,0.000000,0.020000,0.026000,1018.597046,-0.092088,25.616343,992,1500,1500,1500,992,992,1500,1500,1500
 8.663296,0.000000,0.000000,0.092088,-29.959916,8.043791,-0.008986,0.000000,0.000000,0.000000,-0.003512,-0.002575,-0.002543,40.869141,-1.279688,3.703711,-99.000000,-99.000000,0.000000,0.000000,1.957633,5.145000,0.000000,0.000000,0.000000,0.020000,0.026000,1018.597046,-0.092088,25.616343,992,1500,1500,1500,992,992,1500,1500,1500
 8.764136,0.000000,0.000000,0.092088,-29.972840,8.058845,0.032114,0.000000,0.000000,0.000000,-0.009897,0.003810,0.000649,40.869141,-1.279688,3.703711,-99.000000,-99.000000,0.000000,0.000000,1.998733,5.145000,0.000000,0.000000,0.000000,0.020000,0.026000,1018.597046,-0.092088,25.616343,992,1500,1500,1500,992,992,1500,1500,1500
 8.864447,0.000000,0.000000,0.092088,-29.979718,8.048990,0.013382,0.000000,0.000000,0.000000,-0.000319,0.000617,-0.007865,40.869141,-1.279688,3.703711,-99.000000,-99.000000,0.000000,0.000000,1.980001,5.145000,0.000000,0.000000,0.000000,0.020000,0.026000,1018.597046,-0.092088,25.616343,992,1500,1500,1500,992,992,1500,1500,1500
 8.965916,0.000000,0.000000,0.092088,-29.954120,8.059056,0.015116,0.000000,0.000000,0.000000,-0.006705,-0.005768,0.007035,43.412109,-1.279688,4.761914,-99.000000,-99.000000,0.000000,0.000000,1.981735,5.145000,0.000000,0.000000,0.000000,0.020000,0.026000,1018.597046,-0.092088,25.616343,992,1500,1500,1500,992,992,1500,1500,1500
 9.165681,0.000000,0.000000,0.092088,-29.986864,8.016160,0.022425,0.000000,0.000000,0.000000,-0.004576,-0.001511,0.003842,41.595703,-3.107813,4.761914,-99.000000,-99.000000,0.000000,0.000000,2.012254,5.145000,0.000000,0.000000,0.000000,0.020000,0.026000,1018.597046,-0.092088,25.616343,992,1500,1500,1500,992,992,1500,1500,1500
 9.267177,0.000000,0.000000,0.092088,-29.993154,8.029249,0.050554,0.000000,0.000000,0.000000,-0.001383,0.003810,-0.002543,41.595703,-3.107813,4.761914,-99.000000,-99.000000,0.000000,0.000000,2.040383,5.145000,0.000000,0.000000,0.000000,0.020000,0.026000,1018.597046,-0.092088,25.616343,992,1500,1500,1500,992,992,1500,1500,1500
 9.368073,0.000000,0.000000,-0.230375,-29.980971,8.017753,0.017958,0.000000,0.000000,0.000000,0.008195,-0.001511,-0.004672,41.595703,-3.107813,4.761914,-99.000000,-99.000000,0.000000,0.000000,2.007786,5.145000,0.000000,0.000000,0.000000,0.020000,0.026000,1018.558105,0.230375,25.639359,992,1500,1500,1500,992,992,1500,1500,1500
 9.469169,0.000000,0.000000,-0.230375,-29.956932,8.040281,0.040971,0.000000,0.000000,0.000000,-0.004576,-0.004704,0.005970,41.958984,-0.914063,5.114649,-99.000000,-99.000000,0.000000,0.000000,2.030800,5.145000,0.000000,0.000000,0.000000,0.020000,0.026000,1018.558105,0.230375,25.639359,992,1500,1500,1500,992,992,1500,1500,1500
 9.569750,0.000000,0.000000,-0.230375,-29.993141,8.037474,0.057189,0.000000,0.000000,0.000000,0.005002,-0.000447,-0.005736,41.958984,-0.914063,5.114649,-99.000000,-99.000000,0.000000,0.000000,2.047018,5.145000,0.000000,0.000000,0.000000,0.020000,0.026000,1018.558105,0.230375,25.639359,992,1500,1500,1500,992,992,1500,1500,1500
 9.670085,0.000000,0.000000,-0.230375,-29.960049,8.038191,0.029898,0.000000,0.000000,0.000000,-0.000319,0.002746,0.001713,41.958984,-0.914063,5.114649,-99.000000,-99.000000,0.000000,0.000000,2.019726,5.145000,0.000000,0.000000,0.000000,0.020000,0.026000,1018.558105,0.230375,25.639359,992,1500,1500,1500,992,992,1500,1500,1500
 9.770725,0.000000,0.000000,-0.230375,-29.976300,8.043206,0.069523,0.000000,0.000000,0.000000,-0.003512,-0.001511,0.003842,41.958984,-0.914063,5.114649,-99.000000,-99.000000,0.000000,0.000000,2.059351,5.145000,0.000000,0.000000,0.000000,0.020000,0.026000,1018.558105,0.230375,25.639359,992,1500,1500,1500,992,992,1500,1500,1500
 9.870904,0.000000,0.000000,-0.230375,-29.983135,8.033843,0.048361,0.000000,0.000000,0.000000,0.011387,-0.000447,-0.006800,41.232422,-1.279688,6.878321,-99.000000,-99.000000,0.000000,0.000000,2.038190,5.145000,0.000000,0.000000,0.000000,0.020000,0.026000,1018.558105,0.230375,25.639359,992,1500,1500,1500,992,992,1500,1500,1500
 9.971217,0.000000,0.000000,-0.230375,-29.943939,8.049699,0.045927,0.000000,0.000000,0.000000,-0.001383,-0.000447,0.008099,41.595703,-1.279688,5.467383,-99.000000,-99.000000,0.000000,0.000000,2.035755,5.145000,0.000000,0.000000,0.000000,0.020000,0.026000,1018.558105,0.230375,25.639359,992,1500,1500,1500,992,992,1500,1500,1500
 10.169533,0.000000,0.000000,-0.230375,-29.841999,8.097461,-0.067302,0.000000,0.000000,0.000000,0.008195,0.005938,-0.006800,41.595703,-0.914063,5.114649,-99.000000,-99.000000,0.000000,0.000000,1.988942,5.145000,0.000000,0.000000,0.000000,0.020000,0.026000,1018.558105,0.230375,25.639359,992,1500,1500,1500,992,992,1500,1500,1500
 10.270437,0.000000,0.000000,-0.230375,-29.832621,8.107765,-0.055002,0.000000,0.000000,0.000000,-0.001383,-0.004704,0.004906,41.595703,-0.914063,5.114649,-99.000000,-99.000000,0.000000,0.000000,2.001242,5.145000,0.000000,0.000000,0.000000,0.020000,0.026000,1018.558105,0.230375,25.639359,992,1500,1500,1500,992,992,1500,1500,1500
 10.371041,0.000000,0.000000,-0.014556,-29.859841,8.092804,-0.059471,0.000000,0.000000,0.000000,0.003938,0.002746,-0.006800,41.595703,-0.914063,5.114649,-99.000000,-99.000000,0.000000,0.000000,1.996773,5.145000,0.000000,0.000000,0.000000,0.020000,0.026000,1018.584167,0.014556,25.666016,992,1500,1500,1500,992,992,1500,1500,1500
 10.471585,0.000000,0.000000,-0.014556,-29.826431,8.102127,-0.065788,0.000000,0.000000,0.000000,0.000745,-0.001511,0.003842,41.595703,-0.914063,5.114649,-99.000000,-99.000000,0.000000,0.000000,1.990456,5.145000,0.000000,0.000000,0.000000,0.020000,0.026000,1018.584167,0.014556,25.666016,992,1500,1500,1500,992,992,1500,1500,1500
 10.571749,0.000000,0.000000,-0.014556,-29.845722,8.087302,-0.051344,0.000000,0.000000,0.000000,-0.000319,-0.001511,0.005970,41.050781,0.365625,5.643750,-99.000000,-99.000000,0.000000,0.000000,2.004900,5.145000,0.000000,0.000000,0.000000,0.020000,0.026000,1018.584167,0.014556,25.666016,992,1500,1500,1500,992,992,1500,1500,1500
 10.672012,0.000000,0.000000,-0.014556,-29.842623,8.088418,-0.078824,0.000000,0.000000,0.000000,-0.000319,0.000617,-0.000415,41.958984,-0.914063,5.114649,-99.000000,-99.000000,0.000000,0.000000,1.977421,5.145000,0.000000,0.000000,0.000000,0.020000,0.026000,1018.584167,0.014556,25.666016,992,1500,1500,1500,992,992,1500,1500,1500
 10.772632,0.000000,0.000000,-0.014556,-29.842486,8.095509,-0.059588,0.000000,0.000000,0.000000,-0.010962,-0.007897,0.011291,41.958984,-0.914063,5.114649,-99.000000,-99.000000,0.000000,0.000000,1.996656,5.145000,0.000000,0.000000,0.000000,0.020000,0.026000,1018.584167,0.014556,25.666016,992,1500,1500,1500,992,992,1500,1500,1500
 10.873719,0.000000,0.000000,-0.014556,-29.876794,8.097216,-0.042531,0.000000,0.000000,0.000000,-0.001383,-0.002575,-0.003608,41.958984,-1.279688,4.056446,-99.000000,-99.000000,0.000000,0.000000,2.013713,5.145000,0.000000,0.000000,0.000000,0.020000,0.026000,1018.584167,0.014556,25.666016,992,1500,1500,1500,992,992,1500,1500,1500
 10.974062,0.000000,0.000000,-0.014556,-29.864824,8.088845,-0.058208,0.000000,0.000000,0.000000,-0.003512,0.001681,0.001713,39.779297,-0.182813,3.703711,-99.000000,-99.000000,0.000000,0.000000,1.998037,5.145000,0.000000,0.000000,0.000000,0.020000,0.026000,1018.584167,0.014556,25.666016,992,1500,1500,1500,992,992,1500,1500,1500
 11.167792,0.000000,0.000000,-0.014556,-30.045896,8.103538,-0.045137,0.000000,0.000000,0.000000,-0.001383,0.003810,-0.004672,39.779297,-0.182813,3.703711,-99.000000,-99.000000,0.000000,0.000000,1.958774,5.145000,0.000000,0.000000,0.000000,0.020000,0.026000,1018.584167,0.014556,25.666016,992,1500,1500,1500,992,992,1500,1500,1500
 11.267857,0.000000,0.000000,-0.014556,-30.031083,8.099983,-0.041123,0.000000,0.000000,0.000000,-0.002448,-0.003640,0.000649,39.779297,-0.182813,3.703711,-99.000000,-99.000000,0.000000,0.000000,1.962789,5.145000,0.000000,0.000000,0.000000,0.020000,0.026000,1018.584167,0.014556,25.666016,992,1500,1500,1500,992,992,1500,1500,1500
 11.369431,0.000000,0.000000,-0.014556,-30.027095,8.103065,-0.030656,0.000000,0.000000,0.000000,0.000745,-0.000447,0.003842,42.140625,-0.365625,2.821875,-99.000000,-99.000000,0.000000,0.000000,1.973255,5.145000,0.000000,0.000000,0.000000,0.020000,0.026000,1018.584167,0.014556,25.666016,992,1500,1500,1500,992,992,1500,1500,1500
 11.469950,0.000000,0.000000,0.217431,-30.009111,8.092973,-0.038977,0.000000,0.000000,0.000000,-0.005640,0.001681,-0.005736,40.505859,-0.548438,4.056446,-99.000000,-99.000000,0.000000,0.000000,1.964934,5.145000,0.000000,0.000000,0.000000,0.020000,0.026000,1018.612183,-0.217431,25.705349,992,1500,1500,1500,992,992,1500,1500,1500
 11.570184,0.000000,0.000000,0.217431,-29.994642,8.092111,-0.032620,0.000000,0.000000,0.000000,-0.001383,-0.004704,0.000649,40.505859,-0.548438,4.056446,-99.000000,-99.000000,0.000000,0.000000,1.971292,5.145000,0.000000,0.000000,0.000000,0.020000,0.026000,1018.612183,-0.217431,25.705349,992,1500,1500,1500,992,992,1500,1500,1500
 11.670416,0.000000,0.000000,0.217431,-29.982749,8.084312,-0.037972,0.000000,0.000000,0.000000,0.000745,-0.001511,0.003842,40.505859,-0.548438,4.056446,-99.000000,-99.000000,0.000000,0.000000,1.965940,5.145000,0.000000,0.000000,0.000000,0.020000,0.026000,1018.612183,-0.217431,25.705349,992,1500,1500,1500,992,992,1500,1500,1500
 11.771124,0.000000,0.000000,0.217431,-29.964753,8.095692,-0.031023,0.000000,0.000000,0.000000,-0.003512,-0.000447,0.008099,40.505859,-0.548438,4.056446,-99.000000,-99.000000,0.000000,0.000000,1.972889,5.145000,0.000000,0.000000,0.000000,0.020000,0.026000,1018.612183,-0.217431,25.705349,992,1500,1500,1500,992,992,1500,1500,1500
 11.872667,0.000000,0.000000,0.217431,-29.976550,8.094689,-0.018122,0.000000,0.000000,0.000000,-0.006705,0.002746,0.000649,42.140625,-1.828125,5.291016,-99.000000,-99.000000,0.000000,0.000000,1.985790,5.145000,0.000000,0.000000,0.000000,0.020000,0.026000,1018.612183,-0.217431,25.705349,992,1500,1500,1500,992,992,1500,1500,1500
 11.972818,0.000000,0.000000,0.217431,-29.977364,8.091767,-0.022436,0.000000,0.000000,0.000000,0.005002,0.000617,0.000649,42.140625,-1.828125,5.291016,-99.000000,-99.000000,0.000000,0.000000,1.981476,5.145000,0.000000,0.000000,0.000000,0.020000,0.026000,1018.612183,-0.217431,25.705349,992,1500,1500,1500,992,992,1500,1500,1500
 12.167855,0.000000,0.000000,0.217431,-30.023398,8.135901,0.125273,0.000000,0.000000,0.000000,-0.001383,-0.003640,0.011291,42.503906,-1.828125,4.585547,-99.000000,-99.000000,0.000000,0.000000,2.113515,5.145000,0.000000,0.000000,0.000000,0.020000,0.026000,1018.612183,-0.217431,25.705349,992,1500,1500,1500,992,992,1500,1500,1500
 12.268105,0.000000,0.000000,0.217431,-30.015855,8.116237,0.123685,0.000000,0.000000,0.000000,0.007130,-0.002575,-0.000415,42.503906,-1.828125,4.585547,-99.000000,-99.000000,0.000000,0.000000,2.111927,5.145000,0.000000,0.000000,0.000000,0.020000,0.026000,1018.612183,-0.217431,25.705349,992,1500,1500,1500,992,992,1500,1500,1500
 12.368492,0.000000,0.000000,0.217431,-30.009501,8.130581,0.134451,0.000000,0.000000,0.000000,0.000745,0.002746,0.001713,40.324219,-2.925000,3.174609,-99.000000,-99.000000,0.000000,0.000000,2.122693,5.145000,0.000000,0.000000,0.000000,0.020000,0.026000,1018.612183,-0.217431,25.705349,992,1500,1500,1500,992,992,1500,1500,1500
 12.469893,0.000000,0.000000,-0.161636,-29.999556,8.113766,0.112808,0.000000,0.000000,0.000000,0.006066,0.003810,-0.004672,40.324219,-2.925000,3.174609,-99.000000,-99.000000,0.000000,0.000000,2.101050,5.145000,0.000000,0.000000,0.000000,0.020000,0.026000,1018.566406,0.161636,25.725830,992,1500,1500,1500,992,992,1500,1500,1500
 12.571190,0.000000,0.000000,-0.161636,-29.981148,8.107134,0.121556,0.000000,0.000000,0.000000,-0.004576,-0.004704,0.009163,40.324219,-2.925000,3.174609,-99.000000,-99.000000,0.000000,0.000000,2.109798,5.145000,0.000000,0.000000,0.000000,0.020000,0.026000,1018.566406,0.161636,25.725830,992,1500,1500,1500,992,992,1500,1500,1500
 12.671501,0.000000,0.000000,-0.161636,-29.991510,8.108471,0.123683,0.000000,0.000000,0.000000,0.003938,0.002746,-0.000415,40.324219,-2.925000,3.174609,-99.000000,-99.000000,0.000000,0.000000,2.111925,5.145000,0.000000,0.000000,0.000000,0.020000,0.026000,1018.566406,0.161636,25.725830,992,1500,1500,1500,992,992,1500,1500,1500
 12.772772,0.000000,0.000000,-0.161636,-29.965800,8.118332,0.111494,0.000000,0.000000,0.000000,-0.000319,-0.003640,-0.000415,40.324219,-2.925000,3.174609,-99.000000,-99.000000,0.000000,0.000000,2.099736,5.145000,0.000000,0.000000,0.000000,0.020000,0.026000,1018.566406,0.161636,25.725830,992,1500,1500,1500,992,992,1500,1500,1500
 12.873690,0.000000,0.000000,-0.161636,-29.966550,8.107830,0.117585,0.000000,0.000000,0.000000,-0.005640,0.001681,-0.002543,41.232422,-1.279688,5.114649,-99.000000,-99.000000,0.000000,0.000000,2.105827,5.145000,0.000000,0.000000,0.000000,0.020000,0.026000,1018.566406,0.161636,25.725830,992,1500,1500,1500,992,992,1500,1500,1500
 12.973690,0.000000,0.000000,-0.161636,-29.973223,8.104127,0.117087,0.000000,0.000000,0.000000,0.001809,-0.001511,-0.001479,41.232422,-1.279688,5.114649,-99.000000,-99.000000,0.000000,0.000000,2.105329,5.145000,0.000000,0.000000,0.000000,0.020000,0.026000,1018.566406,0.161636,25.725830,992,1500,1500,1500,992,992,1500,1500,1500
 13.171728,0.000000,0.000000,-0.161636,-29.952763,8.108239,0.052536,0.000000,0.000000,0.000000,0.001809,-0.002575,0.004906,40.324219,-2.193750,5.291016,-99.000000,-99.000000,0.000000,0.000000,2.149429,5.145000,0.000000,0.000000,0.000000,0.020000,0.026000,1018.566406,0.161636,25.725830,992,1500,1500,1500,992,992,1500,1500,1500
 13.272195,0.000000,0.000000,-0.161636,-29.942542,8.103716,0.041367,0.000000,0.000000,0.000000,0.000745,-0.001511,-0.000415,40.324219,-2.193750,5.291016,-99.000000,-99.000000,0.000000,0.000000,2.138259,5.145000,0.000000,0.000000,0.000000,0.020000,0.026000,1018.566406,0.161636,25.725830,992,1500,1500,1500,992,992,1500,1500,1500
 13.372519,0.000000,0.000000,-0.161636,-29.944997,8.104920,0.047088,0.000000,0.000000,0.000000,-0.004576,0.002746,0.004906,42.503906,-1.828125,5.643750,-99.000000,-99.000000,0.000000,0.000000,2.143980,5.145000,0.000000,0.000000,0.000000,0.020000,0.026000,1018.566406,0.161636,25.725830,992,1500,1500,1500,992,992,1500,1500,1500
 13.473503,0.000000,0.000000,-0.005964,-29.942334,8.106200,0.048856,0.000000,0.000000,0.000000,-0.001383,0.000617,0.000649,42.503906,-1.828125,5.643750,-99.000000,-99.000000,0.000000,0.000000,2.145748,5.145000,0.000000,0.000000,0.000000,0.020000,0.026000,1018.585205,0.005964,25.731096,992,1500,1500,1500,992,992,1500,1500,1500
 13.574269,0.000000,0.000000,-0.005964,-29.939566,8.103923,0.045172,0.000000,0.000000,0.000000,0.000745,0.003810,0.001713,42.322266,-0.548438,3.350977,-99.000000,-99.000000,0.000000,0.000000,2.142064,5.145000,0.000000,0.000000,0.000000,0.020000,0.026000,1018.585205,0.005964,25.731096,992,1500,1500,1500,992,992,1500,1500,1500
 13.674733,0.000000,0.000000,-0.005964,-29.939947,8.101589,0.051808,0.000000,0.000000,0.000000,0.002873,0.000617,0.000649,40.869141,0.182813,3.703711,-99.000000,-99.000000,0.000000,0.000000,2.148701,5.145000,0.000000,0.000000,0.000000,0.020000,0.026000,1018.585205,0.005964,25.731096,992,1500,1500,1500,992,992,1500,1500,1500
 13.774932,0.000000,0.000000,-0.005964,-29.936422,8.090565,0.045138,0.000000,0.000000,0.000000,0.006066,-0.002575,-0.000415,40.869141,0.182813,3.703711,-99.000000,-99.000000,0.000000,0.000000,2.142030,5.145000,0.000000,0.000000,0.000000,0.020000,0.026000,1018.585205,0.005964,25.731096,992,1500,1500,1500,992,992,1500,1500,1500
 13.875104,0.000000,0.000000,-0.005964,-29.935246,8.095635,0.042577,0.000000,0.000000,0.000000,0.002873,0.001681,0.003842,40.869141,0.182813,3.703711,-99.000000,-99.000000,0.000000,0.000000,2.139469,5.145000,0.000000,0.000000,0.000000,0.020000,0.026000,1018.585205,0.005964,25.731096,992,1500,1500,1500,992,992,1500,1500,1500
 13.975179,0.000000,0.000000,-0.005964,-29.929410,8.073338,0.023932,0.000000,0.000000,0.000000,-0.008833,0.001681,-0.001479,41.232422,-0.914063,5.820117,-99.000000,-99.000000,0.000000,0.000000,2.120825,5.145000,0.000000,0.000000,0.000000,0.020000,0.026000,1018.585205,0.005964,25.731096,992,1500,1500,1500,992,992,1500,1500,1500
 14.172958,0.000000,0.000000,-0.005964,-29.909040,8.103848,-0.001344,0.000000,0.000000,0.000000,0.002873,0.003810,0.001713,41.958984,-0.548438,6.172852,-99.000000,-99.000000,0.000000,0.000000,2.130528,5.145000,0.000000,0.000000,0.000000,0.020000,0.026000,1018.585205,0.005964,25.731096,992,1500,1500,1500,992,992,1500,1500,1500
 14.273714,0.000000,0.000000,-0.005964,-29.910368,8.078345,-0.017258,0.000000,0.000000,0.000000,0.001809,-0.001511,-0.000415,41.958984,-0.548438,6.172852,-99.000000,-99.000000,0.000000,0.000000,2.114614,5.145000,0.000000,0.000000,0.000000,0.020000,0.026000,1018.585205,0.005964,25.731096,992,1500,1500,1500,992,992,1500,1500,1500
 14.375480,0.000000,0.000000,-0.005964,-29.907497,8.097875,-0.006528,0.000000,0.000000,0.000000,0.003938,-0.005768,0.000649,41.958984,-0.548438,6.172852,-99.000000,-99.000000,0.000000,0.000000,2.125344,5.145000,0.000000,0.000000,0.000000,0.020000,0.026000,1018.585205,0.005964,25.731096,992,1500,1500,1500,992,992,1500,1500,1500
 14.476748,0.000000,0.000000,0.156781,-29.914587,8.084136,-0.001622,0.000000,0.000000,0.000000,0.003938,-0.000447,0.001713,41.050781,-1.096875,5.643750,-99.000000,-99.000000,0.000000,0.000000,2.130250,5.145000,0.000000,0.000000,0.000000,0.020000,0.026000,1018.604858,-0.156781,25.740393,992,1500,1500,1500,992,992,1500,1500,1500
 14.577004,0.000000,0.000000,0.156781,-29.911240,8.087225,-0.009134,0.000000,0.000000,0.000000,-0.005640,-0.002575,0.001713,40.687500,-0.731250,4.938282,-99.000000,-99.000000,0.000000,0.000000,2.122738,5.145000,0.000000,0.000000,0.000000,0.020000,0.026000,1018.604858,-0.156781,25.740393,992,1500,1500,1500,992,992,1500,1500,1500
 14.677144,0.000000,0.000000,0.156781,-29.925379,8.089473,0.002556,0.000000,0.000000,0.000000,0.005002,-0.005768,0.001713,40.687500,-0.731250,4.938282,-99.000000,-99.000000,0.000000,0.000000,2.134428,5.145000,0.000000,0.000000,0.000000,0.020000,0.026000,1018.604858,-0.156781,25.740393,992,1500,1500,1500,992,992,1500,1500,1500
 14.777220,0.000000,0.000000,0.156781,-29.941458,8.091256,0.004781,0.000000,0.000000,0.000000,0.015644,0.002746,-0.003608,40.687500,-0.731250,4.938282,-99.000000,-99.000000,0.000000,0.000000,2.136653,5.145000,0.000000,0.000000,0.000000,0.020000,0.026000,1018.604858,-0.156781,25.740393,992,1500,1500,1500,992,992,1500,1500,1500
 14.877554,0.000000,0.000000,0.156781,-29.936310,8.087321,-0.008280,0.000000,0.000000,0.000000,0.026286,-0.003640,0.014484,40.687500,-0.731250,4.938282,-99.000000,-99.000000,0.000000,0.000000,2.123592,5.145000,0.000000,0.000000,0.000000,0.020000,0.026000,1018.604858,-0.156781,25.740393,992,1500,1500,1500,992,992,1500,1500,1500
 14.978977,0.000000,0.000000,0.156781,-29.952589,8.097868,0.010028,0.000000,0.000000,0.000000,0.026286,-0.005768,0.007035,40.687500,-1.096875,5.643750,-99.000000,-99.000000,0.000000,0.000000,2.141900,5.145000,0.000000,0.000000,0.000000,0.020000,0.026000,1018.604858,-0.156781,25.740393,992,1500,1500,1500,992,992,1500,1500,1500
 15.173607,0.000000,0.000000,0.156781,-29.907237,8.053617,0.054811,0.000000,0.000000,0.000000,0.005002,-0.003640,0.007035,40.687500,-1.828125,4.232813,-99.000000,-99.000000,0.000000,0.000000,2.191262,5.145000,0.000000,0.000000,0.000000,0.020000,0.026000,1018.604858,-0.156781,25.740393,992,1500,1500,1500,992,992,1500,1500,1500
 15.273686,0.000000,0.000000,0.156781,-29.905729,8.048033,0.058428,0.000000,0.000000,0.000000,0.007130,0.001681,-0.001479,40.687500,-1.828125,4.232813,-99.000000,-99.000000,0.000000,0.000000,2.194879,5.145000,0.000000,0.000000,0.000000,0.020000,0.026000,1018.604858,-0.156781,25.740393,992,1500,1500,1500,992,992,1500,1500,1500
 15.375173,0.000000,0.000000,0.156781,-29.882725,8.050227,0.048524,0.000000,0.000000,0.000000,0.003938,0.000617,0.001713,40.687500,-1.828125,4.232813,-99.000000,-99.000000,0.000000,0.000000,2.184975,5.145000,0.000000,0.000000,0.000000,0.020000,0.026000,1018.604858,-0.156781,25.740393,992,1500,1500,1500,992,992,1500,1500,1500
 15.475650,0.000000,0.000000,-0.127772,-29.895859,8.050818,0.056756,0.000000,0.000000,0.000000,-0.002448,-0.002575,0.005970,40.687500,-1.828125,4.232813,-99.000000,-99.000000,0.000000,0.000000,2.193207,5.145000,0.000000,0.000000,0.000000,0.020000,0.026000,1018.570496,0.127772,25.744423,992,1500,1500,1500,992,992,1500,1500,1500
 15.575806,0.000000,0.000000,-0.127772,-29.908328,8.040210,0.057976,0.000000,0.000000,0.000000,-0.008833,0.005938,-0.001479,39.597656,-0.365625,4.938282,-99.000000,-99.000000,0.000000,0.000000,2.194427,5.145000,0.000000,0.000000,0.000000,0.020000,0.026000,1018.570496,0.127772,25.744423,992,1500,1500,1500,992,992,1500,1500,1500
 15.676087,0.000000,0.000000,-0.127772,-29.923977,8.071328,0.060912,0.000000,0.000000,0.000000,0.017773,-0.003640,0.001713,39.597656,-0.365625,4.938282,-99.000000,-99.000000,0.000000,0.000000,2.197363,5.145000,0.000000,0.000000,0.000000,0.020000,0.026000,1018.570496,0.127772,25.744423,992,1500,1500,1500,992,992,1500,1500,1500
 15.777283,0.000000,0.000000,-0.127772,-29.915451,8.050849,0.059326,0.000000,0.000000,0.000000,0.003938,0.001681,0.003842,39.597656,-0.365625,4.938282,-99.000000,-99.000000,0.000000,0.000000,2.195776,5.145000,0.000000,0.000000,0.000000,0.020000,0.026000,1018.570496,0.127772,25.744423,992,1500,1500,1500,992,992,1500,1500,1500
 15.878843,0.000000,0.000000,-0.127772,-29.927642,8.071298,0.078123,0.000000,0.000000,0.000000,0.014580,-0.006832,0.002778,41.050781,-0.365625,4.938282,-99.000000,-99.000000,0.000000,0.000000,2.214574,5.145000,0.000000,0.000000,0.000000,0.020000,0.026000,1018.570496,0.127772,25.744423,992,1500,1500,1500,992,992,1500,1500,1500
 15.981700,0.000000,0.000000,-0.127772,-29.926897,8.080797,0.074123,0.000000,0.000000,0.000000,0.008195,-0.000447,-0.000415,41.050781,-1.462500,4.938282,-99.000000,-99.000000,0.000000,0.000000,2.210574,5.145000,0.000000,0.000000,0.000000,0.020000,0.026000,1018.570496,0.127772,25.744423,992,1500,1500,1500,992,992,1500,1500,1500
 16.173568,0.000000,0.000000,-0.127772,-29.901798,8.101303,-0.021841,0.000000,0.000000,0.000000,0.003938,0.000617,-0.003608,41.050781,-1.462500,4.938282,-99.000000,-99.000000,0.000000,0.000000,2.184375,5.145000,0.000000,0.000000,0.000000,0.020000,0.026000,1018.570496,0.127772,25.744423,992,1500,1500,1500,992,992,1500,1500,1500
 16.275122,0.000000,0.000000,-0.127772,-29.900047,8.096110,-0.026211,0.000000,0.000000,0.000000,0.000745,-0.005768,-0.002543,40.687500,-1.462500,5.643750,-99.000000,-99.000000,0.000000,0.000000,2.180005,5.145000,0.000000,0.000000,0.000000,0.020000,0.026000,1018.570496,0.127772,25.744423,992,1500,1500,1500,992,992,1500,1500,1500
 16.376068,0.000000,0.000000,-0.127772,-29.893027,8.089654,-0.032754,0.000000,0.000000,0.000000,-0.001383,0.000617,0.003842,40.687500,-1.462500,5.643750,-99.000000,-99.000000,0.000000,0.000000,2.173461,5.145000,0.000000,0.000000,0.000000,0.020000,0.026000,1018.570496,0.127772,25.744423,992,1500,1500,1500,992,992,1500,1500,1500
 16.476143,0.000000,0.000000,-0.127772,-29.893787,8.099515,-0.019596,0.000000,0.000000,0.000000,0.003938,-0.001511,-0.001479,40.687500,-1.462500,5.643750,-99.000000,-99.000000,0.000000,0.000000,2.186620,5.145000,0.000000,0.000000,0.000000,0.020000,0.026000,1018.570496,0.127772,25.744423,992,1500,1500,1500,992,992,1500,1500,1500
 16.577463,0.000000,0.000000,0.252810,-29.900586,8.087434,-0.031648,0.000000,0.000000,0.000000,0.002873,0.003810,-0.003608,40.687500,-1.462500,5.643750,-99.000000,-99.000000,0.000000,0.000000,2.174567,5.145000,0.000000,0.000000,0.000000,0.020000,0.026000,1018.616455,-0.252810,25.736300,992,1500,1500,1500,992,992,1500,1500,1500
 16.677640,0.000000,0.000000,0.252810,-29.893355,8.099753,-0.020835,0.000000,0.000000,0.000000,-0.001383,-0.000447,0.002778,40.869141,-0.548438,4.056446,-99.000000,-99.000000,0.000000,0.000000,2.185380,5.145000,0.000000,0.000000,0.000000,0.020000,0.026000,1018.616455,-0.252810,25.736300,992,1500,1500,1500,992,992,1500,1500,1500
 16.778773,0.000000,0.000000,0.252810,-29.904781,8.087903,-0.016989,0.000000,0.000000,0.000000,0.000745,0.002746,-0.002543,40.687500,0.365625,5.643750,-99.000000,-99.000000,0.000000,0.000000,2.189227,5.145000,0.000000,0.000000,0.000000,0.020000,0.026000,1018.616455,-0.252810,25.736300,992,1500,1500,1500,992,992,1500,1500,1500
 16.878813,0.000000,0.000000,0.252810,-29.889224,8.081727,-0.044771,0.000000,0.000000,0.000000,-0.002448,-0.000447,-0.007865,40.687500,0.365625,5.643750,-99.000000,-99.000000,0.000000,0.000000,2.161444,5.145000,0.000000,0.000000,0.000000,0.020000,0.026000,1018.616455,-0.252810,25.736300,992,1500,1500,1500,992,992,1500,1500,1500
 16.978832,0.000000,0.000000,0.252810,-29.883877,8.087826,-0.022062,0.000000,0.000000,0.000000,-0.004576,-0.001511,0.001713,40.687500,0.365625,5.643750,-99.000000,-99.000000,0.000000,0.000000,2.184154,5.145000,0.000000,0.000000,0.000000,0.020000,0.026000,1018.616455,-0.252810,25.736300,992,1474,1503,1506,992,992,1474,1503,1506
 17.177189,0.000000,0.000000,0.252810,-29.906805,8.111059,0.066906,0.000000,0.000000,0.000000,-0.000319,-0.001511,0.005970,40.142578,-2.376563,6.172852,-99.000000,-99.000000,0.000000,0.000000,2.259173,5.145000,0.000000,0.000000,0.000000,0.020000,0.026000,1018.616455,-0.252810,25.736300,992,1474,1502,1508,992,992,1474,1503,1506
 17.277523,0.000000,0.000000,0.252810,-29.987199,8.112505,0.072786,0.000000,0.000000,0.000000,0.010323,0.002746,-0.000415,40.142578,-2.376563,6.172852,-99.000000,-99.000000,0.000000,0.000000,2.265054,5.145000,0.000000,0.000000,0.000000,0.020000,0.026000,1018.616455,-0.252810,25.736300,992,1474,1502,1508,993,992,1474,1502,1508
 17.377975,0.000000,0.000000,0.252810,-29.969760,8.101939,0.050981,0.000000,0.000000,0.000000,0.017773,-0.003640,0.009163,40.869141,0.548438,6.525586,-99.000000,-99.000000,0.000000,0.000000,2.243248,5.145000,0.000000,0.000000,0.000000,0.020000,0.026000,1018.616455,-0.252810,25.736300,992,1474,1503,1507,993,992,1474,1503,1507
 17.479442,0.000000,0.000000,0.252810,-29.965168,8.105991,0.056990,0.000000,0.000000,0.000000,0.034800,-0.007897,0.010227,40.869141,0.548438,6.525586,-99.000000,-99.000000,0.000000,0.000000,2.249257,5.145000,0.000000,0.000000,0.000000,0.020000,0.026000,1018.616455,-0.252810,25.736300,992,1474,1502,1507,992,992,1474,1502,1507
 17.581014,0.000000,0.000000,0.509050,-29.917270,8.087925,0.039445,0.000000,0.000000,0.000000,0.011387,-0.000447,0.003842,41.958984,-0.914063,3.350977,-99.000000,-99.000000,0.000000,0.000000,2.231712,5.145000,0.000000,0.000000,0.000000,0.020000,0.026000,1018.647400,-0.509050,25.743841,992,1474,1502,1506,993,992,1474,1502,1506
 17.681717,0.000000,0.000000,0.509050,-29.907290,8.077384,0.041945,0.000000,0.000000,0.000000,0.000745,-0.003640,0.002778,41.958984,-0.914063,3.350977,-99.000000,-99.000000,0.000000,0.000000,2.234213,5.145000,0.000000,0.000000,0.000000,0.020000,0.026000,1018.647400,-0.509050,25.743841,992,1474,1503,1506,992,992,1474,1503,1506
 17.781885,0.000000,0.000000,0.509050,-29.930890,8.083735,0.062255,0.000000,0.000000,0.000000,-0.003512,0.001681,-0.000415,41.958984,-0.914063,3.350977,-99.000000,-99.000000,0.000000,0.000000,2.254522,5.145000,0.000000,0.000000,0.000000,0.020000,0.026000,1018.647400,-0.509050,25.743841,992,1474,1502,1506,993,992,1474,1502,1506
 17.881907,0.000000,0.000000,0.509050,-29.921937,8.083358,0.054054,0.000000,0.000000,0.000000,-0.002448,-0.003640,0.000649,41.958984,-0.914063,3.350977,-99.000000,-99.000000,0.000000,0.000000,2.246321,5.145000,0.000000,0.000000,0.000000,0.020000,0.026000,1018.647400,-0.509050,25.743841,992,1474,1502,1506,993,992,1474,1502,1506
 17.982113,0.000000,0.000000,0.509050,-29.943347,8.088340,0.074515,0.000000,0.000000,0.000000,-0.000319,0.004874,-0.003608,41.958984,-0.914063,3.350977,-99.000000,-99.000000,0.000000,0.000000,2.266782,5.145000,0.000000,0.000000,0.000000,0.020000,0.026000,1018.647400,-0.509050,25.743841,992,1474,1501,1507,992,992,1474,1501,1507
 18.177867,0.000000,0.000000,0.509050,-29.994499,8.147587,0.063550,0.000000,0.000000,0.000000,-0.004576,-0.000447,0.002778,41.958984,-0.548438,3.703711,-99.000000,-99.000000,0.000000,0.000000,2.327742,5.145000,0.000000,0.000000,0.000000,0.020000,0.026000,1018.647400,-0.509050,25.743841,992,1474,1502,1507,992,992,1477,1502,1506
 18.279280,0.000000,0.000000,0.509050,-29.987277,8.129593,0.039773,0.000000,0.000000,0.000000,0.003938,0.003810,-0.006800,41.958984,-0.548438,3.703711,-99.000000,-99.000000,0.000000,0.000000,2.303964,5.145000,0.000000,0.000000,0.000000,0.020000,0.026000,1018.647400,-0.509050,25.743841,992,1474,1501,1506,993,992,1474,1501,1506
 18.380783,0.000000,0.000000,0.509050,-29.965920,8.129459,0.043329,0.000000,0.000000,0.000000,-0.004576,-0.002575,0.002778,41.958984,-0.548438,3.703711,-99.000000,-99.000000,0.000000,0.000000,2.307521,5.145000,0.000000,0.000000,0.000000,0.020000,0.026000,1018.647400,-0.509050,25.743841,992,1473,1117,1506,992,992,1473,1117,1506
 18.481250,0.000000,0.000000,0.509050,-29.982055,8.118662,0.045584,0.000000,0.000000,0.000000,0.002873,-0.000447,-0.003608,41.958984,-0.548438,3.703711,-99.000000,-99.000000,0.000000,0.000000,2.309775,5.145000,0.000000,0.000000,0.000000,0.020000,0.026000,1018.647400,-0.509050,25.743841,992,1472,992,1506,992,992,1472,992,1506
 18.582643,0.000000,0.000000,0.429702,-29.958593,8.112274,0.015651,0.000000,0.000000,0.000000,0.000745,-0.000447,-0.002543,40.505859,0.182813,4.409180,-99.000000,-99.000000,0.000000,0.000000,2.279842,5.145000,0.000000,0.000000,0.000000,0.020000,0.026000,1018.637817,-0.429702,25.770758,992,1474,1248,1506,992,992,1474,1185,1507
 18.682887,0.000000,0.000000,0.429702,-29.959828,8.114644,0.039916,0.000000,0.000000,0.000000,-0.003512,-0.001511,0.001713,41.777344,-1.828125,3.174609,-99.000000,-99.000000,0.000000,0.000000,2.304107,5.145000,0.000000,0.000000,0.000000,0.020000,0.026000,1018.637817,-0.429702,25.770758,992,1474,1508,1506,993,992,1474,1508,1506
 18.783064,0.000000,0.000000,0.429702,-29.969456,8.106587,0.042003,0.000000,0.000000,0.000000,0.003938,0.002746,-0.000415,41.777344,-1.828125,3.174609,-99.000000,-99.000000,0.000000,0.000000,2.306194,5.145000,0.000000,0.000000,0.000000,0.020000,0.026000,1018.637817,-0.429702,25.770758,992,1474,1501,1506,993,992,1474,1501,1506
 18.884537,0.000000,0.000000,0.429702,-29.953043,8.114382,0.055721,0.000000,0.000000,0.000000,-0.004576,0.003810,0.002778,40.869141,0.914063,4.761914,-99.000000,-99.000000,0.000000,0.000000,2.319912,5.145000,0.000000,0.000000,0.000000,0.020000,0.026000,1018.637817,-0.429702,25.770758,992,1475,1502,1506,993,992,1475,1502,1506
 18.986070,0.000000,0.000000,0.429702,-29.973742,8.096656,0.048860,0.000000,0.000000,0.000000,0.005002,0.001681,-0.002543,42.867188,-1.828125,4.938282,-99.000000,-99.000000,0.000000,0.000000,2.313051,5.145000,0.000000,0.000000,0.000000,0.020000,0.026000,1018.637817,-0.429702,25.770758,992,1473,1394,1507,992,992,1473,1394,1507
 19.179461,0.000000,0.000000,0.429702,-30.045429,8.177655,0.068598,0.000000,0.000000,0.000000,-0.000319,-0.003640,0.001713,41.958984,-0.548438,4.761914,-99.000000,-99.000000,0.000000,0.000000,2.375117,5.145000,0.000000,0.000000,0.000000,0.020000,0.026000,1018.637817,-0.429702,25.770758,992,1474,1102,1507,992,992,1474,1077,1506
 19.279730,0.000000,0.000000,0.429702,-30.043197,8.185563,0.068010,0.000000,0.000000,0.000000,0.007130,0.001681,-0.004672,41.958984,-0.548438,4.761914,-99.000000,-99.000000,0.000000,0.000000,2.374528,5.145000,0.000000,0.000000,0.000000,0.020000,0.026000,1018.637817,-0.429702,25.770758,992,1477,1514,1506,993,992,1477,1514,1506
 19.381360,0.000000,0.000000,0.429702,-30.004329,8.144338,0.032901,0.000000,0.000000,0.000000,-0.000319,-0.003640,0.003842,41.958984,-0.548438,4.761914,-99.000000,-99.000000,0.000000,0.000000,2.339419,5.145000,0.000000,0.000000,0.000000,0.020000,0.026000,1018.637817,-0.429702,25.770758,992,1479,1502,1507,992,992,1479,1502,1507
 19.481477,0.000000,0.000000,0.429702,-30.027279,8.161148,0.072768,0.000000,0.000000,0.000000,-0.001383,-0.000447,0.002778,41.958984,-0.548438,4.761914,-99.000000,-99.000000,0.000000,0.000000,2.379287,5.145000,0.000000,0.000000,0.000000,0.020000,0.026000,1018.637817,-0.429702,25.770758,992,1478,1503,1507,992,992,1478,1503,1507
 19.582202,0.000000,0.000000,0.247250,-30.023465,8.134335,0.039476,0.000000,0.000000,0.000000,0.007130,0.002746,-0.005736,41.958984,-0.548438,4.761914,-99.000000,-99.000000,0.000000,0.000000,2.345995,5.145000,0.000000,0.000000,0.000000,0.020000,0.026000,1018.615784,-0.247250,25.779924,992,1478,1503,1506,992,992,1478,1503,1507
 19.683578,0.000000,0.000000,0.247250,-29.992297,8.134024,0.043196,0.000000,0.000000,0.000000,-0.000319,-0.000447,0.001713,41.958984,-0.548438,4.761914,-99.000000,-99.000000,0.000000,0.000000,2.349715,5.145000,0.000000,0.000000,0.000000,0.020000,0.026000,1018.615784,-0.247250,25.779924,992,1477,1503,1506,992,992,1478,1503,1506
 19.784110,0.000000,0.000000,0.247250,-30.006373,8.122802,0.052505,0.000000,0.000000,0.000000,0.002873,0.000617,0.002778,42.140625,-2.193750,2.469141,-99.000000,-99.000000,0.000000,0.000000,2.359023,5.145000,0.000000,0.000000,0.000000,0.020000,0.026000,1018.615784,-0.247250,25.779924,992,1478,1503,1507,992,992,1478,1503,1507
 19.885597,0.000000,0.000000,0.247250,-29.980892,8.112922,0.030791,0.000000,0.000000,0.000000,-0.000319,0.000617,-0.005736,42.140625,-2.193750,2.469141,-99.000000,-99.000000,0.000000,0.000000,2.337310,5.145000,0.000000,0.000000,0.000000,0.020000,0.026000,1018.615784,-0.247250,25.779924,992,1477,1503,1506,992,992,1477,1503,1506
 19.986441,0.000000,0.000000,0.247250,-29.976096,8.107979,0.036723,0.000000,0.000000,0.000000,-0.013090,0.000617,0.001713,42.140625,-2.193750,2.469141,-99.000000,-99.000000,0.000000,0.000000,2.343242,5.145000,0.000000,0.000000,0.000000,0.020000,0.026000,1018.615784,-0.247250,25.779924,992,1478,1503,1505,993,992,1478,1503,1505
