Time (sec) ,Sense X(m) ,Sense Y(m) ,Sense Z(m) ,Sense Roll (deg) ,Sense Pitch (deg) ,Sense Compass (deg) ,Sense U(m/s) ,Sense V(m/s) ,Sense W(m/s) ,Sense P(rad/s) ,Sense Q(rad/s) ,Sense R(rad/s) ,Sense Mx(Gauss) ,Sense My(Gauss) ,Sense Mz(Gauss) ,Sense GPS Latitude (deg) ,Sense GPS Longitude (deg) ,Sense GPS Altitude (m) ,Sense GPS Heading (deg) ,Sense IMU Heading (deg) ,Sense Analog 1 (V) ,Sense Analog 2 (V) ,Sense Analog 3 (V) ,Sense Analog 4 (V) ,Sense Analog 5 (V) ,Sense Analog 6 (V) ,Sense Pressure (Pa) ,Sense Pressure Altitude (m) ,Sense Temperature (C) ,RC Channel #1 ,RC Channel #2 ,RC Channel #3 ,RC Channel #4 ,RC Channel #5 ,PWM Hardware Out 1 ,PWM Hardware Out 2 ,PWM Hardware Out 3 ,PWM Hardware Out 4 
 0.000000,0.000000,0.000000,-nan,0.000000,0.000000,0.000000,0.000000,0.000000,0.000000,-0.007450,-0.011855,0.025275,67.207031,5.118751,-34.453125,-99.000000,-99.000000,0.000000,0.000000,-0.000000,5.145000,0.000000,0.000000,0.000000,0.024000,0.020000,0.000000,nan,0.000000,992,1500,1500,1500,992,992,1500,1500,1500
 0.150479,0.000000,0.000000,-nan,-3.593999,0.676151,-0.182180,0.000000,0.000000,0.000000,0.009578,0.009429,-0.023679,67.207031,5.118751,-34.453125,-99.000000,-99.000000,0.000000,0.000000,-0.182180,5.145000,0.000000,0.000000,0.000000,0.024000,0.020000,0.000000,nan,0.000000,992,1500,1500,1500,992,992,1500,1500,1500
 0.251839,0.000000,0.000000,-nan,-5.555963,1.008493,-0.205932,0.000000,0.000000,0.000000,-0.009578,-0.002277,0.007184,67.207031,5.118751,-34.453125,-99.000000,-99.000000,0.000000,0.000000,-0.205932,5.145000,0.000000,0.000000,0.000000,0.024000,0.020000,0.000000,nan,0.000000,992,1500,1500,1500,992,992,1500,1500,1500
 0.352178,0.000000,0.000000,-nan,-7.461567,1.264671,-0.105111,0.000000,0.000000,0.000000,-0.020220,-0.001213,0.003991,68.478516,3.839063,-34.980469,-99.000000,-99.000000,0.000000,0.000000,-0.105111,5.145000,0.000000,0.000000,0.000000,0.024000,0.020000,0.000000,nan,0.000000,992,1500,1500,1500,992,992,1500,1500,1500
 0.452313,0.000000,0.000000,-nan,-9.161626,1.521140,-0.093689,0.000000,0.000000,0.000000,-0.001064,0.008365,-0.009844,67.933594,4.753125,-34.804688,-99.000000,-99.000000,0.000000,0.000000,-0.093689,5.145000,0.000000,0.000000,0.000000,0.024000,0.020000,0.000000,nan,0.000000,992,1500,1500,1500,992,992,1500,1500,1500
 0.552796,0.000000,0.000000,-nan,-10.666458,1.768359,-0.067868,0.000000,0.000000,0.000000,0.001064,-0.003342,0.009312,67.933594,4.753125,-34.804688,-99.000000,-99.000000,0.000000,0.000000,-0.067868,5.145000,0.000000,0.000000,0.000000,0.024000,0.020000,0.000000,nan,0.000000,992,1500,1500,1500,992,992,1500,1500,1500
 0.653843,0.000000,0.000000,-nan,-12.093079,1.965089,-0.002006,0.000000,0.000000,0.000000,-0.012771,0.004108,0.003991,67.933594,4.753125,-34.804688,-99.000000,-99.000000,0.000000,0.000000,-0.002006,5.145000,0.000000,0.000000,0.000000,0.024000,0.020000,0.000000,nan,0.000000,992,1500,1500,1500,992,992,1500,1500,1500
 0.754388,0.000000,0.000000,-nan,-13.382032,2.170828,0.099930,0.000000,0.000000,0.000000,-0.012771,0.000915,0.009312,67.933594,4.753125,-34.804688,-99.000000,-99.000000,0.000000,0.000000,0.099930,5.145000,0.000000,0.000000,0.000000,0.024000,0.020000,0.000000,nan,0.000000,992,1500,1500,1500,992,992,1500,1500,1500
 0.854461,0.000000,0.000000,-nan,-14.558542,2.324012,0.121837,0.000000,0.000000,0.000000,0.006385,0.008365,-0.016229,67.207031,5.118751,-34.804688,-99.000000,-99.000000,0.000000,0.000000,0.121837,5.145000,0.000000,0.000000,0.000000,0.024000,0.020000,0.000000,nan,0.000000,992,1500,1500,1500,992,992,1500,1500,1500
 0.954902,0.000000,0.000000,-nan,-15.525091,2.521512,0.126651,0.000000,0.000000,0.000000,-0.002128,-0.003342,0.005055,67.207031,5.118751,-34.804688,-99.000000,-99.000000,0.000000,0.000000,0.126651,5.145000,0.000000,0.000000,0.000000,0.024000,0.020000,0.000000,nan,0.000000,992,1500,1500,1500,992,992,1500,1500,1500
 1.136558,0.000000,0.000000,-nan,-17.264941,2.835020,-0.054437,0.000000,0.000000,0.000000,0.018092,0.007301,-0.014101,67.207031,5.118751,-34.804688,-99.000000,-99.000000,0.000000,0.000000,0.124992,5.145000,0.000000,0.000000,0.000000,0.024000,0.020000,0.000000,nan,0.000000,992,1500,1500,1500,992,992,1500,1500,1500
 1.236667,0.000000,0.000000,-0.000000,-17.960686,2.958722,-0.182825,0.000000,0.000000,0.000000,0.030863,0.005172,-0.015165,66.843750,3.656250,-34.101562,-99.000000,-99.000000,0.000000,0.000000,-0.003397,5.145000,0.000000,0.000000,0.000000,0.024000,0.020000,1017.929138,0.000000,24.973221,992,1500,1500,1500,992,992,1500,1500,1500
 1.337884,0.000000,0.000000,-0.000000,-18.598316,3.098342,-0.100449,0.000000,0.000000,0.000000,-0.014899,-0.012920,0.031661,66.843750,3.656250,-34.101562,-99.000000,-99.000000,0.000000,0.000000,0.078980,5.145000,0.000000,0.000000,0.000000,0.024000,0.020000,1017.929138,0.000000,24.973221,992,1500,1500,1500,992,992,1500,1500,1500
 1.437996,0.000000,0.000000,-0.000000,-19.400531,3.181230,0.032134,0.000000,0.000000,0.000000,0.010642,0.009429,-0.016229,66.843750,3.656250,-34.101562,-99.000000,-99.000000,0.000000,0.000000,0.211563,5.145000,0.000000,0.000000,0.000000,0.024000,0.020000,1017.929138,0.000000,24.973221,992,1500,1500,1500,992,992,1500,1500,1500
 1.538236,0.000000,0.000000,-0.000000,-19.889128,3.278106,-0.124268,0.000000,0.000000,0.000000,0.022349,0.006236,-0.023679,66.843750,3.656250,-34.101562,-99.000000,-99.000000,0.000000,0.000000,0.055160,5.145000,0.000000,0.000000,0.000000,0.024000,0.020000,1017.929138,0.000000,24.973221,992,1500,1500,1500,992,992,1500,1500,1500
 1.638541,0.000000,0.000000,-0.000000,-20.337234,3.381143,-0.062395,0.000000,0.000000,0.000000,-0.020220,-0.011855,0.022083,67.207031,5.484375,-34.804688,-99.000000,-99.000000,0.000000,0.000000,0.117034,5.145000,0.000000,0.000000,0.000000,0.024000,0.020000,1017.929138,0.000000,24.973221,992,1500,1500,1500,992,992,1500,1500,1500
 1.738844,0.000000,0.000000,-0.000000,-20.906914,3.443854,0.074926,0.000000,0.000000,0.000000,-0.003193,-0.001213,0.008248,67.025391,4.935938,-33.925781,-99.000000,-99.000000,0.000000,0.000000,0.254355,5.145000,0.000000,0.000000,0.000000,0.024000,0.020000,1017.929138,0.000000,24.973221,992,1500,1500,1500,992,992,1500,1500,1500
 1.838868,0.000000,0.000000,-0.000000,-21.360591,3.524721,0.067212,0.000000,0.000000,0.000000,0.013835,0.005172,-0.011973,67.025391,4.935938,-33.925781,-99.000000,-99.000000,0.000000,0.000000,0.246641,5.145000,0.000000,0.000000,0.000000,0.024000,0.020000,1017.929138,0.000000,24.973221,992,1500,1500,1500,992,992,1500,1500,1500
 1.939001,0.000000,0.000000,-0.000000,-21.707937,3.566004,-0.009107,0.000000,0.000000,0.000000,0.001064,-0.001213,-0.001330,67.025391,4.935938,-33.925781,-99.000000,-99.000000,0.000000,0.000000,0.170322,5.145000,0.000000,0.000000,0.000000,0.024000,0.020000,1017.929138,0.000000,24.973221,992,1500,1500,1500,992,992,1500,1500,1500
 2.192766,0.000000,0.000000,-0.000000,-22.398118,3.767902,-0.122476,0.000000,0.000000,0.000000,0.015963,0.006236,-0.014101,68.478516,4.204688,-33.925781,-99.000000,-99.000000,0.000000,0.000000,0.087115,5.145000,0.000000,0.000000,0.000000,0.024000,0.020000,1017.929138,0.000000,24.973221,992,1500,1500,1500,992,992,1500,1500,1500
 2.293623,0.000000,0.000000,-5477.205363,-22.619509,3.821448,-0.116551,0.000000,0.000000,0.000000,-0.004257,-0.009727,0.015697,68.478516,4.204688,-33.925781,-99.000000,-99.000000,0.000000,0.000000,0.093040,5.145000,0.000000,0.000000,0.000000,0.024000,0.020000,1017.987793,5477.205363,24.978453,992,1500,1500,1500,992,992,1500,1500,1500
 2.394904,0.000000,0.000000,-5477.205363,-22.996785,3.880894,0.037696,0.000000,0.000000,0.000000,0.000000,-0.010791,0.012505,68.478516,4.204688,-33.925781,-99.000000,-99.000000,0.000000,0.000000,0.247286,5.145000,0.000000,0.000000,0.000000,0.024000,0.020000,1017.987793,5477.205363,24.978453,992,1500,1500,1500,992,992,1500,1500,1500
 2.495474,0.000000,0.000000,-5477.205363,-23.260608,3.885976,-0.045670,0.000000,0.000000,0.000000,0.004257,0.020071,-0.038578,68.478516,4.204688,-33.925781,-99.000000,-99.000000,0.000000,0.000000,0.163920,5.145000,0.000000,0.000000,0.000000,0.024000,0.020000,1017.987793,5477.205363,24.978453,992,1500,1500,1500,992,992,1500,1500,1500
 2.596456,0.000000,0.000000,-5477.205363,-23.329739,3.937527,-0.050452,0.000000,0.000000,0.000000,-0.021284,-0.010791,0.027404,67.570312,2.925000,-34.101562,-99.000000,-99.000000,0.000000,0.000000,0.159139,5.145000,0.000000,0.000000,0.000000,0.024000,0.020000,1017.987793,5477.205363,24.978453,992,1500,1500,1500,992,992,1500,1500,1500
 2.697677,0.000000,0.000000,-5477.205363,-23.657646,3.947161,0.066664,0.000000,0.000000,0.000000,0.009578,0.000915,-0.002395,66.843750,5.850000,-33.750000,-99.000000,-99.000000,0.000000,0.000000,0.276254,5.145000,0.000000,0.000000,0.000000,0.024000,0.020000,1017.987793,5477.205363,24.978453,992,1500,1500,1500,992,992,1500,1500,1500
 2.797681,0.000000,0.000000,-5477.205363,-23.810967,3.973267,-0.053301,0.000000,0.000000,0.000000,0.028734,0.008365,-0.015165,66.843750,5.850000,-33.750000,-99.000000,-99.000000,0.000000,0.000000,0.156289,5.145000,0.000000,0.000000,0.000000,0.024000,0.020000,1017.987793,5477.205363,24.978453,992,1500,1500,1500,992,992,1500,1500,1500
 2.898453,0.000000,0.000000,-5477.205363,-23.915958,4.004283,-0.007484,0.000000,0.000000,0.000000,-0.005321,-0.008663,0.026340,66.843750,5.850000,-33.750000,-99.000000,-99.000000,0.000000,0.000000,0.202107,5.145000,0.000000,0.000000,0.000000,0.024000,0.020000,1017.987793,5477.205363,24.978453,992,1500,1500,1500,992,992,1500,1500,1500
 2.999664,0.000000,0.000000,-5477.205363,-24.177217,4.015116,0.069785,0.000000,0.000000,0.000000,0.003193,0.007301,-0.008780,66.843750,5.850000,-33.750000,-99.000000,-99.000000,0.000000,0.000000,0.279375,5.145000,0.000000,0.000000,0.000000,0.024000,0.020000,1017.987793,5477.205363,24.978453,992,1500,1500,1500,992,992,1500,1500,1500
 3.194140,0.000000,0.000000,-5477.205363,-24.571359,4.060713,0.292132,0.000000,0.000000,0.000000,-0.022349,-0.012920,0.019954,66.298828,3.473438,-33.222656,-99.000000,-99.000000,0.000000,0.000000,0.570198,5.145000,0.000000,0.000000,0.000000,0.024000,0.020000,1017.987793,5477.205363,24.978453,992,1500,1500,1500,992,992,1500,1500,1500
 3.295435,0.000000,0.000000,-8361.727079,-24.781351,4.065200,0.409143,0.000000,0.000000,0.000000,-0.006385,0.001979,-0.003459,66.662109,4.935938,-33.222656,-99.000000,-99.000000,0.000000,0.000000,0.687209,5.145000,0.000000,0.000000,0.000000,0.024000,0.020000,1018.056152,8361.727079,24.974686,992,1500,1500,1500,992,992,1500,1500,1500
 3.396211,0.000000,0.000000,-8361.727079,-24.815840,4.072086,0.289823,0.000000,0.000000,0.000000,0.005321,0.010493,-0.020486,66.662109,4.935938,-33.222656,-99.000000,-99.000000,0.000000,0.000000,0.567889,5.145000,0.000000,0.000000,0.000000,0.024000,0.020000,1018.056152,8361.727079,24.974686,992,1500,1500,1500,992,992,1500,1500,1500
 3.497068,0.000000,0.000000,-8361.727079,-24.787778,4.092870,0.329820,0.000000,0.000000,0.000000,-0.022349,-0.007599,0.021018,66.662109,4.935938,-33.222656,-99.000000,-99.000000,0.000000,0.000000,0.607886,5.145000,0.000000,0.000000,0.000000,0.024000,0.020000,1018.056152,8361.727079,24.974686,992,1500,1500,1500,992,992,1500,1500,1500
 3.598496,0.000000,0.000000,-8361.727079,-24.969969,4.111479,0.480419,0.000000,0.000000,0.000000,0.000000,-0.001213,-0.000266,66.662109,4.935938,-33.222656,-99.000000,-99.000000,0.000000,0.000000,0.758485,5.145000,0.000000,0.000000,0.000000,0.024000,0.020000,1018.056152,8361.727079,24.974686,992,1500,1500,1500,992,992,1500,1500,1500
 3.700048,0.000000,0.000000,-8361.727079,-25.006653,4.093210,0.324148,0.000000,0.000000,0.000000,0.023413,0.009429,-0.025807,66.662109,4.935938,-33.222656,-99.000000,-99.000000,0.000000,0.000000,0.602214,5.145000,0.000000,0.000000,0.000000,0.024000,0.020000,1018.056152,8361.727079,24.974686,992,1500,1500,1500,992,992,1500,1500,1500
 3.800324,0.000000,0.000000,-8361.727079,-24.958811,4.133539,0.325378,0.000000,0.000000,0.000000,-0.004257,-0.016112,0.023147,67.751953,5.301563,-34.628906,-99.000000,-99.000000,0.000000,0.000000,0.603445,5.145000,0.000000,0.000000,0.000000,0.024000,0.020000,1018.056152,8361.727079,24.974686,992,1500,1500,1500,992,992,1500,1500,1500
 3.901522,0.000000,0.000000,-8361.727079,-25.100941,4.120476,0.432838,0.000000,0.000000,0.000000,0.005321,-0.003342,0.007184,67.751953,5.301563,-34.628906,-99.000000,-99.000000,0.000000,0.000000,0.710904,5.145000,0.000000,0.000000,0.000000,0.024000,0.020000,1018.056152,8361.727079,24.974686,992,1500,1500,1500,992,992,1500,1500,1500
 4.007512,0.000000,0.000000,-8361.727079,-25.140377,4.138593,0.000000,0.000000,0.000000,0.000000,0.020220,0.001979,-0.009844,67.751953,5.301563,-34.628906,-99.000000,-99.000000,0.000000,0.000000,0.660544,5.145000,0.000000,0.000000,0.000000,0.024000,0.020000,1018.056152,8361.727079,24.974686,992,1500,1500,1500,992,992,1500,1500,1500
 4.198849,0.000000,0.000000,-8361.727079,-25.100365,4.065465,0.007454,0.000000,0.000000,0.000000,0.001064,-0.002277,0.002927,64.664062,5.484375,-34.804688,-99.000000,-99.000000,0.000000,0.000000,0.667998,5.145000,0.000000,0.000000,0.000000,0.024000,0.020000,1018.056152,8361.727079,24.974686,992,1500,1500,1500,992,992,1500,1500,1500
 4.300204,0.000000,0.000000,-10277.935998,-25.164641,4.069360,0.063069,0.000000,0.000000,0.000000,0.000000,0.001979,0.011440,66.662109,5.301563,-33.222656,-99.000000,-99.000000,0.000000,0.000000,0.723613,5.145000,0.000000,0.000000,0.000000,0.024000,0.020000,1018.020996,10277.935998,24.979290,992,1500,1500,1500,992,992,1500,1500,1500
 4.407841,0.000000,0.000000,-10277.935998,-25.217964,4.080065,0.059813,0.000000,0.000000,0.000000,0.001064,0.003044,-0.003459,66.662109,5.301563,-33.222656,-99.000000,-99.000000,0.000000,0.000000,0.720356,5.145000,0.000000,0.000000,0.000000,0.024000,0.020000,1018.020996,10277.935998,24.979290,992,1500,1500,1500,992,992,1500,1500,1500
 4.510259,0.000000,0.000000,-10277.935998,-25.218436,4.096627,0.063705,0.000000,0.000000,0.000000,-0.001064,-0.001213,0.006119,66.662109,5.301563,-33.222656,-99.000000,-99.000000,0.000000,0.000000,0.724248,5.145000,0.000000,0.000000,0.000000,0.024000,0.020000,1018.020996,10277.935998,24.979290,992,1500,1500,1500,992,992,1500,1500,1500
 4.611139,0.000000,0.000000,-10277.935998,-25.283264,4.099157,0.053830,0.000000,0.000000,0.000000,0.015963,0.003044,-0.015165,67.207031,4.753125,-35.156250,-99.000000,-99.000000,0.000000,0.000000,0.714373,5.145000,0.000000,0.000000,0.000000,0.024000,0.020000,1018.020996,10277.935998,24.979290,992,1500,1500,1500,992,992,1500,1500,1500
 4.711320,0.000000,0.000000,-10277.935998,-25.197501,4.091828,-0.084825,0.000000,0.000000,0.000000,0.012771,0.001979,-0.011973,67.207031,4.753125,-35.156250,-99.000000,-99.000000,0.000000,0.000000,0.575719,5.145000,0.000000,0.000000,0.000000,0.024000,0.020000,1018.020996,10277.935998,24.979290,992,1500,1500,1500,992,992,1500,1500,1500
 4.812103,0.000000,0.000000,-10277.935998,-25.191364,4.113801,0.079538,0.000000,0.000000,0.000000,-0.009578,-0.025690,0.043367,67.207031,4.753125,-35.156250,-99.000000,-99.000000,0.000000,0.000000,0.740082,5.145000,0.000000,0.000000,0.000000,0.024000,0.020000,1018.020996,10277.935998,24.979290,992,1500,1500,1500,992,992,1500,1500,1500
 4.912700,0.000000,0.000000,-10277.935998,-25.413673,4.125585,0.185366,0.000000,0.000000,0.000000,0.045762,0.007301,-0.011973,68.841797,4.935938,-33.574219,-99.000000,-99.000000,0.000000,0.000000,0.845909,5.145000,0.000000,0.000000,0.000000,0.024000,0.020000,1018.020996,10277.935998,24.979290,992,1500,1500,1500,992,992,1500,1500,1500
 5.202210,0.000000,0.000000,-10277.935998,-25.730727,4.112902,-0.390086,0.000000,0.000000,0.000000,-0.009578,0.022200,-0.030064,67.388672,4.204688,-33.925781,-99.000000,-99.000000,0.000000,0.000000,0.237310,5.145000,0.000000,0.000000,0.000000,0.024000,0.020000,1018.020996,10277.935998,24.979290,992,1500,1500,1500,992,992,1500,1500,1500
 5.312514,0.000000,0.000000,-11693.522598,-25.534911,4.135020,-0.591527,0.000000,0.000000,0.000000,-0.010642,0.005172,-0.005587,67.388672,4.204688,-33.925781,-99.000000,-99.000000,0.000000,0.000000,0.035869,5.145000,0.000000,0.000000,0.000000,0.024000,0.020000,1018.017639,11693.522598,24.990171,992,1500,1500,1500,992,992,1500,1500,1500
 5.414127,0.000000,0.000000,-11693.522598,-25.520458,4.131388,-0.412124,0.000000,0.000000,0.000000,-0.035119,-0.008663,0.034853,68.841797,4.570313,-34.628906,-99.000000,-99.000000,0.000000,0.000000,0.215273,5.145000,0.000000,0.000000,0.000000,0.024000,0.020000,1018.017639,11693.522598,24.990171,992,1500,1500,1500,992,992,1500,1500,1500
 5.514559,0.000000,0.000000,-11693.522598,-25.703506,4.148134,-0.275923,0.000000,0.000000,0.000000,0.007450,0.000915,-0.010908,67.207031,2.925000,-34.453125,-99.000000,-99.000000,0.000000,0.000000,0.351474,5.145000,0.000000,0.000000,0.000000,0.024000,0.020000,1018.017639,11693.522598,24.990171,992,1500,1500,1500,992,992,1500,1500,1500
 5.615558,0.000000,0.000000,-11693.522598,-25.612457,4.134820,-0.537889,0.000000,0.000000,0.000000,0.031927,0.014750,-0.036450,67.207031,2.925000,-34.453125,-99.000000,-99.000000,0.000000,0.000000,0.089507,5.145000,0.000000,0.000000,0.000000,0.024000,0.020000,1018.017639,11693.522598,24.990171,992,1500,1500,1500,992,992,1500,1500,1500
 5.716886,0.000000,0.000000,-11693.522598,-25.447612,4.164957,-0.503001,0.000000,0.000000,0.000000,-0.015963,-0.016112,0.035918,67.207031,2.925000,-34.453125,-99.000000,-99.000000,0.000000,0.000000,0.124395,5.145000,0.000000,0.000000,0.000000,0.024000,0.020000,1018.017639,11693.522598,24.990171,992,1500,1500,1500,992,992,1500,1500,1500
 5.817486,0.000000,0.000000,-11693.522598,-25.599382,4.163929,-0.304277,0.000000,0.000000,0.000000,-0.005321,-0.001213,0.000798,67.207031,2.925000,-34.453125,-99.000000,-99.000000,0.000000,0.000000,0.323119,5.145000,0.000000,0.000000,0.000000,0.024000,0.020000,1018.017639,11693.522598,24.990171,992,1500,1500,1500,992,992,1500,1500,1500
 5.918014,0.000000,0.000000,-11693.522598,-25.640062,4.162049,-0.416526,0.000000,0.000000,0.000000,0.006385,0.015814,-0.030064,67.025391,4.204688,-33.222656,-99.000000,-99.000000,0.000000,0.000000,0.210870,5.145000,0.000000,0.000000,0.000000,0.024000,0.020000,1018.017639,11693.522598,24.990171,992,1500,1500,1500,992,992,1500,1500,1500
 6.208882,0.000000,0.000000,-11693.522598,-25.928642,3.968953,-0.046145,0.000000,0.000000,0.000000,-0.019156,-0.000149,0.001862,67.025391,4.204688,-33.222656,-99.000000,-99.000000,0.000000,0.000000,0.014374,5.145000,0.000000,0.000000,0.000000,0.024000,0.020000,1018.017639,11693.522598,24.990171,992,1500,1500,1500,992,992,1500,1500,1500
 6.309690,0.000000,0.000000,-11693.522598,-25.872673,3.957159,-0.355467,0.000000,0.000000,0.000000,0.039376,0.029649,-0.070505,66.298828,2.376563,-35.683594,-99.000000,-99.000000,0.000000,0.000000,-0.294948,5.145000,0.000000,0.000000,0.000000,0.024000,0.020000,1018.017639,11693.522598,24.990171,992,1500,1500,1500,992,992,1500,1500,1500
 6.413416,0.000000,0.000000,-0.019419,-25.581329,4.006679,-0.372964,0.000000,0.000000,0.000000,-0.040441,-0.027819,0.061459,67.207031,4.021875,-34.101562,-99.000000,-99.000000,0.000000,0.000000,-0.312445,5.145000,0.000000,0.000000,0.000000,0.024000,0.020000,1018.000000,0.019419,24.965967,992,1500,1500,1500,992,992,1500,1500,1500
 6.513786,0.000000,0.000000,-0.019419,-25.886815,4.047692,-0.032135,0.000000,0.000000,0.000000,0.007450,0.004108,-0.006651,67.207031,4.021875,-34.101562,-99.000000,-99.000000,0.000000,0.000000,0.028384,5.145000,0.000000,0.000000,0.000000,0.024000,0.020000,1018.000000,0.019419,24.965967,992,1500,1500,1500,992,992,1500,1500,1500
 6.614684,0.000000,0.000000,-0.019419,-25.742194,3.995993,-0.462666,0.000000,0.000000,0.000000,0.037248,0.031778,-0.059863,67.207031,4.021875,-34.101562,-99.000000,-99.000000,0.000000,0.000000,-0.402148,5.145000,0.000000,0.000000,0.000000,0.024000,0.020000,1018.000000,0.019419,24.965967,992,1500,1500,1500,992,992,1500,1500,1500
 6.715996,0.000000,0.000000,-0.019419,-25.487243,4.081969,-0.427262,0.000000,0.000000,0.000000,-0.024477,-0.018241,0.046560,67.207031,4.021875,-34.101562,-99.000000,-99.000000,0.000000,0.000000,-0.366743,5.145000,0.000000,0.000000,0.000000,0.024000,0.020000,1018.000000,0.019419,24.965967,992,1500,1500,1500,992,992,1500,1500,1500
 6.816098,0.000000,0.000000,-0.019419,-25.715300,4.088246,-0.057926,0.000000,0.000000,0.000000,0.000000,-0.019305,0.038046,66.298828,3.839063,-34.277344,-99.000000,-99.000000,0.000000,0.000000,0.002592,5.145000,0.000000,0.000000,0.000000,0.024000,0.020000,1018.000000,0.019419,24.965967,992,1500,1500,1500,992,992,1500,1500,1500
 6.917417,0.000000,0.000000,-0.019419,-25.759608,4.058685,-0.373218,0.000000,0.000000,0.000000,0.032991,0.027521,-0.060927,66.298828,3.839063,-34.277344,-99.000000,-99.000000,0.000000,0.000000,-0.312699,5.145000,0.000000,0.000000,0.000000,0.024000,0.020000,1018.000000,0.019419,24.965967,992,1500,1500,1500,992,992,1500,1500,1500
 7.225179,0.000000,0.000000,-0.019419,-25.600484,4.038240,-0.683738,0.000000,0.000000,0.000000,0.017028,0.017943,-0.049220,66.298828,3.839063,-34.277344,-99.000000,-99.000000,0.000000,0.000000,-1.105756,5.145000,0.000000,0.000000,0.000000,0.024000,0.020000,1018.000000,0.019419,24.965967,992,1500,1500,1500,992,992,1500,1500,1500
 7.326214,0.000000,0.000000,-0.019419,-25.396305,4.015246,-0.932642,0.000000,0.000000,0.000000,-0.001064,0.005172,-0.011973,67.933594,6.215625,-34.453125,-99.000000,-99.000000,0.000000,0.000000,-1.354660,5.145000,0.000000,0.000000,0.000000,0.024000,0.020000,1018.000000,0.019419,24.965967,992,1500,1500,1500,992,992,1500,1500,1500
 7.427587,0.000000,0.000000,0.694119,-25.383275,4.092895,-0.700811,0.000000,0.000000,0.000000,-0.043633,-0.023562,0.041239,68.478516,5.301563,-33.925781,-99.000000,-99.000000,0.000000,0.000000,-1.122829,5.145000,0.000000,0.000000,0.000000,0.024000,0.020000,1018.086121,-0.694119,24.921392,992,1500,1500,1500,992,992,1500,1500,1500
 7.528632,0.000000,0.000000,0.694119,-25.598146,4.061999,-0.605130,0.000000,0.000000,0.000000,-0.006385,0.015814,-0.026872,68.478516,5.301563,-33.925781,-99.000000,-99.000000,0.000000,0.000000,-1.027148,5.145000,0.000000,0.000000,0.000000,0.024000,0.020000,1018.086121,-0.694119,24.921392,992,1500,1500,1500,992,992,1500,1500,1500
 7.630225,0.000000,0.000000,0.694119,-25.496822,4.086132,-0.834606,0.000000,0.000000,0.000000,0.025541,0.014750,-0.035385,68.478516,5.301563,-33.925781,-99.000000,-99.000000,0.000000,0.000000,-1.256624,5.145000,0.000000,0.000000,0.000000,0.024000,0.020000,1018.086121,-0.694119,24.921392,992,1500,1500,1500,992,992,1500,1500,1500
 7.730349,0.000000,0.000000,0.694119,-25.332144,4.081634,-0.878852,0.000000,0.000000,0.000000,-0.012771,-0.008663,0.026340,68.478516,5.301563,-33.925781,-99.000000,-99.000000,0.000000,0.000000,-1.300870,5.145000,0.000000,0.000000,0.000000,0.024000,0.020000,1018.086121,-0.694119,24.921392,992,1500,1500,1500,992,992,1500,1500,1500
 7.830386,0.000000,0.000000,0.694119,-25.481344,4.123856,-0.697676,0.000000,0.000000,0.000000,0.000000,-0.002277,0.008248,66.298828,3.473438,-34.980469,-99.000000,-99.000000,0.000000,0.000000,-1.119694,5.145000,0.000000,0.000000,0.000000,0.024000,0.020000,1018.086121,-0.694119,24.921392,992,1500,1500,1500,992,992,1500,1500,1500
 7.930818,0.000000,0.000000,0.694119,-25.488112,4.075161,-0.880195,0.000000,0.000000,0.000000,0.042569,0.016879,-0.047092,67.025391,4.204688,-33.574219,-99.000000,-99.000000,0.000000,0.000000,-1.302214,5.145000,0.000000,0.000000,0.000000,0.024000,0.020000,1018.086121,-0.694119,24.921392,992,1500,1500,1500,992,992,1500,1500,1500
 8.197750,0.000000,0.000000,0.694119,-25.233043,4.031771,-0.283719,0.000000,0.000000,0.000000,-0.001064,0.012622,-0.020486,67.025391,4.204688,-33.574219,-99.000000,-99.000000,0.000000,0.000000,-1.709955,5.145000,0.000000,0.000000,0.000000,0.024000,0.020000,1018.086121,-0.694119,24.921392,992,1500,1500,1500,992,992,1500,1500,1500
 8.298047,0.000000,0.000000,0.694119,-25.204533,4.067116,-0.355746,0.000000,0.000000,0.000000,0.003193,0.007301,-0.018358,66.662109,2.742188,-36.035156,-99.000000,-99.000000,0.000000,0.000000,-1.781982,5.145000,0.000000,0.000000,0.000000,0.024000,0.020000,1018.086121,-0.694119,24.921392,992,1500,1500,1500,992,992,1500,1500,1500
 8.399118,0.000000,0.000000,-0.010822,-25.146022,4.059758,-0.392992,0.000000,0.000000,0.000000,-0.005321,-0.007599,0.007184,66.662109,2.742188,-36.035156,-99.000000,-99.000000,0.000000,0.000000,-1.819229,5.145000,0.000000,0.000000,0.000000,0.024000,0.020000,1018.001038,0.010822,24.891396,992,1500,1500,1500,992,992,1500,1500,1500
 8.499963,0.000000,0.000000,-0.010822,-25.235299,4.091673,-0.256652,0.000000,0.000000,0.000000,-0.015963,-0.007599,0.015697,66.480469,4.021875,-35.859375,-99.000000,-99.000000,0.000000,0.000000,-1.682888,5.145000,0.000000,0.000000,0.000000,0.024000,0.020000,1018.001038,0.010822,24.891396,992,1500,1500,1500,992,992,1500,1500,1500
 8.599994,0.000000,0.000000,-0.010822,-25.331889,4.085041,-0.258062,0.000000,0.000000,0.000000,0.004257,0.011557,-0.021551,65.935547,4.204688,-33.222656,-99.000000,-99.000000,0.000000,0.000000,-1.684299,5.145000,0.000000,0.000000,0.000000,0.024000,0.020000,1018.001038,0.010822,24.891396,992,1500,1500,1500,992,992,1500,1500,1500
 8.700163,0.000000,0.000000,-0.010822,-25.243061,4.082439,-0.385296,0.000000,0.000000,0.000000,0.006385,0.007301,-0.007716,65.935547,4.204688,-33.222656,-99.000000,-99.000000,0.000000,0.000000,-1.811533,5.145000,0.000000,0.000000,0.000000,0.024000,0.020000,1018.001038,0.010822,24.891396,992,1500,1500,1500,992,992,1500,1500,1500
 8.806388,0.000000,0.000000,-0.010822,-25.233438,4.106938,-0.290389,0.000000,0.000000,0.000000,-0.011706,-0.008663,0.019954,65.935547,4.204688,-33.222656,-99.000000,-99.000000,0.000000,0.000000,-1.716625,5.145000,0.000000,0.000000,0.000000,0.024000,0.020000,1018.001038,0.010822,24.891396,992,1500,1500,1500,992,992,1500,1500,1500
 8.906958,0.000000,0.000000,-0.010822,-25.334923,4.107479,-0.258827,0.000000,0.000000,0.000000,0.018092,0.001979,-0.008780,65.935547,4.204688,-33.222656,-99.000000,-99.000000,0.000000,0.000000,-1.685063,5.145000,0.000000,0.000000,0.000000,0.024000,0.020000,1018.001038,0.010822,24.891396,992,1500,1500,1500,992,992,1500,1500,1500
 9.007371,0.000000,0.000000,-0.010822,-25.284825,4.116172,-0.356998,0.000000,0.000000,0.000000,0.011706,0.000915,-0.004523,65.208984,4.570313,-34.980469,-99.000000,-99.000000,0.000000,0.000000,-1.783235,5.145000,0.000000,0.000000,0.000000,0.024000,0.020000,1018.001038,0.010822,24.891396,992,1500,1500,1500,992,992,1500,1500,1500
 9.203820,0.000000,0.000000,-0.010822,-25.293273,4.167655,-0.024221,0.000000,0.000000,0.000000,0.018092,-0.000149,-0.003459,66.480469,6.215625,-33.046875,-99.000000,-99.000000,0.000000,0.000000,-1.808888,5.145000,0.000000,0.000000,0.000000,0.024000,0.020000,1018.001038,0.010822,24.891396,992,1500,1500,1500,992,992,1500,1500,1500
 9.306516,0.000000,0.000000,-0.010822,-25.289079,4.163627,-0.099761,0.000000,0.000000,0.000000,0.019156,0.000915,-0.004523,66.480469,6.215625,-33.046875,-99.000000,-99.000000,0.000000,0.000000,-1.884427,5.145000,0.000000,0.000000,0.000000,0.024000,0.020000,1018.001038,0.010822,24.891396,992,1500,1500,1500,992,992,1500,1500,1500
 9.408021,0.000000,0.000000,0.203093,-25.270799,4.172474,-0.108418,0.000000,0.000000,0.000000,0.000000,-0.002277,0.009312,66.480469,6.215625,-33.046875,-99.000000,-99.000000,0.000000,0.000000,-1.893085,5.145000,0.000000,0.000000,0.000000,0.024000,0.020000,1018.026855,-0.203093,24.940645,992,1500,1500,1500,992,992,1500,1500,1500
 9.508591,0.000000,0.000000,0.203093,-25.316723,4.180112,-0.013432,0.000000,0.000000,0.000000,-0.006385,-0.006534,0.013569,66.480469,6.215625,-33.046875,-99.000000,-99.000000,0.000000,0.000000,-1.798098,5.145000,0.000000,0.000000,0.000000,0.024000,0.020000,1018.026855,-0.203093,24.940645,992,1500,1500,1500,992,992,1500,1500,1500
 9.609727,0.000000,0.000000,0.203093,-25.389505,4.172861,0.000372,0.000000,0.000000,0.000000,0.002128,0.003044,-0.013037,66.298828,3.107813,-34.628906,-99.000000,-99.000000,0.000000,0.000000,-1.784294,5.145000,0.000000,0.000000,0.000000,0.024000,0.020000,1018.026855,-0.203093,24.940645,992,1500,1500,1500,992,992,1500,1500,1500
 9.711056,0.000000,0.000000,0.203093,-25.338799,4.169895,-0.118946,0.000000,0.000000,0.000000,0.007450,0.005172,-0.016229,66.298828,3.107813,-34.628906,-99.000000,-99.000000,0.000000,0.000000,-1.903613,5.145000,0.000000,0.000000,0.000000,0.024000,0.020000,1018.026855,-0.203093,24.940645,992,1500,1500,1500,992,992,1500,1500,1500
 9.811099,0.000000,0.000000,0.203093,-25.294934,4.181400,-0.086004,0.000000,0.000000,0.000000,-0.010642,-0.007599,0.016762,66.298828,3.107813,-34.628906,-99.000000,-99.000000,0.000000,0.000000,-1.870671,5.145000,0.000000,0.000000,0.000000,0.024000,0.020000,1018.026855,-0.203093,24.940645,992,1500,1500,1500,992,992,1500,1500,1500
 9.912292,0.000000,0.000000,0.203093,-25.400153,4.183498,-0.034886,0.000000,0.000000,0.000000,0.005321,0.001979,-0.005587,66.298828,3.107813,-34.628906,-99.000000,-99.000000,0.000000,0.000000,-1.819553,5.145000,0.000000,0.000000,0.000000,0.024000,0.020000,1018.026855,-0.203093,24.940645,992,1500,1500,1500,992,992,1500,1500,1500
 10.198010,0.000000,0.000000,0.203093,-25.600756,3.992074,-0.037307,0.000000,0.000000,0.000000,-0.006385,-0.002277,0.002927,67.751953,5.301563,-34.628906,-99.000000,-99.000000,0.000000,0.000000,-1.931326,5.145000,0.000000,0.000000,0.000000,0.024000,0.020000,1018.026855,-0.203093,24.940645,992,1500,1500,1500,992,992,1500,1500,1500
 10.299289,0.000000,0.000000,0.203093,-25.626349,4.002474,-0.085361,0.000000,0.000000,0.000000,0.000000,0.006236,-0.015165,67.751953,5.301563,-34.628906,-99.000000,-99.000000,0.000000,0.000000,-1.979380,5.145000,0.000000,0.000000,0.000000,0.024000,0.020000,1018.026855,-0.203093,24.940645,992,1500,1500,1500,992,992,1500,1500,1500
 10.400564,0.000000,0.000000,0.203093,-25.555071,4.031645,-0.090271,0.000000,0.000000,0.000000,-0.006385,0.000915,0.009312,67.751953,5.301563,-34.628906,-99.000000,-99.000000,0.000000,0.000000,-1.984290,5.145000,0.000000,0.000000,0.000000,0.024000,0.020000,1018.026855,-0.203093,24.940645,992,1500,1500,1500,992,992,1500,1500,1500
 10.501323,0.000000,0.000000,0.697153,-25.603477,4.037632,-0.046948,0.000000,0.000000,0.000000,0.002128,-0.001213,-0.005587,69.205078,5.301563,-33.574219,-99.000000,-99.000000,0.000000,0.000000,-1.940966,5.145000,0.000000,0.000000,0.000000,0.024000,0.020000,1018.086487,-0.697153,25.010052,992,1500,1500,1500,992,992,1500,1500,1500
 10.605935,0.000000,0.000000,0.697153,-25.569219,4.036565,-0.107162,0.000000,0.000000,0.000000,0.006385,0.004108,-0.010908,67.570312,4.753125,-33.750000,-99.000000,-99.000000,0.000000,0.000000,-2.001181,5.145000,0.000000,0.000000,0.000000,0.024000,0.020000,1018.086487,-0.697153,25.010052,992,1500,1500,1500,992,992,1500,1500,1500
 10.706501,0.000000,0.000000,0.697153,-25.525898,4.062233,-0.091139,0.000000,0.000000,0.000000,-0.017028,-0.002277,0.019954,67.570312,4.753125,-33.750000,-99.000000,-99.000000,0.000000,0.000000,-1.985158,5.145000,0.000000,0.000000,0.000000,0.024000,0.020000,1018.086487,-0.697153,25.010052,992,1500,1500,1500,992,992,1500,1500,1500
 10.807506,0.000000,0.000000,0.697153,-25.558930,4.075317,-0.023535,0.000000,0.000000,0.000000,-0.009578,0.007301,-0.005587,67.570312,4.753125,-33.750000,-99.000000,-99.000000,0.000000,0.000000,-1.917554,5.145000,0.000000,0.000000,0.000000,0.024000,0.020000,1018.086487,-0.697153,25.010052,992,1500,1500,1500,992,992,1500,1500,1500
 10.907636,0.000000,0.000000,0.697153,-25.535228,4.078506,-0.012648,0.000000,0.000000,0.000000,-0.001064,-0.002277,0.010376,65.027344,5.850000,-33.750000,-99.000000,-99.000000,0.000000,0.000000,-1.906667,5.145000,0.000000,0.000000,0.000000,0.024000,0.020000,1018.086487,-0.697153,25.010052,992,1500,1500,1500,992,992,1500,1500,1500
 11.007735,0.000000,0.000000,0.697153,-25.570140,4.100368,-0.023990,0.000000,0.000000,0.000000,0.034055,0.001979,-0.015165,67.207031,4.387500,-34.453125,-99.000000,-99.000000,0.000000,0.000000,-1.918009,5.145000,0.000000,0.000000,0.000000,0.024000,0.020000,1018.086487,-0.697153,25.010052,992,1500,1500,1500,992,992,1500,1500,1500
 11.204022,0.000000,0.000000,0.697153,-25.522469,3.992539,0.395834,0.000000,0.000000,0.000000,-0.007450,-0.019305,0.034853,67.207031,4.387500,-34.453125,-99.000000,-99.000000,0.000000,0.000000,-1.524929,5.145000,0.000000,0.000000,0.000000,0.024000,0.020000,1018.086487,-0.697153,25.010052,992,1500,1500,1500,992,992,1500,1500,1500
 11.304994,0.000000,0.000000,0.697153,-25.646355,4.006090,0.403597,0.000000,0.000000,0.000000,0.034055,0.008365,-0.029000,67.207031,4.387500,-34.453125,-99.000000,-99.000000,0.000000,0.000000,-1.517166,5.145000,0.000000,0.000000,0.000000,0.024000,0.020000,1018.086487,-0.697153,25.010052,992,1500,1500,1500,992,992,1500,1500,1500
 11.405078,0.000000,0.000000,0.697153,-25.494744,4.013700,0.204258,0.000000,0.000000,0.000000,0.017028,0.004108,-0.014101,67.025391,3.839063,-34.628906,-99.000000,-99.000000,0.000000,0.000000,-1.716505,5.145000,0.000000,0.000000,0.000000,0.024000,0.020000,1018.086487,-0.697153,25.010052,992,1500,1500,1500,992,992,1500,1500,1500
 11.506533,0.000000,0.000000,0.385650,-25.460462,4.056948,0.366969,0.000000,0.000000,0.000000,-0.025541,-0.015048,0.032725,67.025391,3.839063,-34.628906,-99.000000,-99.000000,0.000000,0.000000,-1.553794,5.145000,0.000000,0.000000,0.000000,0.024000,0.020000,1018.048889,-0.385650,24.940712,992,1500,1500,1500,992,992,1500,1500,1500
 11.607044,0.000000,0.000000,0.385650,-25.602697,4.044021,0.441221,0.000000,0.000000,0.000000,0.021284,0.004108,-0.014101,67.025391,3.839063,-34.628906,-99.000000,-99.000000,0.000000,0.000000,-1.479543,5.145000,0.000000,0.000000,0.000000,0.024000,0.020000,1018.048889,-0.385650,24.940712,992,1500,1500,1500,992,992,1500,1500,1500
 11.708170,0.000000,0.000000,0.385650,-25.526370,4.064288,0.266287,0.000000,0.000000,0.000000,0.027670,-0.002277,-0.007716,66.843750,4.021875,-34.453125,-99.000000,-99.000000,0.000000,0.000000,-1.654476,5.145000,0.000000,0.000000,0.000000,0.024000,0.020000,1018.048889,-0.385650,24.940712,992,1500,1500,1500,992,992,1500,1500,1500
 11.809714,0.000000,0.000000,0.385650,-25.514716,4.090679,0.343382,0.000000,0.000000,0.000000,0.001064,-0.007599,0.018890,66.843750,4.021875,-34.453125,-99.000000,-99.000000,0.000000,0.000000,-1.577381,5.145000,0.000000,0.000000,0.000000,0.024000,0.020000,1018.048889,-0.385650,24.940712,992,1500,1500,1500,992,992,1500,1500,1500
 11.911259,0.000000,0.000000,0.385650,-25.549968,4.095917,0.337420,0.000000,0.000000,0.000000,0.014899,-0.000149,-0.005587,64.664062,3.656250,-35.156250,-99.000000,-99.000000,0.000000,0.000000,-1.583343,5.145000,0.000000,0.000000,0.000000,0.024000,0.020000,1018.048889,-0.385650,24.940712,992,1500,1500,1500,992,992,1500,1500,1500
 12.012631,0.000000,0.000000,0.385650,-25.540343,4.114946,0.000000,0.000000,0.000000,0.000000,-0.008514,-0.004406,0.008248,64.664062,3.656250,-35.156250,-99.000000,-99.000000,0.000000,0.000000,-1.560437,5.145000,0.000000,0.000000,0.000000,0.024000,0.020000,1018.048889,-0.385650,24.940712,992,1500,1500,1500,992,992,1500,1500,1500
 12.225514,0.000000,0.000000,0.385650,-25.490303,4.158806,0.079502,0.000000,0.000000,0.000000,-0.012771,0.000915,0.005055,64.664062,3.656250,-35.156250,-99.000000,-99.000000,0.000000,0.000000,-1.480935,5.145000,0.000000,0.000000,0.000000,0.024000,0.020000,1018.048889,-0.385650,24.940712,992,1500,1500,1500,992,992,1500,1500,1500
 12.326848,0.000000,0.000000,0.385650,-25.534121,4.175762,0.193460,0.000000,0.000000,0.000000,-0.015963,-0.003342,0.006119,64.664062,3.656250,-35.156250,-99.000000,-99.000000,0.000000,0.000000,-1.366977,5.145000,0.000000,0.000000,0.000000,0.024000,0.020000,1018.048889,-0.385650,24.940712,992,1500,1500,1500,992,992,1500,1500,1500
 12.426936,0.000000,0.000000,0.385650,-25.572861,4.154504,0.102674,0.000000,0.000000,0.000000,0.009578,0.019007,-0.031129,66.480469,5.850000,-34.101562,-99.000000,-99.000000,0.000000,0.000000,-1.457763,5.145000,0.000000,0.000000,0.000000,0.024000,0.020000,1018.048889,-0.385650,24.940712,992,1500,1500,1500,992,992,1500,1500,1500
 12.527388,0.000000,0.000000,0.146454,-25.441169,4.170444,0.014096,0.000000,0.000000,0.000000,-0.018092,0.000915,0.002927,66.480469,5.850000,-34.101562,-99.000000,-99.000000,0.000000,0.000000,-1.546341,5.145000,0.000000,0.000000,0.000000,0.024000,0.020000,1018.020020,-0.146454,24.865864,992,1500,1500,1500,992,992,1500,1500,1500
 12.628685,0.000000,0.000000,0.146454,-25.507221,4.179536,0.113576,0.000000,0.000000,0.000000,-0.023413,0.007301,-0.002395,66.480469,5.850000,-34.101562,-99.000000,-99.000000,0.000000,0.000000,-1.446861,5.145000,0.000000,0.000000,0.000000,0.024000,0.020000,1018.020020,-0.146454,24.865864,992,1500,1500,1500,992,992,1500,1500,1500
 12.729569,0.000000,0.000000,0.146454,-25.494574,4.164618,0.025218,0.000000,0.000000,0.000000,0.002128,0.014750,-0.022615,67.207031,5.850000,-34.101562,-99.000000,-99.000000,0.000000,0.000000,-1.535220,5.145000,0.000000,0.000000,0.000000,0.024000,0.020000,1018.020020,-0.146454,24.865864,992,1500,1500,1500,992,992,1500,1500,1500
 12.830683,0.000000,0.000000,0.146454,-25.407492,4.169515,0.004156,0.000000,0.000000,0.000000,-0.012771,-0.002277,0.016762,67.207031,5.850000,-34.101562,-99.000000,-99.000000,0.000000,0.000000,-1.556281,5.145000,0.000000,0.000000,0.000000,0.024000,0.020000,1018.020020,-0.146454,24.865864,992,1500,1500,1500,992,992,1500,1500,1500
 12.931473,0.000000,0.000000,0.146454,-25.489354,4.178230,0.150639,0.000000,0.000000,0.000000,-0.024477,-0.000149,0.009312,67.751953,6.764063,-34.980469,-99.000000,-99.000000,0.000000,0.000000,-1.409798,5.145000,0.000000,0.000000,0.000000,0.024000,0.020000,1018.020020,-0.146454,24.865864,992,1500,1500,1500,992,992,1500,1500,1500
 13.200822,0.000000,0.000000,0.146454,-25.871412,4.228914,0.743001,0.000000,0.000000,0.000000,-0.032991,-0.026755,0.059331,67.751953,6.764063,-34.980469,-99.000000,-99.000000,0.000000,0.000000,-0.721728,5.145000,0.000000,0.000000,0.000000,0.024000,0.020000,1018.020020,-0.146454,24.865864,992,1500,1500,1500,992,992,1500,1500,1500
 13.304555,0.000000,0.000000,0.146454,-26.050153,4.185427,0.836371,0.000000,0.000000,0.000000,-0.003193,0.020071,-0.031129,68.478516,5.301563,-34.277344,-99.000000,-99.000000,0.000000,0.000000,-0.628358,5.145000,0.000000,0.000000,0.000000,0.024000,0.020000,1018.020020,-0.146454,24.865864,992,1500,1500,1500,992,992,1500,1500,1500
 13.404662,0.000000,0.000000,0.146454,-25.843651,4.181885,0.605334,0.000000,0.000000,0.000000,0.004257,0.013686,-0.021551,68.478516,5.301563,-34.277344,-99.000000,-99.000000,0.000000,0.000000,-0.859395,5.145000,0.000000,0.000000,0.000000,0.024000,0.020000,1018.020020,-0.146454,24.865864,992,1500,1500,1500,992,992,1500,1500,1500
 13.505167,0.000000,0.000000,0.475663,-25.752504,4.188638,0.654360,0.000000,0.000000,0.000000,-0.019156,-0.006534,0.023147,68.478516,5.301563,-34.277344,-99.000000,-99.000000,0.000000,0.000000,-0.810369,5.145000,0.000000,0.000000,0.000000,0.024000,0.020000,1018.059753,-0.475663,24.883373,992,1500,1500,1500,992,992,1500,1500,1500
 13.606740,0.000000,0.000000,0.475663,-25.838424,4.194010,0.752761,0.000000,0.000000,0.000000,0.002128,-0.003342,0.001862,66.117188,3.290625,-35.507812,-99.000000,-99.000000,0.000000,0.000000,-0.711968,5.145000,0.000000,0.000000,0.000000,0.024000,0.020000,1018.059753,-0.475663,24.883373,992,1500,1500,1500,992,992,1500,1500,1500
 13.707612,0.000000,0.000000,0.475663,-25.790577,4.177626,0.689998,0.000000,0.000000,0.000000,0.009578,0.005172,-0.010908,66.117188,3.290625,-35.507812,-99.000000,-99.000000,0.000000,0.000000,-0.774731,5.145000,0.000000,0.000000,0.000000,0.024000,0.020000,1018.059753,-0.475663,24.883373,992,1500,1500,1500,992,992,1500,1500,1500
 13.808237,0.000000,0.000000,0.475663,-25.727940,4.187776,0.631853,0.000000,0.000000,0.000000,0.011706,0.001979,-0.002395,66.117188,3.290625,-35.507812,-99.000000,-99.000000,0.000000,0.000000,-0.832876,5.145000,0.000000,0.000000,0.000000,0.024000,0.020000,1018.059753,-0.475663,24.883373,992,1500,1500,1500,992,992,1500,1500,1500
 13.909769,0.000000,0.000000,0.475663,-25.662992,4.180881,0.632237,0.000000,0.000000,0.000000,-0.003193,-0.004406,0.012505,66.117188,3.290625,-35.507812,-99.000000,-99.000000,0.000000,0.000000,-0.832492,5.145000,0.000000,0.000000,0.000000,0.024000,0.020000,1018.059753,-0.475663,24.883373,992,1500,1500,1500,992,992,1500,1500,1500
 14.010636,0.000000,0.000000,0.475663,-25.696452,4.195421,0.734853,0.000000,0.000000,0.000000,0.000000,-0.005470,0.008248,66.298828,4.570313,-33.222656,-99.000000,-99.000000,0.000000,0.000000,-0.729876,5.145000,0.000000,0.000000,0.000000,0.024000,0.020000,1018.059753,-0.475663,24.883373,992,1500,1500,1500,992,992,1500,1500,1500
 14.199783,0.000000,0.000000,0.475663,-25.762435,4.232320,-0.094631,0.000000,0.000000,0.000000,-0.007450,0.005172,-0.009844,66.298828,4.570313,-33.222656,-99.000000,-99.000000,0.000000,0.000000,-0.823615,5.145000,0.000000,0.000000,0.000000,0.024000,0.020000,1018.059753,-0.475663,24.883373,992,1500,1500,1500,992,992,1500,1500,1500
 14.300503,0.000000,0.000000,0.475663,-25.705767,4.219958,-0.085640,0.000000,0.000000,0.000000,-0.013835,-0.002277,0.009312,66.298828,4.570313,-33.222656,-99.000000,-99.000000,0.000000,0.000000,-0.814624,5.145000,0.000000,0.000000,0.000000,0.024000,0.020000,1018.059753,-0.475663,24.883373,992,1500,1500,1500,992,992,1500,1500,1500
 14.400796,0.000000,0.000000,0.475663,-25.737512,4.228120,-0.028636,0.000000,0.000000,0.000000,-0.004257,0.004108,-0.009844,67.933594,4.387500,-32.695312,-99.000000,-99.000000,0.000000,0.000000,-0.757620,5.145000,0.000000,0.000000,0.000000,0.024000,0.020000,1018.059753,-0.475663,24.883373,992,1500,1500,1500,992,992,1500,1500,1500
 14.504822,0.000000,0.000000,0.280465,-25.663277,4.198439,-0.139602,0.000000,0.000000,0.000000,-0.008514,0.009429,-0.014101,67.933594,4.387500,-32.695312,-99.000000,-99.000000,0.000000,0.000000,-0.868586,5.145000,0.000000,0.000000,0.000000,0.024000,0.020000,1018.036194,-0.280465,24.936317,992,1500,1500,1500,992,992,1500,1500,1500
 14.606238,0.000000,0.000000,0.280465,-25.615575,4.216705,-0.116800,0.000000,0.000000,0.000000,-0.015963,-0.002277,0.005055,67.933594,4.387500,-32.695312,-99.000000,-99.000000,0.000000,0.000000,-0.845784,5.145000,0.000000,0.000000,0.000000,0.024000,0.020000,1018.036194,-0.280465,24.936317,992,1500,1500,1500,992,992,1500,1500,1500
 14.707172,0.000000,0.000000,0.280465,-25.629873,4.199961,-0.101389,0.000000,0.000000,0.000000,-0.003193,0.004108,-0.001330,67.933594,4.387500,-32.695312,-99.000000,-99.000000,0.000000,0.000000,-0.830373,5.145000,0.000000,0.000000,0.000000,0.024000,0.020000,1018.036194,-0.280465,24.936317,992,1500,1500,1500,992,992,1500,1500,1500
 14.808674,0.000000,0.000000,0.280465,-25.590722,4.202821,-0.149500,0.000000,0.000000,0.000000,0.001064,0.004108,-0.004523,68.115234,4.935938,-35.332031,-99.000000,-99.000000,0.000000,0.000000,-0.878485,5.145000,0.000000,0.000000,0.000000,0.024000,0.020000,1018.036194,-0.280465,24.936317,992,1500,1500,1500,992,992,1500,1500,1500
 14.909670,0.000000,0.000000,0.280465,-25.565995,4.205624,-0.117415,0.000000,0.000000,0.000000,0.000000,-0.002277,0.006119,68.115234,4.570313,-33.574219,-99.000000,-99.000000,0.000000,0.000000,-0.846399,5.145000,0.000000,0.000000,0.000000,0.024000,0.020000,1018.036194,-0.280465,24.936317,992,1500,1500,1500,992,992,1500,1500,1500
 15.010131,0.000000,0.000000,0.280465,-25.591375,4.185774,-0.128364,0.000000,0.000000,0.000000,0.004257,-0.000149,-0.003459,67.751953,6.032813,-34.628906,-99.000000,-99.000000,0.000000,0.000000,-0.857348,5.145000,0.000000,0.000000,0.000000,0.024000,0.020000,1018.036194,-0.280465,24.936317,992,1500,1500,1500,992,992,1500,1500,1500
 15.200667,0.000000,0.000000,0.280465,-25.477113,4.210071,0.133794,0.000000,0.000000,0.000000,0.001064,-0.005470,0.010376,67.751953,6.032813,-34.628906,-99.000000,-99.000000,0.000000,0.000000,-0.725509,5.145000,0.000000,0.000000,0.000000,0.024000,0.020000,1018.036194,-0.280465,24.936317,992,1500,1500,1500,992,992,1500,1500,1500
 15.300854,0.000000,0.000000,0.280465,-25.501334,4.224693,0.196639,0.000000,0.000000,0.000000,0.004257,-0.002277,0.008248,67.751953,6.032813,-34.628906,-99.000000,-99.000000,0.000000,0.000000,-0.662664,5.145000,0.000000,0.000000,0.000000,0.024000,0.020000,1018.036194,-0.280465,24.936317,992,1500,1500,1500,992,992,1500,1500,1500
 15.404846,0.000000,0.000000,0.280465,-25.532597,4.220885,0.154243,0.000000,0.000000,0.000000,0.019156,0.004108,-0.008780,68.296875,5.850000,-33.750000,-99.000000,-99.000000,0.000000,0.000000,-0.705061,5.145000,0.000000,0.000000,0.000000,0.024000,0.020000,1018.036194,-0.280465,24.936317,992,1500,1500,1500,992,992,1500,1500,1500
 15.505811,0.000000,0.000000,0.280465,-25.456544,4.225597,0.138961,0.000000,0.000000,0.000000,-0.001064,-0.010791,0.016762,68.296875,5.850000,-33.750000,-99.000000,-99.000000,0.000000,0.000000,-0.720343,5.145000,0.000000,0.000000,0.000000,0.024000,0.020000,1018.036194,-0.280465,24.936317,992,1500,1500,1500,992,992,1500,1500,1500
 15.606358,0.000000,0.000000,0.810931,-25.537304,4.217865,0.201843,0.000000,0.000000,0.000000,0.014899,-0.006534,0.002927,68.478516,3.839063,-34.277344,-99.000000,-99.000000,0.000000,0.000000,-0.657461,5.145000,0.000000,0.000000,0.000000,0.024000,0.020000,1018.100220,-0.810931,24.972662,992,1500,1500,1500,992,992,1500,1500,1500
 15.707108,0.000000,0.000000,0.810931,-25.512517,4.205560,0.079936,0.000000,0.000000,0.000000,0.024477,0.003044,-0.015165,66.662109,5.667188,-34.277344,-99.000000,-99.000000,0.000000,0.000000,-0.779367,5.145000,0.000000,0.000000,0.000000,0.024000,0.020000,1018.100220,-0.810931,24.972662,992,1500,1500,1500,992,992,1500,1500,1500
 15.808308,0.000000,0.000000,0.810931,-25.440221,4.213484,0.136350,0.000000,0.000000,0.000000,-0.021284,-0.009727,0.027404,66.662109,5.667188,-34.277344,-99.000000,-99.000000,0.000000,0.000000,-0.722954,5.145000,0.000000,0.000000,0.000000,0.024000,0.020000,1018.100220,-0.810931,24.972662,992,1500,1500,1500,992,992,1500,1500,1500
 15.909579,0.000000,0.000000,0.810931,-25.572996,4.206501,0.220472,0.000000,0.000000,0.000000,0.004257,0.004108,-0.013037,66.662109,5.667188,-34.277344,-99.000000,-99.000000,0.000000,0.000000,-0.638832,5.145000,0.000000,0.000000,0.000000,0.024000,0.020000,1018.100220,-0.810931,24.972662,992,1500,1500,1500,992,992,1500,1500,1500
 16.010726,0.000000,0.000000,0.810931,-25.495754,4.179511,0.040447,0.000000,0.000000,0.000000,0.008514,0.010493,-0.019422,66.662109,5.667188,-34.277344,-99.000000,-99.000000,0.000000,0.000000,-0.818856,5.145000,0.000000,0.000000,0.000000,0.024000,0.020000,1018.100220,-0.810931,24.972662,992,1500,1500,1500,992,992,1500,1500,1500
 16.207784,0.000000,0.000000,0.810931,-25.710190,4.065361,-0.482584,0.000000,0.000000,0.000000,0.005321,0.016879,-0.035385,66.662109,5.667188,-34.277344,-99.000000,-99.000000,0.000000,0.000000,-1.308136,5.145000,0.000000,0.000000,0.000000,0.024000,0.020000,1018.100220,-0.810931,24.972662,992,1500,1500,1500,992,992,1500,1500,1500
 16.307858,0.000000,0.000000,0.810931,-25.540426,4.062807,-0.709515,0.000000,0.000000,0.000000,0.004257,0.001979,-0.002395,66.662109,5.667188,-34.277344,-99.000000,-99.000000,0.000000,0.000000,-1.535068,5.145000,0.000000,0.000000,0.000000,0.024000,0.020000,1018.100220,-0.810931,24.972662,992,1500,1500,1500,992,992,1500,1500,1500
 16.408496,0.000000,0.000000,0.810931,-25.530493,4.110506,-0.571801,0.000000,0.000000,0.000000,-0.011706,-0.012920,0.026340,69.023438,4.753125,-33.750000,-99.000000,-99.000000,0.000000,0.000000,-1.397354,5.145000,0.000000,0.000000,0.000000,0.024000,0.020000,1018.100220,-0.810931,24.972662,992,1500,1500,1500,992,992,1500,1500,1500
 16.508516,0.000000,0.000000,0.810931,-25.620680,4.094072,-0.555419,0.000000,0.000000,0.000000,0.009578,0.001979,-0.006651,69.023438,4.753125,-33.750000,-99.000000,-99.000000,0.000000,0.000000,-1.380972,5.145000,0.000000,0.000000,0.000000,0.024000,0.020000,1018.100220,-0.810931,24.972662,992,1500,1500,1500,992,992,1500,1500,1500
 16.608715,0.000000,0.000000,0.633943,-25.567102,4.115510,-0.610522,0.000000,0.000000,0.000000,0.007450,0.005172,-0.017294,69.023438,3.656250,-34.804688,-99.000000,-99.000000,0.000000,0.000000,-1.436075,5.145000,0.000000,0.000000,0.000000,0.024000,0.020000,1018.078857,-0.633943,24.960526,992,1500,1500,1500,992,992,1500,1500,1500
 16.710046,0.000000,0.000000,0.633943,-25.466166,4.102146,-0.685450,0.000000,0.000000,0.000000,-0.013835,0.004108,0.006119,67.570312,4.753125,-33.046875,-99.000000,-99.000000,0.000000,0.000000,-1.511003,5.145000,0.000000,0.000000,0.000000,0.024000,0.020000,1018.078857,-0.633943,24.960526,992,1500,1500,1500,992,992,1500,1500,1500
 16.811204,0.000000,0.000000,0.633943,-25.514505,4.135753,-0.528146,0.000000,0.000000,0.000000,-0.026606,-0.006534,0.013569,67.570312,4.753125,-33.046875,-99.000000,-99.000000,0.000000,0.000000,-1.353699,5.145000,0.000000,0.000000,0.000000,0.024000,0.020000,1018.078857,-0.633943,24.960526,992,1500,1500,1500,992,992,1500,1500,1500
 16.912103,0.000000,0.000000,0.633943,-25.588609,4.095276,-0.610715,0.000000,0.000000,0.000000,0.022349,0.017943,-0.033257,67.570312,4.753125,-33.046875,-99.000000,-99.000000,0.000000,0.000000,-1.436268,5.145000,0.000000,0.000000,0.000000,0.024000,0.020000,1018.078857,-0.633943,24.960526,992,1500,1500,1500,992,992,1500,1500,1500
 17.012776,0.000000,0.000000,0.633943,-25.420152,4.137854,-0.699556,0.000000,0.000000,0.000000,0.006385,-0.005470,0.013569,67.570312,4.753125,-33.046875,-99.000000,-99.000000,0.000000,0.000000,-1.525109,5.145000,0.000000,0.000000,0.000000,0.024000,0.020000,1018.078857,-0.633943,24.960526,992,1500,1500,1500,992,992,1500,1500,1500
 17.224203,0.000000,0.000000,0.633943,-25.188434,4.033884,-0.283449,0.000000,0.000000,0.000000,0.028734,0.006236,-0.017294,67.570312,5.484375,-33.750000,-99.000000,-99.000000,0.000000,0.000000,-1.805552,5.145000,0.000000,0.000000,0.000000,0.024000,0.020000,1018.078857,-0.633943,24.960526,992,1500,1500,1500,992,992,1500,1500,1500
 17.325553,0.000000,0.000000,0.633943,-25.109013,4.026005,-0.399211,0.000000,0.000000,0.000000,0.003193,-0.008663,0.009312,67.388672,4.204688,-34.980469,-99.000000,-99.000000,0.000000,0.000000,-1.921314,5.145000,0.000000,0.000000,0.000000,0.024000,0.020000,1018.078857,-0.633943,24.960526,992,1500,1500,1500,992,992,1500,1500,1500
 17.426755,0.000000,0.000000,0.633943,-25.214345,4.075691,-0.250078,0.000000,0.000000,0.000000,-0.004257,-0.004406,0.000798,66.662109,3.839063,-33.925781,-99.000000,-99.000000,0.000000,0.000000,-1.772181,5.145000,0.000000,0.000000,0.000000,0.024000,0.020000,1018.078857,-0.633943,24.960526,992,1500,1500,1500,992,992,1500,1500,1500
 17.527493,0.000000,0.000000,0.633943,-25.241901,4.037518,-0.380765,0.000000,0.000000,0.000000,0.022349,0.008365,-0.019422,66.662109,3.839063,-33.925781,-99.000000,-99.000000,0.000000,0.000000,-1.902868,5.145000,0.000000,0.000000,0.000000,0.024000,0.020000,1018.078857,-0.633943,24.960526,992,1500,1500,1500,992,992,1500,1500,1500
 17.627620,0.000000,0.000000,0.155556,-25.187390,4.095491,-0.360223,0.000000,0.000000,0.000000,-0.012771,-0.009727,0.026340,66.662109,3.839063,-33.925781,-99.000000,-99.000000,0.000000,0.000000,-1.882326,5.145000,0.000000,0.000000,0.000000,0.024000,0.020000,1018.021118,-0.155556,24.968548,992,1500,1500,1500,992,992,1500,1500,1500
 17.729091,0.000000,0.000000,0.155556,-25.360735,4.092405,-0.254383,0.000000,0.000000,0.000000,0.025541,0.007301,-0.022615,66.662109,3.839063,-33.925781,-99.000000,-99.000000,0.000000,0.000000,-1.776486,5.145000,0.000000,0.000000,0.000000,0.024000,0.020000,1018.021118,-0.155556,24.968548,992,1500,1500,1500,992,992,1500,1500,1500
 17.830638,0.000000,0.000000,0.155556,-25.227273,4.080322,-0.468548,0.000000,0.000000,0.000000,0.018092,0.009429,-0.007716,66.662109,3.839063,-33.925781,-99.000000,-99.000000,0.000000,0.000000,-1.990650,5.145000,0.000000,0.000000,0.000000,0.024000,0.020000,1018.021118,-0.155556,24.968548,997,1498,1503,1509,993,997,1498,1503,1509
 17.931885,0.000000,0.000000,0.155556,-25.241788,4.138486,-0.247261,0.000000,0.000000,0.000000,-0.021284,-0.022498,0.045496,66.662109,3.839063,-33.925781,-99.000000,-99.000000,0.000000,0.000000,-1.769364,5.145000,0.000000,0.000000,0.000000,0.024000,0.020000,1018.021118,-0.155556,24.968548,995,1500,1503,1509,993,995,1500,1503,1509
 18.199882,0.000000,0.000000,0.155556,-25.646913,4.184057,0.347162,0.000000,0.000000,0.000000,-0.028734,-0.010791,0.026340,66.117188,4.387500,-37.265625,-99.000000,-99.000000,0.000000,0.000000,-1.378394,5.145000,0.000000,0.000000,0.000000,0.024000,0.020000,1018.021118,-0.155556,24.968548,995,1500,1503,1509,993,995,1500,1502,1510
 18.300271,0.000000,0.000000,0.155556,-25.744623,4.197167,0.506356,0.000000,0.000000,0.000000,-0.003193,0.000915,0.003991,66.117188,4.387500,-37.265625,-99.000000,-99.000000,0.000000,0.000000,-1.219200,5.145000,0.000000,0.000000,0.000000,0.024000,0.020000,1018.021118,-0.155556,24.968548,995,1500,1503,1511,992,995,1500,1503,1511
 18.404775,0.000000,0.000000,0.155556,-25.744082,4.170296,0.428250,0.000000,0.000000,0.000000,0.004257,0.009429,-0.023679,68.296875,4.021875,-33.398438,-99.000000,-99.000000,0.000000,0.000000,-1.297306,5.145000,0.000000,0.000000,0.000000,0.024000,0.020000,1018.021118,-0.155556,24.968548,994,1501,1502,1509,993,994,1501,1502,1509
 18.505852,0.000000,0.000000,0.155556,-25.644569,4.192930,0.373998,0.000000,0.000000,0.000000,-0.003193,-0.004406,0.003991,68.296875,4.021875,-33.398438,-99.000000,-99.000000,0.000000,0.000000,-1.351558,5.145000,0.000000,0.000000,0.000000,0.024000,0.020000,1018.021118,-0.155556,24.968548,995,1500,1502,1510,992,995,1500,1502,1510
 18.606387,0.000000,0.000000,0.378570,-25.653402,4.171711,0.411699,0.000000,0.000000,0.000000,-0.001064,-0.005470,0.006119,68.296875,4.021875,-33.398438,-99.000000,-99.000000,0.000000,0.000000,-1.313857,5.145000,0.000000,0.000000,0.000000,0.024000,0.020000,1018.048035,-0.378570,24.950550,995,1500,1502,1510,992,995,1500,1502,1510
 18.708075,0.000000,0.000000,0.378570,-25.659426,4.194242,0.434986,0.000000,0.000000,0.000000,0.005321,0.001979,-0.001330,67.388672,3.107813,-35.332031,-99.000000,-99.000000,0.000000,0.000000,-1.290570,5.145000,0.000000,0.000000,0.000000,0.024000,0.020000,1018.048035,-0.378570,24.950550,995,1500,1503,1509,993,995,1500,1503,1509
 18.809508,0.000000,0.000000,0.378570,-25.635407,4.169398,0.400835,0.000000,0.000000,0.000000,0.015963,-0.003342,0.007184,67.388672,3.107813,-35.332031,-99.000000,-99.000000,0.000000,0.000000,-1.324721,5.145000,0.000000,0.000000,0.000000,0.024000,0.020000,1018.048035,-0.378570,24.950550,997,1498,1502,1510,992,997,1498,1502,1510
 18.909778,0.000000,0.000000,0.378570,-25.635379,4.197861,0.453577,0.000000,0.000000,0.000000,0.010642,-0.004406,0.006119,66.117188,4.021875,-34.101562,-99.000000,-99.000000,0.000000,0.000000,-1.271979,5.145000,0.000000,0.000000,0.000000,0.024000,0.020000,1018.048035,-0.378570,24.950550,995,1500,1502,1511,993,995,1500,1502,1511
 19.011263,0.000000,0.000000,0.378570,-25.644095,4.181971,0.441133,0.000000,0.000000,0.000000,0.024477,-0.004406,0.002927,66.480469,3.290625,-34.804688,-99.000000,-99.000000,0.000000,0.000000,-1.284423,5.145000,0.000000,0.000000,0.000000,0.024000,0.020000,1018.048035,-0.378570,24.950550,1165,1501,1502,1509,992,1165,1501,1502,1509
 19.201398,0.000000,0.000000,0.378570,-25.501603,4.178461,-0.119178,0.000000,0.000000,0.000000,0.003193,0.005172,-0.009844,66.480469,3.290625,-34.804688,-99.000000,-99.000000,0.000000,0.000000,-1.402133,5.145000,0.000000,0.000000,0.000000,0.024000,0.020000,1018.048035,-0.378570,24.950550,1782,1500,1503,1509,993,1165,1501,1502,1509
 19.301559,0.000000,0.000000,0.378570,-25.467352,4.202561,-0.142447,0.000000,0.000000,0.000000,-0.013835,0.005172,0.000798,66.480469,3.290625,-34.804688,-99.000000,-99.000000,0.000000,0.000000,-1.425402,5.145000,0.000000,0.000000,0.000000,0.024000,0.020000,1018.048035,-0.378570,24.950550,2015,1500,1503,1509,992,2000,1500,1503,1509
 19.401596,0.000000,0.000000,0.378570,-25.452085,4.185787,-0.134921,0.000000,0.000000,0.000000,-0.019156,-0.000149,0.001862,66.480469,3.290625,-34.804688,-99.000000,-99.000000,0.000000,0.000000,-1.417876,5.145000,0.000000,0.000000,0.000000,0.024000,0.020000,1018.048035,-0.378570,24.950550,2015,1500,1503,1509,992,2000,1500,1503,1509
 19.501617,0.000000,0.000000,0.378570,-25.488961,4.185031,-0.075032,0.000000,0.000000,0.000000,-0.014899,-0.002277,0.006119,66.480469,3.290625,-34.804688,-99.000000,-99.000000,0.000000,0.000000,-1.357987,5.145000,0.000000,0.000000,0.000000,0.024000,0.020000,1018.048035,-0.378570,24.950550,2015,1500,1504,1510,993,2000,1500,1504,1510
 19.605658,0.000000,0.000000,0.378570,-25.517857,4.192364,-0.062555,0.000000,0.000000,0.000000,0.005321,0.003044,-0.013037,67.388672,3.473438,-33.574219,-99.000000,-99.000000,0.000000,0.000000,-1.345510,5.145000,0.000000,0.000000,0.000000,0.024000,0.020000,1018.048035,-0.378570,24.950550,1886,1500,1503,1510,992,1886,1500,1503,1510
 19.705928,0.000000,0.000000,0.986904,-25.460471,4.168837,-0.199408,0.000000,0.000000,0.000000,0.014899,0.008365,-0.017294,67.933594,4.021875,-33.398438,-99.000000,-99.000000,0.000000,0.000000,-1.482363,5.145000,0.000000,0.000000,0.000000,0.024000,0.020000,1018.121460,-0.986904,24.925648,1426,1500,1502,1510,992,1426,1500,1502,1510
 19.805990,0.000000,0.000000,0.986904,-25.407867,4.194727,-0.116778,0.000000,0.000000,0.000000,-0.013835,-0.012920,0.029532,67.933594,4.021875,-33.398438,-99.000000,-99.000000,0.000000,0.000000,-1.399733,5.145000,0.000000,0.000000,0.000000,0.024000,0.020000,1018.121460,-0.986904,24.925648,1058,1500,1503,1511,992,1058,1500,1503,1511
 19.906846,0.000000,0.000000,0.986904,-25.529963,4.162559,-0.128256,0.000000,0.000000,0.000000,0.013835,0.011557,-0.022615,67.933594,6.215625,-34.101562,-99.000000,-99.000000,0.000000,0.000000,-1.411212,5.145000,0.000000,0.000000,0.000000,0.024000,0.020000,1018.121460,-0.986904,24.925648,995,1500,1502,1505,992,995,1500,1502,1505
 20.007145,0.000000,0.000000,0.986904,-25.432209,4.192512,-0.164488,0.000000,0.000000,0.000000,0.002128,-0.003342,0.009312,68.296875,6.215625,-33.046875,-99.000000,-99.000000,0.000000,0.000000,-1.447443,5.145000,0.000000,0.000000,0.000000,0.024000,0.020000,1018.121460,-0.986904,24.925648,1044,1500,1503,1506,993,1044,1500,1503,1506
 20.202588,0.000000,0.000000,0.986904,-25.325265,4.265858,0.048365,0.000000,0.000000,0.000000,-0.008514,0.000915,0.001862,68.296875,6.215625,-33.046875,-99.000000,-99.000000,0.000000,0.000000,-1.387573,5.145000,0.000000,0.000000,0.000000,0.024000,0.020000,1018.121460,-0.986904,24.925648,1922,1500,1503,1509,993,1044,1500,1503,1506
 20.305614,0.000000,0.000000,0.986904,-25.367803,4.257003,0.181105,0.000000,0.000000,0.000000,-0.021284,-0.003342,0.010376,68.296875,6.215625,-33.046875,-99.000000,-99.000000,0.000000,0.000000,-1.254832,5.145000,0.000000,0.000000,0.000000,0.024000,0.020000,1018.121460,-0.986904,24.925648,2015,1500,1503,1510,992,2000,1500,1503,1510
 20.406379,0.000000,0.000000,0.986904,-25.407573,4.233207,0.066066,0.000000,0.000000,0.000000,0.000000,0.017943,-0.034321,68.296875,6.215625,-33.046875,-99.000000,-99.000000,0.000000,0.000000,-1.369872,5.145000,0.000000,0.000000,0.000000,0.024000,0.020000,1018.121460,-0.986904,24.925648,1665,1500,1505,1504,993,1806,1500,1503,1509
 20.506572,0.000000,0.000000,0.986904,-25.284675,4.248852,0.046977,0.000000,0.000000,0.000000,-0.031927,-0.001213,0.026340,68.296875,6.215625,-33.046875,-99.000000,-99.000000,0.000000,0.000000,-1.388961,5.145000,0.000000,0.000000,0.000000,0.024000,0.020000,1018.121460,-0.986904,24.925648,996,1500,1502,1510,992,1231,1500,1503,1509
 20.608086,0.000000,0.000000,0.986904,-25.440971,4.239818,0.214058,0.000000,0.000000,0.000000,-0.015963,0.006236,-0.004523,68.296875,6.215625,-33.046875,-99.000000,-99.000000,0.000000,0.000000,-1.221880,5.145000,0.000000,0.000000,0.000000,0.024000,0.020000,1018.121460,-0.986904,24.925648,995,1500,1502,1504,993,995,1500,1502,1504
