Time (sec) ,Sense X(m) ,Sense Y(m) ,Sense Z(m) ,Sense Roll (deg) ,Sense Pitch (deg) ,Sense Compass (deg) ,Sense U(m/s) ,Sense V(m/s) ,Sense W(m/s) ,Sense P(rad/s) ,Sense Q(rad/s) ,Sense R(rad/s) ,Sense Mx(Gauss) ,Sense My(Gauss) ,Sense Mz(Gauss) ,Sense GPS Latitude (deg) ,Sense GPS Longitude (deg) ,Sense GPS Altitude (m) ,Sense GPS Heading (deg) ,Sense IMU Heading (deg) ,Sense Analog 1 (V) ,Sense Analog 2 (V) ,Sense Analog 3 (V) ,Sense Analog 4 (V) ,Sense Analog 5 (V) ,Sense Analog 6 (V) ,Sense Pressure (Pa) ,Sense Pressure Altitude (m) ,Sense Temperature (C) ,RC Channel #1 ,RC Channel #2 ,RC Channel #3 ,RC Channel #4 ,RC Channel #5 ,PWM Hardware Out 1 ,PWM Hardware Out 2 ,PWM Hardware Out 3 ,PWM Hardware Out 4 
 0.000000,0.000000,0.000000,-nan,0.000000,0.000000,0.000000,0.000000,0.000000,0.000000,-0.001724,-0.001724,-0.000341,43.957031,21.571877,-30.585938,0.000000,0.000000,0.000000,0.000000,-0.000000,5.148000,0.000000,0.000000,0.000000,0.020000,0.024000,0.000000,nan,0.000000,992,1500,1500,1500,992,992,1500,1500,1500
 0.228730,0.000000,0.000000,-nan,-5.119775,-0.259280,-0.029979,0.000000,0.000000,0.000000,-0.001724,-0.001724,-0.001405,43.957031,21.571877,-30.585938,0.000000,0.000000,0.000000,0.000000,-0.029979,5.148000,0.000000,0.000000,0.000000,0.020000,0.024000,0.000000,nan,0.000000,992,1500,1500,1500,992,992,1500,1500,1500
 0.330140,0.000000,0.000000,-nan,-6.793616,-0.369608,-0.046479,0.000000,0.000000,0.000000,0.019560,0.008918,0.004981,43.957031,21.571877,-30.585938,0.000000,0.000000,0.000000,0.000000,-0.046479,5.148000,0.000000,0.000000,0.000000,0.020000,0.024000,0.000000,nan,0.000000,992,1500,1500,1500,992,992,1500,1500,1500
 0.431272,0.000000,0.000000,-nan,-8.288437,-0.468444,-0.059874,0.000000,0.000000,0.000000,0.027010,-0.017687,-0.005662,44.320312,21.937502,-31.992188,0.000000,0.000000,0.000000,0.000000,-0.059874,5.148000,0.000000,0.000000,0.000000,0.020000,0.024000,0.000000,nan,0.000000,992,1500,1500,1500,992,992,1500,1500,1500
 0.532175,0.000000,0.000000,-nan,-9.598543,-0.540130,-0.073961,0.000000,0.000000,0.000000,0.015304,-0.005981,-0.004597,44.320312,21.937502,-31.992188,0.000000,0.000000,0.000000,0.000000,-0.073961,5.148000,0.000000,0.000000,0.000000,0.020000,0.024000,0.000000,nan,0.000000,992,1500,1500,1500,992,992,1500,1500,1500
 0.632923,0.000000,0.000000,-nan,-10.795560,-0.621084,-0.089936,0.000000,0.000000,0.000000,-0.012366,0.002533,0.004981,44.320312,21.937502,-31.992188,0.000000,0.000000,0.000000,0.000000,-0.089936,5.148000,0.000000,0.000000,0.000000,0.020000,0.024000,0.000000,nan,0.000000,992,1500,1500,1500,992,992,1500,1500,1500
 0.733637,0.000000,0.000000,-nan,-11.929996,-0.687518,-0.104371,0.000000,0.000000,0.000000,-0.017687,-0.004917,-0.000341,44.320312,21.937502,-31.992188,0.000000,0.000000,0.000000,0.000000,-0.104371,5.148000,0.000000,0.000000,0.000000,0.020000,0.024000,0.000000,nan,0.000000,992,1500,1500,1500,992,992,1500,1500,1500
 0.835297,0.000000,0.000000,-nan,-12.965956,-0.761611,-0.119355,0.000000,0.000000,0.000000,0.012111,0.005726,0.000724,44.865234,21.389065,-32.167969,0.000000,0.000000,0.000000,0.000000,-0.119355,5.148000,0.000000,0.000000,0.000000,0.020000,0.024000,0.000000,nan,0.000000,992,1500,1500,1500,992,992,1500,1500,1500
 0.936203,0.000000,0.000000,-nan,-13.872390,-0.812034,-0.129632,0.000000,0.000000,0.000000,0.015304,-0.003852,0.001788,44.865234,21.389065,-32.167969,0.000000,0.000000,0.000000,0.000000,-0.129632,5.148000,0.000000,0.000000,0.000000,0.020000,0.024000,0.000000,nan,0.000000,992,1500,1500,1500,992,992,1500,1500,1500
 1.117733,0.000000,0.000000,-nan,-15.333818,-0.812171,0.042455,0.000000,0.000000,0.000000,0.000404,0.003597,0.006045,44.865234,21.389065,-32.167969,0.000000,0.000000,0.000000,0.000000,-0.097296,5.148000,0.000000,0.000000,0.000000,0.020000,0.024000,0.000000,nan,0.000000,992,1500,1500,1500,992,992,1500,1500,1500
 1.218283,0.000000,0.000000,-0.000000,-16.016137,-0.857540,0.027583,0.000000,0.000000,0.000000,0.002533,0.004661,0.003916,43.593750,21.571877,-30.937500,0.000000,0.000000,0.000000,0.000000,-0.112168,5.148000,0.000000,0.000000,0.000000,0.020000,0.024000,1010.557190,0.000000,26.792610,992,1500,1500,1500,992,992,1500,1500,1500
 1.319546,0.000000,0.000000,-0.000000,-16.632729,-0.906836,0.014096,0.000000,0.000000,0.000000,0.002533,-0.001724,0.001788,43.593750,21.571877,-30.937500,0.000000,0.000000,0.000000,0.000000,-0.125655,5.148000,0.000000,0.000000,0.000000,0.020000,0.024000,1010.557190,0.000000,26.792610,992,1500,1500,1500,992,992,1500,1500,1500
 1.419679,0.000000,0.000000,-0.000000,-17.174460,-0.950574,0.002004,0.000000,0.000000,0.000000,-0.001724,0.003597,-0.005662,43.593750,21.571877,-30.937500,0.000000,0.000000,0.000000,0.000000,-0.137747,5.148000,0.000000,0.000000,0.000000,0.020000,0.024000,1010.557190,0.000000,26.792610,992,1500,1500,1500,992,992,1500,1500,1500
 1.519782,0.000000,0.000000,-0.000000,-17.682540,-0.990431,-0.008234,0.000000,0.000000,0.000000,-0.008109,-0.002788,-0.000341,43.412109,22.485939,-32.167969,0.000000,0.000000,0.000000,0.000000,-0.147985,5.148000,0.000000,0.000000,0.000000,0.020000,0.024000,1010.557190,0.000000,26.792610,992,1500,1500,1500,992,992,1500,1500,1500
 1.619873,0.000000,0.000000,-0.000000,-18.138467,-1.024450,-0.016838,0.000000,0.000000,0.000000,-0.005981,-0.002788,-0.002469,42.140625,21.571877,-30.234375,0.000000,0.000000,0.000000,0.000000,-0.156589,5.148000,0.000000,0.000000,0.000000,0.020000,0.024000,1010.557190,0.000000,26.792610,992,1500,1500,1500,992,992,1500,1500,1500
 1.721071,0.000000,0.000000,-0.000000,-18.555342,-1.063096,-0.028668,0.000000,0.000000,0.000000,0.004661,0.000404,-0.000341,42.140625,21.571877,-30.234375,0.000000,0.000000,0.000000,0.000000,-0.168420,5.148000,0.000000,0.000000,0.000000,0.020000,0.024000,1010.557190,0.000000,26.792610,992,1500,1500,1500,992,992,1500,1500,1500
 1.821811,0.000000,0.000000,-0.000000,-18.932274,-1.095115,-0.036206,0.000000,0.000000,0.000000,0.001469,-0.000660,-0.000341,42.140625,21.571877,-30.234375,0.000000,0.000000,0.000000,0.000000,-0.175958,5.148000,0.000000,0.000000,0.000000,0.020000,0.024000,1010.557190,0.000000,26.792610,992,1500,1500,1500,992,992,1500,1500,1500
 1.923237,0.000000,0.000000,-0.000000,-19.276375,-1.126711,-0.044480,0.000000,0.000000,0.000000,0.004661,-0.002788,-0.001405,41.777344,21.206251,-31.289062,0.000000,0.000000,0.000000,0.000000,-0.184231,5.148000,0.000000,0.000000,0.000000,0.020000,0.024000,1010.557190,0.000000,26.792610,992,1500,1500,1500,992,992,1500,1500,1500
 2.140032,0.000000,0.000000,-0.000000,-19.883379,-1.129490,-0.000310,0.000000,0.000000,0.000000,0.004661,0.001469,-0.000341,41.777344,21.206251,-31.289062,0.000000,0.000000,0.000000,0.000000,-0.189929,5.148000,0.000000,0.000000,0.000000,0.020000,0.024000,1010.557190,0.000000,26.792610,992,1500,1500,1500,992,992,1500,1500,1500
 2.241282,0.000000,0.000000,-5476.923225,-20.133343,-1.155723,-0.008565,0.000000,0.000000,0.000000,-0.004917,0.000404,0.001788,43.230469,23.034376,-30.585938,0.000000,0.000000,0.000000,0.000000,-0.198184,5.148000,0.000000,0.000000,0.000000,0.020000,0.024000,1010.692566,5476.923225,26.857204,992,1500,1500,1500,992,992,1500,1500,1500
 2.342681,0.000000,0.000000,-5476.923225,-20.356960,-1.172791,-0.012353,0.000000,0.000000,0.000000,-0.008109,0.000404,0.003916,43.230469,23.034376,-30.585938,0.000000,0.000000,0.000000,0.000000,-0.201973,5.148000,0.000000,0.000000,0.000000,0.020000,0.024000,1010.692566,5476.923225,26.857204,992,1500,1500,1500,992,992,1500,1500,1500
 2.443922,0.000000,0.000000,-5476.923225,-20.558050,-1.197611,-0.020145,0.000000,0.000000,0.000000,-0.005981,-0.001724,-0.006726,43.230469,23.034376,-30.585938,0.000000,0.000000,0.000000,0.000000,-0.209765,5.148000,0.000000,0.000000,0.000000,0.020000,0.024000,1010.692566,5476.923225,26.857204,992,1500,1500,1500,992,992,1500,1500,1500
 2.545451,0.000000,0.000000,-5476.923225,-20.742142,-1.209104,-0.024562,0.000000,0.000000,0.000000,0.000404,-0.003852,-0.001405,43.230469,23.034376,-30.585938,0.000000,0.000000,0.000000,0.000000,-0.214182,5.148000,0.000000,0.000000,0.000000,0.020000,0.024000,1010.692566,5476.923225,26.857204,992,1500,1500,1500,992,992,1500,1500,1500
 2.645924,0.000000,0.000000,-5476.923225,-20.880433,-1.227087,-0.025997,0.000000,0.000000,0.000000,0.003597,0.002533,0.000724,42.503906,21.571877,-31.289062,0.000000,0.000000,0.000000,0.000000,-0.215617,5.148000,0.000000,0.000000,0.000000,0.020000,0.024000,1010.692566,5476.923225,26.857204,992,1500,1500,1500,992,992,1500,1500,1500
 2.745938,0.000000,0.000000,-5476.923225,-21.084557,-1.251856,-0.031623,0.000000,0.000000,0.000000,0.004661,-0.004917,0.009237,42.503906,21.571877,-31.289062,0.000000,0.000000,0.000000,0.000000,-0.221242,5.148000,0.000000,0.000000,0.000000,0.020000,0.024000,1010.692566,5476.923225,26.857204,992,1500,1500,1500,992,992,1500,1500,1500
 2.847253,0.000000,0.000000,-5476.923225,-21.345280,-1.298433,-0.039393,0.000000,0.000000,0.000000,0.069579,-0.000660,0.014559,42.503906,21.571877,-31.289062,0.000000,0.000000,0.000000,0.000000,-0.229012,5.148000,0.000000,0.000000,0.000000,0.020000,0.024000,1010.692566,5476.923225,26.857204,992,1500,1500,1500,992,992,1500,1500,1500
 2.947539,0.000000,0.000000,-5476.923225,-21.436344,-1.293785,-0.016261,0.000000,0.000000,0.000000,0.072772,0.001469,0.006045,42.503906,21.571877,-31.289062,0.000000,0.000000,0.000000,0.000000,-0.205881,5.148000,0.000000,0.000000,0.000000,0.020000,0.024000,1010.692566,5476.923225,26.857204,992,1500,1500,1500,992,992,1500,1500,1500
 3.124151,0.000000,0.000000,-5476.923225,-21.000131,-1.361656,0.034854,0.000000,0.000000,0.000000,0.048294,-0.005981,0.004981,45.228516,22.485939,-31.464844,0.000000,0.000000,0.000000,0.000000,-0.189673,5.148000,0.000000,0.000000,0.000000,0.020000,0.024000,1010.692566,5476.923225,26.857204,992,1500,1500,1500,992,992,1500,1500,1500
 3.224980,0.000000,0.000000,-8361.397020,-21.116899,-1.391403,0.047261,0.000000,0.000000,0.000000,-0.017687,-0.005981,-0.002469,45.228516,22.485939,-31.464844,0.000000,0.000000,0.000000,0.000000,-0.177267,5.148000,0.000000,0.000000,0.000000,0.020000,0.024000,1010.794983,8361.397020,26.886501,992,1500,1500,1500,992,992,1500,1500,1500
 3.325160,0.000000,0.000000,-8361.397020,-21.294600,-1.382623,0.025833,0.000000,0.000000,0.000000,-0.019816,-0.001724,-0.003533,45.228516,22.485939,-31.464844,0.000000,0.000000,0.000000,0.000000,-0.198695,5.148000,0.000000,0.000000,0.000000,0.020000,0.024000,1010.794983,8361.397020,26.886501,992,1500,1500,1500,992,992,1500,1500,1500
 3.426341,0.000000,0.000000,-8361.397020,-21.464780,-1.400067,0.021758,0.000000,0.000000,0.000000,0.014239,-0.005981,0.007109,42.685547,21.023439,-31.464844,0.000000,0.000000,0.000000,0.000000,-0.202770,5.148000,0.000000,0.000000,0.000000,0.020000,0.024000,1010.794983,8361.397020,26.886501,992,1500,1500,1500,992,992,1500,1500,1500
 3.526412,0.000000,0.000000,-8361.397020,-21.567527,-1.401488,0.033255,0.000000,0.000000,0.000000,0.019560,-0.004917,0.008173,42.685547,21.023439,-31.464844,0.000000,0.000000,0.000000,0.000000,-0.191272,5.148000,0.000000,0.000000,0.000000,0.020000,0.024000,1010.794983,8361.397020,26.886501,992,1500,1500,1500,992,992,1500,1500,1500
 3.627944,0.000000,0.000000,-8361.397020,-21.671795,-1.405675,0.039185,0.000000,0.000000,0.000000,0.012111,-0.000660,0.004981,42.685547,21.023439,-31.464844,0.000000,0.000000,0.000000,0.000000,-0.185342,5.148000,0.000000,0.000000,0.000000,0.020000,0.024000,1010.794983,8361.397020,26.886501,992,1500,1500,1500,992,992,1500,1500,1500
 3.729501,0.000000,0.000000,-8361.397020,-21.758969,-1.402258,0.011598,0.000000,0.000000,0.000000,0.003597,0.003597,-0.005662,44.501953,21.389065,-30.761719,0.000000,0.000000,0.000000,0.000000,-0.212930,5.148000,0.000000,0.000000,0.000000,0.020000,0.024000,1010.794983,8361.397020,26.886501,992,1500,1500,1500,992,992,1500,1500,1500
 3.831497,0.000000,0.000000,-8361.397020,-21.821098,-1.413375,0.009014,0.000000,0.000000,0.000000,0.002533,-0.001724,0.007109,44.501953,21.389065,-30.761719,0.000000,0.000000,0.000000,0.000000,-0.215513,5.148000,0.000000,0.000000,0.000000,0.020000,0.024000,1010.794983,8361.397020,26.886501,992,1500,1500,1500,992,992,1500,1500,1500
 3.931738,0.000000,0.000000,-8361.397020,-21.899850,-1.442609,0.034194,0.000000,0.000000,0.000000,-0.009174,-0.000660,-0.001405,44.138672,22.851564,-31.816406,0.000000,0.000000,0.000000,0.000000,-0.190334,5.148000,0.000000,0.000000,0.000000,0.020000,0.024000,1010.794983,8361.397020,26.886501,992,1500,1500,1500,992,992,1500,1500,1500
 4.123256,0.000000,0.000000,-8361.397020,-21.874114,-1.272725,0.055592,0.000000,0.000000,0.000000,0.007854,0.000404,-0.000341,43.048828,21.389065,-31.816406,0.000000,0.000000,0.000000,0.000000,-0.133902,5.148000,0.000000,0.000000,0.000000,0.020000,0.024000,1010.794983,8361.397020,26.886501,992,1500,1500,1500,992,992,1500,1500,1500
 4.224306,0.000000,0.000000,-10277.638294,-21.890880,-1.266090,0.072575,0.000000,0.000000,0.000000,0.003597,0.001469,0.008173,43.048828,21.389065,-31.816406,0.000000,0.000000,0.000000,0.000000,-0.116920,5.148000,0.000000,0.000000,0.000000,0.020000,0.024000,1010.773254,10277.638294,26.926054,992,1500,1500,1500,992,992,1500,1500,1500
 4.325106,0.000000,0.000000,-10277.638294,-21.939679,-1.259396,0.064840,0.000000,0.000000,0.000000,0.018496,0.000404,-0.001405,44.138672,21.754688,-31.464844,0.000000,0.000000,0.000000,0.000000,-0.124655,5.148000,0.000000,0.000000,0.000000,0.020000,0.024000,1010.773254,10277.638294,26.926054,992,1500,1500,1500,992,992,1500,1500,1500
 4.426557,0.000000,0.000000,-10277.638294,-21.937848,-1.281552,0.029292,0.000000,0.000000,0.000000,0.015304,0.004661,0.003916,44.138672,21.754688,-31.464844,0.000000,0.000000,0.000000,0.000000,-0.160202,5.148000,0.000000,0.000000,0.000000,0.020000,0.024000,1010.773254,10277.638294,26.926054,992,1500,1500,1500,992,992,1500,1500,1500
 4.528187,0.000000,0.000000,-10277.638294,-21.979376,-1.277375,0.059411,0.000000,0.000000,0.000000,-0.002788,-0.001724,0.004981,43.593750,23.034376,-31.640625,0.000000,0.000000,0.000000,0.000000,-0.130083,5.148000,0.000000,0.000000,0.000000,0.020000,0.024000,1010.773254,10277.638294,26.926054,992,1500,1500,1500,992,992,1500,1500,1500
 4.628198,0.000000,0.000000,-10277.638294,-22.046743,-1.302477,0.060970,0.000000,0.000000,0.000000,-0.008109,0.001469,-0.005662,43.593750,23.034376,-31.640625,0.000000,0.000000,0.000000,0.000000,-0.128524,5.148000,0.000000,0.000000,0.000000,0.020000,0.024000,1010.773254,10277.638294,26.926054,992,1500,1500,1500,992,992,1500,1500,1500
 4.729792,0.000000,0.000000,-10277.638294,-22.077167,-1.301207,0.029907,0.000000,0.000000,0.000000,-0.003852,0.005726,-0.004597,43.593750,23.034376,-31.640625,0.000000,0.000000,0.000000,0.000000,-0.159587,5.148000,0.000000,0.000000,0.000000,0.020000,0.024000,1010.773254,10277.638294,26.926054,992,1500,1500,1500,992,992,1500,1500,1500
 4.831326,0.000000,0.000000,-10277.638294,-22.110477,-1.320411,0.032452,0.000000,0.000000,0.000000,-0.004917,-0.000660,0.002852,44.501953,21.023439,-31.464844,0.000000,0.000000,0.000000,0.000000,-0.157042,5.148000,0.000000,0.000000,0.000000,0.020000,0.024000,1010.773254,10277.638294,26.926054,992,1500,1500,1500,992,992,1500,1500,1500
 4.931418,0.000000,0.000000,-10277.638294,-22.173053,-1.324709,0.051006,0.000000,0.000000,0.000000,0.003597,-0.000660,-0.003533,44.501953,21.023439,-31.464844,0.000000,0.000000,0.000000,0.000000,-0.138489,5.148000,0.000000,0.000000,0.000000,0.020000,0.024000,1010.773254,10277.638294,26.926054,992,1500,1500,1500,992,992,1500,1500,1500
 5.129963,0.000000,0.000000,-10277.638294,-22.236947,-1.375657,-0.008382,0.000000,0.000000,0.000000,-0.001724,-0.001724,0.000724,43.230469,21.571877,-30.234375,0.000000,0.000000,0.000000,0.000000,-0.163079,5.148000,0.000000,0.000000,0.000000,0.020000,0.024000,1010.773254,10277.638294,26.926054,992,1500,1500,1500,992,992,1500,1500,1500
 5.231559,0.000000,0.000000,-11693.881864,-22.264942,-1.377409,0.009887,0.000000,0.000000,0.000000,-0.009174,-0.001724,0.002852,43.230469,21.571877,-30.234375,0.000000,0.000000,0.000000,0.000000,-0.144810,5.148000,0.000000,0.000000,0.000000,0.020000,0.024000,1010.650391,11693.881864,26.940283,992,1500,1500,1500,992,992,1500,1500,1500
 5.333060,0.000000,0.000000,-11693.881864,-22.298841,-1.379143,0.008376,0.000000,0.000000,0.000000,-0.001724,0.002533,-0.003533,43.230469,21.571877,-30.234375,0.000000,0.000000,0.000000,0.000000,-0.146320,5.148000,0.000000,0.000000,0.000000,0.020000,0.024000,1010.650391,11693.881864,26.940283,992,1500,1500,1500,992,992,1500,1500,1500
 5.433520,0.000000,0.000000,-11693.881864,-22.308879,-1.376288,-0.003750,0.000000,0.000000,0.000000,0.001469,0.003597,0.002852,44.683594,21.571877,-30.937500,0.000000,0.000000,0.000000,0.000000,-0.158446,5.148000,0.000000,0.000000,0.000000,0.020000,0.024000,1010.650391,11693.881864,26.940283,992,1500,1500,1500,992,992,1500,1500,1500
 5.534488,0.000000,0.000000,-11693.881864,-22.333282,-1.385461,-0.000919,0.000000,0.000000,0.000000,-0.003852,0.000404,0.000724,44.683594,21.571877,-30.937500,0.000000,0.000000,0.000000,0.000000,-0.155616,5.148000,0.000000,0.000000,0.000000,0.020000,0.024000,1010.650391,11693.881864,26.940283,992,1500,1500,1500,992,992,1500,1500,1500
 5.634742,0.000000,0.000000,-11693.881864,-22.362561,-1.386203,0.006684,0.000000,0.000000,0.000000,-0.001724,0.000404,-0.002469,44.683594,21.571877,-30.937500,0.000000,0.000000,0.000000,0.000000,-0.148013,5.148000,0.000000,0.000000,0.000000,0.020000,0.024000,1010.650391,11693.881864,26.940283,992,1500,1500,1500,992,992,1500,1500,1500
 5.734888,0.000000,0.000000,-11693.881864,-22.370112,-1.385528,-0.002481,0.000000,0.000000,0.000000,-0.001724,-0.002788,-0.002469,44.683594,21.571877,-30.937500,0.000000,0.000000,0.000000,0.000000,-0.157178,5.148000,0.000000,0.000000,0.000000,0.020000,0.024000,1010.650391,11693.881864,26.940283,992,1500,1500,1500,992,992,1500,1500,1500
 5.835837,0.000000,0.000000,-11693.881864,-22.381396,-1.385477,-0.002604,0.000000,0.000000,0.000000,0.000404,-0.000660,0.002852,43.593750,21.206251,-31.289062,0.000000,0.000000,0.000000,0.000000,-0.157301,5.148000,0.000000,0.000000,0.000000,0.020000,0.024000,1010.650391,11693.881864,26.940283,992,1500,1500,1500,992,992,1500,1500,1500
 5.937167,0.000000,0.000000,-11693.881864,-22.389026,-1.382010,0.006839,0.000000,0.000000,0.000000,0.003597,0.000404,0.002852,43.593750,21.206251,-31.289062,0.000000,0.000000,0.000000,0.000000,-0.147858,5.148000,0.000000,0.000000,0.000000,0.020000,0.024000,1010.650391,11693.881864,26.940283,992,1500,1500,1500,992,992,1500,1500,1500
 6.122426,0.000000,0.000000,-11693.881864,-22.397698,-1.389093,0.001660,0.000000,0.000000,0.000000,0.002533,0.001469,0.000724,44.138672,21.754688,-31.113281,0.000000,0.000000,0.000000,0.000000,-0.153329,5.148000,0.000000,0.000000,0.000000,0.020000,0.024000,1010.650391,11693.881864,26.940283,992,1500,1500,1500,992,992,1500,1500,1500
 6.222613,0.000000,0.000000,-11693.881864,-22.398040,-1.398265,0.004361,0.000000,0.000000,0.000000,-0.000660,0.001469,-0.000341,42.685547,22.120314,-31.464844,0.000000,0.000000,0.000000,0.000000,-0.150628,5.148000,0.000000,0.000000,0.000000,0.020000,0.024000,1010.650391,11693.881864,26.940283,992,1500,1500,1500,992,992,1500,1500,1500
 6.324152,0.000000,0.000000,-0.497769,-22.410182,-1.402681,0.010657,0.000000,0.000000,0.000000,0.000404,-0.003852,-0.003533,42.685547,22.120314,-31.464844,0.000000,0.000000,0.000000,0.000000,-0.144332,5.148000,0.000000,0.000000,0.000000,0.020000,0.024000,1010.634033,0.497769,26.953398,992,1500,1500,1500,992,992,1500,1500,1500
 6.424309,0.000000,0.000000,-0.497769,-22.415917,-1.401590,0.002807,0.000000,0.000000,0.000000,0.000404,0.003597,-0.003533,42.685547,22.120314,-31.464844,0.000000,0.000000,0.000000,0.000000,-0.152181,5.148000,0.000000,0.000000,0.000000,0.020000,0.024000,1010.634033,0.497769,26.953398,992,1500,1500,1500,992,992,1500,1500,1500
 6.525918,0.000000,0.000000,-0.497769,-22.412991,-1.396414,0.007309,0.000000,0.000000,0.000000,0.003597,-0.003852,0.002852,45.773438,20.840626,-30.937500,0.000000,0.000000,0.000000,0.000000,-0.147680,5.148000,0.000000,0.000000,0.000000,0.020000,0.024000,1010.634033,0.497769,26.953398,992,1500,1500,1500,992,992,1500,1500,1500
 6.626078,0.000000,0.000000,-0.497769,-22.416780,-1.393317,0.017803,0.000000,0.000000,0.000000,-0.000660,-0.000660,0.003916,45.773438,20.840626,-30.937500,0.000000,0.000000,0.000000,0.000000,-0.137186,5.148000,0.000000,0.000000,0.000000,0.020000,0.024000,1010.634033,0.497769,26.953398,992,1500,1500,1500,992,992,1500,1500,1500
 6.726333,0.000000,0.000000,-0.497769,-22.430067,-1.395600,0.012454,0.000000,0.000000,0.000000,-0.014495,0.000404,-0.003533,45.773438,20.840626,-30.937500,0.000000,0.000000,0.000000,0.000000,-0.142535,5.148000,0.000000,0.000000,0.000000,0.020000,0.024000,1010.634033,0.497769,26.953398,992,1500,1500,1500,992,992,1500,1500,1500
 6.827413,0.000000,0.000000,-0.497769,-22.455862,-1.397091,0.007832,0.000000,0.000000,0.000000,-0.003852,0.002533,0.001788,45.773438,20.840626,-30.937500,0.000000,0.000000,0.000000,0.000000,-0.147157,5.148000,0.000000,0.000000,0.000000,0.020000,0.024000,1010.634033,0.497769,26.953398,992,1500,1500,1500,992,992,1500,1500,1500
 6.929005,0.000000,0.000000,-0.497769,-22.469205,-1.395578,0.016402,0.000000,0.000000,0.000000,0.019560,0.002533,0.000724,43.957031,21.937502,-31.992188,0.000000,0.000000,0.000000,0.000000,-0.138587,5.148000,0.000000,0.000000,0.000000,0.020000,0.024000,1010.634033,0.497769,26.953398,992,1500,1500,1500,992,992,1500,1500,1500
 7.147181,0.000000,0.000000,-0.497769,-22.530281,-1.397919,0.007736,0.000000,0.000000,0.000000,-0.013431,0.001469,0.001788,43.775391,20.292189,-31.464844,0.000000,0.000000,0.000000,0.000000,-0.133655,5.148000,0.000000,0.000000,0.000000,0.020000,0.024000,1010.634033,0.497769,26.953398,992,1500,1500,1500,992,992,1500,1500,1500
 7.248150,0.000000,0.000000,-0.497769,-22.556613,-1.409421,0.007297,0.000000,0.000000,0.000000,-0.000660,0.000404,-0.000341,43.775391,20.292189,-31.464844,0.000000,0.000000,0.000000,0.000000,-0.134094,5.148000,0.000000,0.000000,0.000000,0.020000,0.024000,1010.634033,0.497769,26.953398,992,1500,1500,1500,992,992,1500,1500,1500
 7.348296,0.000000,0.000000,-0.317444,-22.559453,-1.407718,0.008090,0.000000,0.000000,0.000000,0.004661,0.001469,0.000724,42.867188,21.206251,-31.289062,0.000000,0.000000,0.000000,0.000000,-0.133301,5.148000,0.000000,0.000000,0.000000,0.020000,0.024000,1010.655640,0.317444,26.988066,992,1500,1500,1500,992,992,1500,1500,1500
 7.449589,0.000000,0.000000,-0.317444,-22.532907,-1.408668,-0.000943,0.000000,0.000000,0.000000,0.007854,0.000404,-0.002469,43.775391,21.389065,-31.816406,0.000000,0.000000,0.000000,0.000000,-0.142334,5.148000,0.000000,0.000000,0.000000,0.020000,0.024000,1010.655640,0.317444,26.988066,992,1500,1500,1500,992,992,1500,1500,1500
 7.551737,0.000000,0.000000,-0.317444,-22.516064,-1.411507,-0.000515,0.000000,0.000000,0.000000,-0.004917,-0.002788,0.002852,43.048828,21.754688,-30.410156,0.000000,0.000000,0.000000,0.000000,-0.141906,5.148000,0.000000,0.000000,0.000000,0.020000,0.024000,1010.655640,0.317444,26.988066,992,1500,1500,1500,992,992,1500,1500,1500
 7.652551,0.000000,0.000000,-0.317444,-22.517355,-1.410962,0.006108,0.000000,0.000000,0.000000,-0.008109,-0.005981,-0.000341,43.048828,21.754688,-30.410156,0.000000,0.000000,0.000000,0.000000,-0.135283,5.148000,0.000000,0.000000,0.000000,0.020000,0.024000,1010.655640,0.317444,26.988066,992,1500,1500,1500,992,992,1500,1500,1500
 7.753413,0.000000,0.000000,-0.317444,-22.519857,-1.415054,-0.000687,0.000000,0.000000,0.000000,-0.001724,0.000404,0.000724,43.048828,21.754688,-30.410156,0.000000,0.000000,0.000000,0.000000,-0.142078,5.148000,0.000000,0.000000,0.000000,0.020000,0.024000,1010.655640,0.317444,26.988066,992,1500,1500,1500,992,992,1500,1500,1500
 7.854027,0.000000,0.000000,-0.317444,-22.514729,-1.413567,-0.001260,0.000000,0.000000,0.000000,0.001469,-0.000660,0.000724,43.048828,21.754688,-30.410156,0.000000,0.000000,0.000000,0.000000,-0.142651,5.148000,0.000000,0.000000,0.000000,0.020000,0.024000,1010.655640,0.317444,26.988066,992,1500,1500,1500,992,992,1500,1500,1500
 7.955241,0.000000,0.000000,-0.317444,-22.512157,-1.420396,0.001551,0.000000,0.000000,0.000000,0.000404,-0.001724,-0.000341,42.503906,20.840626,-32.343750,0.000000,0.000000,0.000000,0.000000,-0.139840,5.148000,0.000000,0.000000,0.000000,0.020000,0.024000,1010.655640,0.317444,26.988066,992,1500,1500,1500,992,992,1500,1500,1500
 8.151436,0.000000,0.000000,-0.317444,-22.632811,-1.455198,-0.020895,0.000000,0.000000,0.000000,-0.012366,0.000404,-0.000341,43.593750,20.475002,-31.640625,0.000000,0.000000,0.000000,0.000000,-0.158274,5.148000,0.000000,0.000000,0.000000,0.020000,0.024000,1010.655640,0.317444,26.988066,992,1500,1500,1500,992,992,1500,1500,1500
 8.252278,0.000000,0.000000,-0.317444,-22.628105,-1.448619,-0.014755,0.000000,0.000000,0.000000,-0.008109,0.001469,-0.000341,43.593750,20.475002,-31.640625,0.000000,0.000000,0.000000,0.000000,-0.152134,5.148000,0.000000,0.000000,0.000000,0.020000,0.024000,1010.655640,0.317444,26.988066,992,1500,1500,1500,992,992,1500,1500,1500
 8.354212,0.000000,0.000000,-0.275675,-22.617116,-1.433379,-0.004638,0.000000,0.000000,0.000000,0.013175,0.000404,0.000724,43.593750,20.475002,-31.640625,0.000000,0.000000,0.000000,0.000000,-0.142017,5.148000,0.000000,0.000000,0.000000,0.020000,0.024000,1010.660645,0.275675,27.031109,992,1500,1500,1500,992,992,1500,1500,1500
 8.454462,0.000000,0.000000,-0.275675,-22.587766,-1.424479,-0.008330,0.000000,0.000000,0.000000,0.012111,0.002533,0.001788,44.683594,21.571877,-31.992188,0.000000,0.000000,0.000000,0.000000,-0.145709,5.148000,0.000000,0.000000,0.000000,0.020000,0.024000,1010.660645,0.275675,27.031109,992,1500,1500,1500,992,992,1500,1500,1500
 8.554838,0.000000,0.000000,-0.275675,-22.563730,-1.427585,-0.008549,0.000000,0.000000,0.000000,-0.004917,0.001469,-0.001405,44.683594,21.571877,-31.992188,0.000000,0.000000,0.000000,0.000000,-0.145928,5.148000,0.000000,0.000000,0.000000,0.020000,0.024000,1010.660645,0.275675,27.031109,992,1500,1500,1500,992,992,1500,1500,1500
 8.655942,0.000000,0.000000,-0.275675,-22.557232,-1.418814,-0.002622,0.000000,0.000000,0.000000,-0.010238,0.003597,0.001788,44.683594,21.571877,-31.992188,0.000000,0.000000,0.000000,0.000000,-0.140001,5.148000,0.000000,0.000000,0.000000,0.020000,0.024000,1010.660645,0.275675,27.031109,992,1500,1500,1500,992,992,1500,1500,1500
 8.756051,0.000000,0.000000,-0.275675,-22.555800,-1.414560,-0.004111,0.000000,0.000000,0.000000,-0.004917,-0.000660,-0.001405,44.683594,21.571877,-31.992188,0.000000,0.000000,0.000000,0.000000,-0.141490,5.148000,0.000000,0.000000,0.000000,0.020000,0.024000,1010.660645,0.275675,27.031109,992,1500,1500,1500,992,992,1500,1500,1500
 8.857703,0.000000,0.000000,-0.275675,-22.546064,-1.415089,-0.008568,0.000000,0.000000,0.000000,-0.002788,0.001469,0.000724,44.320312,19.378126,-32.695312,0.000000,0.000000,0.000000,0.000000,-0.145947,5.148000,0.000000,0.000000,0.000000,0.020000,0.024000,1010.660645,0.275675,27.031109,992,1500,1500,1500,992,992,1500,1500,1500
 8.958427,0.000000,0.000000,-0.275675,-22.542771,-1.412695,-0.002301,0.000000,0.000000,0.000000,-0.003852,0.003597,0.006045,44.320312,19.378126,-32.695312,0.000000,0.000000,0.000000,0.000000,-0.139680,5.148000,0.000000,0.000000,0.000000,0.020000,0.024000,1010.660645,0.275675,27.031109,992,1500,1500,1500,992,992,1500,1500,1500
 9.146164,0.000000,0.000000,-0.275675,-22.497722,-1.316404,0.053171,0.000000,0.000000,0.000000,-0.001724,-0.001724,0.001788,43.412109,21.389065,-30.761719,0.000000,0.000000,0.000000,0.000000,-0.084273,5.148000,0.000000,0.000000,0.000000,0.020000,0.024000,1010.660645,0.275675,27.031109,992,1500,1500,1500,992,992,1500,1500,1500
 9.247378,0.000000,0.000000,-0.275675,-22.489536,-1.322809,0.052305,0.000000,0.000000,0.000000,0.005726,0.001469,0.008173,43.412109,21.389065,-30.761719,0.000000,0.000000,0.000000,0.000000,-0.085139,5.148000,0.000000,0.000000,0.000000,0.020000,0.024000,1010.660645,0.275675,27.031109,992,1500,1500,1500,992,992,1500,1500,1500
 9.348161,0.000000,0.000000,-0.494712,-22.475350,-1.334694,0.047163,0.000000,0.000000,0.000000,-0.002788,0.000404,-0.002469,43.412109,21.389065,-30.761719,0.000000,0.000000,0.000000,0.000000,-0.090281,5.148000,0.000000,0.000000,0.000000,0.020000,0.024000,1010.634399,0.494712,27.062847,992,1500,1500,1500,992,992,1500,1500,1500
 9.448399,0.000000,0.000000,-0.494712,-22.471576,-1.342294,0.044888,0.000000,0.000000,0.000000,-0.001724,0.002533,0.000724,41.777344,21.206251,-32.695312,0.000000,0.000000,0.000000,0.000000,-0.092557,5.148000,0.000000,0.000000,0.000000,0.020000,0.024000,1010.634399,0.494712,27.062847,992,1500,1500,1500,992,992,1500,1500,1500
 9.548780,0.000000,0.000000,-0.494712,-22.475219,-1.343604,0.046240,0.000000,0.000000,0.000000,-0.007045,-0.000660,-0.001405,41.777344,21.206251,-32.695312,0.000000,0.000000,0.000000,0.000000,-0.091204,5.148000,0.000000,0.000000,0.000000,0.020000,0.024000,1010.634399,0.494712,27.062847,992,1500,1500,1500,992,992,1500,1500,1500
 9.650814,0.000000,0.000000,-0.494712,-22.481356,-1.343853,0.049388,0.000000,0.000000,0.000000,-0.009174,0.001469,-0.001405,41.777344,21.206251,-32.695312,0.000000,0.000000,0.000000,0.000000,-0.088056,5.148000,0.000000,0.000000,0.000000,0.020000,0.024000,1010.634399,0.494712,27.062847,992,1500,1500,1500,992,992,1500,1500,1500
 9.751726,0.000000,0.000000,-0.494712,-22.493807,-1.357518,0.042233,0.000000,0.000000,0.000000,0.002533,0.001469,-0.004597,41.777344,21.206251,-32.695312,0.000000,0.000000,0.000000,0.000000,-0.095211,5.148000,0.000000,0.000000,0.000000,0.020000,0.024000,1010.634399,0.494712,27.062847,992,1500,1500,1500,992,992,1500,1500,1500
 9.852277,0.000000,0.000000,-0.494712,-22.505910,-1.364493,0.039723,0.000000,0.000000,0.000000,0.008918,-0.003852,0.002852,40.687500,20.475002,-30.937500,0.000000,0.000000,0.000000,0.000000,-0.097721,5.148000,0.000000,0.000000,0.000000,0.020000,0.024000,1010.634399,0.494712,27.062847,992,1500,1500,1500,992,992,1500,1500,1500
 9.953533,0.000000,0.000000,-0.494712,-22.501122,-1.366984,0.043499,0.000000,0.000000,0.000000,0.014239,-0.003852,0.001788,43.593750,20.475002,-29.531250,0.000000,0.000000,0.000000,0.000000,-0.093945,5.148000,0.000000,0.000000,0.000000,0.020000,0.024000,1010.634399,0.494712,27.062847,992,1500,1500,1500,992,992,1500,1500,1500
 10.155623,0.000000,0.000000,-0.494712,-22.529670,-1.446812,-0.024261,0.000000,0.000000,0.000000,-0.005981,-0.000660,0.000724,43.593750,20.475002,-29.531250,0.000000,0.000000,0.000000,0.000000,-0.119541,5.148000,0.000000,0.000000,0.000000,0.020000,0.024000,1010.634399,0.494712,27.062847,992,1500,1500,1500,992,992,1500,1500,1500
 10.257017,0.000000,0.000000,-0.494712,-22.528290,-1.439956,-0.021824,0.000000,0.000000,0.000000,-0.001724,-0.000660,0.001788,45.410156,21.571877,-32.343750,0.000000,0.000000,0.000000,0.000000,-0.117104,5.148000,0.000000,0.000000,0.000000,0.020000,0.024000,1010.634399,0.494712,27.062847,992,1500,1500,1500,992,992,1500,1500,1500
 10.357620,0.000000,0.000000,-0.568575,-22.517094,-1.436592,-0.017859,0.000000,0.000000,0.000000,0.000404,-0.000660,0.001788,43.048828,21.023439,-33.222656,0.000000,0.000000,0.000000,0.000000,-0.113139,5.148000,0.000000,0.000000,0.000000,0.020000,0.024000,1010.625549,0.568575,27.054964,992,1500,1500,1500,992,992,1500,1500,1500
 10.458614,0.000000,0.000000,-0.568575,-22.514992,-1.429527,-0.015232,0.000000,0.000000,0.000000,0.003597,0.001469,0.001788,43.048828,21.023439,-33.222656,0.000000,0.000000,0.000000,0.000000,-0.110512,5.148000,0.000000,0.000000,0.000000,0.020000,0.024000,1010.625549,0.568575,27.054964,992,1500,1500,1500,992,992,1500,1500,1500
 10.560200,0.000000,0.000000,-0.568575,-22.505967,-1.430688,-0.017008,0.000000,0.000000,0.000000,-0.000660,0.000404,-0.003533,43.048828,21.023439,-33.222656,0.000000,0.000000,0.000000,0.000000,-0.112288,5.148000,0.000000,0.000000,0.000000,0.020000,0.024000,1010.625549,0.568575,27.054964,992,1500,1500,1500,992,992,1500,1500,1500
 10.661061,0.000000,0.000000,-0.568575,-22.506356,-1.427684,-0.013552,0.000000,0.000000,0.000000,-0.003852,-0.000660,0.002852,42.140625,22.303127,-30.234375,0.000000,0.000000,0.000000,0.000000,-0.108832,5.148000,0.000000,0.000000,0.000000,0.020000,0.024000,1010.625549,0.568575,27.054964,992,1500,1500,1500,992,992,1500,1500,1500
 10.761861,0.000000,0.000000,-0.568575,-22.506298,-1.414173,-0.011716,0.000000,0.000000,0.000000,-0.002788,0.001469,0.000724,42.140625,22.303127,-30.234375,0.000000,0.000000,0.000000,0.000000,-0.106996,5.148000,0.000000,0.000000,0.000000,0.020000,0.024000,1010.625549,0.568575,27.054964,992,1500,1500,1500,992,992,1500,1500,1500
 10.862740,0.000000,0.000000,-0.568575,-22.502230,-1.411167,-0.012021,0.000000,0.000000,0.000000,0.001469,-0.000660,-0.003533,42.140625,22.303127,-30.234375,0.000000,0.000000,0.000000,0.000000,-0.107301,5.148000,0.000000,0.000000,0.000000,0.020000,0.024000,1010.625549,0.568575,27.054964,992,1500,1500,1500,992,992,1500,1500,1500
 10.963018,0.000000,0.000000,-0.568575,-22.500068,-1.401379,-0.008436,0.000000,0.000000,0.000000,-0.002788,0.000404,0.001788,42.140625,22.303127,-30.234375,0.000000,0.000000,0.000000,0.000000,-0.103716,5.148000,0.000000,0.000000,0.000000,0.020000,0.024000,1010.625549,0.568575,27.054964,992,1500,1500,1500,992,992,1500,1500,1500
 11.147756,0.000000,0.000000,-0.568575,-22.431004,-1.437712,-0.018443,0.000000,0.000000,0.000000,0.003597,0.000404,-0.000341,42.140625,22.303127,-31.640625,0.000000,0.000000,0.000000,0.000000,-0.121352,5.148000,0.000000,0.000000,0.000000,0.020000,0.024000,1010.625549,0.568575,27.054964,992,1500,1500,1500,992,992,1500,1500,1500
 11.249557,0.000000,0.000000,-0.568575,-22.431426,-1.431873,-0.016063,0.000000,0.000000,0.000000,0.000404,0.000404,-0.001405,43.230469,23.400002,-29.531250,0.000000,0.000000,0.000000,0.000000,-0.118972,5.148000,0.000000,0.000000,0.000000,0.020000,0.024000,1010.625549,0.568575,27.054964,992,1500,1500,1500,992,992,1500,1500,1500
 11.351653,0.000000,0.000000,-0.568575,-22.427125,-1.421601,-0.010944,0.000000,0.000000,0.000000,0.000404,0.003597,-0.000341,43.230469,23.400002,-29.531250,0.000000,0.000000,0.000000,0.000000,-0.113853,5.148000,0.000000,0.000000,0.000000,0.020000,0.024000,1010.625549,0.568575,27.054964,992,1500,1500,1500,992,992,1500,1500,1500
 11.453074,0.000000,0.000000,-0.529351,-22.429574,-1.424112,-0.013528,0.000000,0.000000,0.000000,0.000404,-0.000660,-0.000341,43.230469,23.400002,-29.531250,0.000000,0.000000,0.000000,0.000000,-0.116437,5.148000,0.000000,0.000000,0.000000,0.020000,0.024000,1010.630249,0.529351,27.051546,992,1500,1500,1500,992,992,1500,1500,1500
 11.553305,0.000000,0.000000,-0.529351,-22.430535,-1.424875,-0.012163,0.000000,0.000000,0.000000,-0.001724,-0.000660,-0.000341,43.230469,23.400002,-29.531250,0.000000,0.000000,0.000000,0.000000,-0.115072,5.148000,0.000000,0.000000,0.000000,0.020000,0.024000,1010.630249,0.529351,27.051546,992,1500,1500,1500,992,992,1500,1500,1500
 11.654948,0.000000,0.000000,-0.529351,-22.439452,-1.425898,-0.013065,0.000000,0.000000,0.000000,-0.003852,-0.002788,0.000724,42.867188,21.571877,-30.937500,0.000000,0.000000,0.000000,0.000000,-0.115974,5.148000,0.000000,0.000000,0.000000,0.020000,0.024000,1010.630249,0.529351,27.051546,992,1500,1500,1500,992,992,1500,1500,1500
 11.756456,0.000000,0.000000,-0.529351,-22.442819,-1.420911,-0.010493,0.000000,0.000000,0.000000,-0.001724,0.000404,0.004981,42.867188,21.571877,-30.937500,0.000000,0.000000,0.000000,0.000000,-0.113402,5.148000,0.000000,0.000000,0.000000,0.020000,0.024000,1010.630249,0.529351,27.051546,992,1500,1500,1500,992,992,1500,1500,1500
 11.856572,0.000000,0.000000,-0.529351,-22.453260,-1.409940,-0.009054,0.000000,0.000000,0.000000,-0.000660,-0.001724,-0.000341,42.867188,21.571877,-30.937500,0.000000,0.000000,0.000000,0.000000,-0.111963,5.148000,0.000000,0.000000,0.000000,0.020000,0.024000,1010.630249,0.529351,27.051546,992,1500,1500,1500,992,992,1500,1500,1500
 11.957226,0.000000,0.000000,-0.529351,-22.463323,-1.409535,-0.010774,0.000000,0.000000,0.000000,-0.002788,0.000404,-0.004597,42.867188,21.571877,-30.937500,0.000000,0.000000,0.000000,0.000000,-0.113683,5.148000,0.000000,0.000000,0.000000,0.020000,0.024000,1010.630249,0.529351,27.051546,992,1500,1500,1500,992,992,1500,1500,1500
 12.149261,0.000000,0.000000,-0.529351,-22.445242,-1.462491,-0.014968,0.000000,0.000000,0.000000,0.000404,-0.002788,-0.000341,43.412109,21.023439,-32.519531,0.000000,0.000000,0.000000,0.000000,-0.126285,5.148000,0.000000,0.000000,0.000000,0.020000,0.024000,1010.630249,0.529351,27.051546,992,1500,1500,1500,992,992,1500,1500,1500
 12.251179,0.000000,0.000000,-0.529351,-22.443616,-1.456697,-0.015619,0.000000,0.000000,0.000000,0.002533,0.002533,0.002852,43.412109,21.023439,-32.519531,0.000000,0.000000,0.000000,0.000000,-0.126936,5.148000,0.000000,0.000000,0.000000,0.020000,0.024000,1010.630249,0.529351,27.051546,992,1500,1500,1500,992,992,1500,1500,1500
 12.352252,0.000000,0.000000,-0.529351,-22.442038,-1.459277,-0.017784,0.000000,0.000000,0.000000,0.004661,-0.001724,0.001788,43.412109,21.023439,-32.519531,0.000000,0.000000,0.000000,0.000000,-0.129101,5.148000,0.000000,0.000000,0.000000,0.020000,0.024000,1010.630249,0.529351,27.051546,992,1500,1500,1500,992,992,1500,1500,1500
 12.453007,0.000000,0.000000,-0.726489,-22.457606,-1.458622,-0.017356,0.000000,0.000000,0.000000,0.013175,-0.001724,-0.002469,43.412109,22.120314,-30.410156,0.000000,0.000000,0.000000,0.000000,-0.128673,5.148000,0.000000,0.000000,0.000000,0.020000,0.024000,1010.606628,0.726489,27.098352,992,1500,1500,1500,992,992,1500,1500,1500
 12.553281,0.000000,0.000000,-0.726489,-22.459400,-1.453575,-0.014329,0.000000,0.000000,0.000000,0.009982,-0.010238,-0.008854,43.412109,22.120314,-30.410156,0.000000,0.000000,0.000000,0.000000,-0.125647,5.148000,0.000000,0.000000,0.000000,0.020000,0.024000,1010.606628,0.726489,27.098352,992,1500,1500,1500,992,992,1500,1500,1500
 12.654565,0.000000,0.000000,-0.726489,-22.441959,-1.444375,-0.013762,0.000000,0.000000,0.000000,0.006790,0.003597,-0.002469,43.412109,22.120314,-30.410156,0.000000,0.000000,0.000000,0.000000,-0.125079,5.148000,0.000000,0.000000,0.000000,0.020000,0.024000,1010.606628,0.726489,27.098352,992,1500,1500,1500,992,992,1500,1500,1500
 12.754786,0.000000,0.000000,-0.726489,-22.438836,-1.438145,-0.009837,0.000000,0.000000,0.000000,-0.007045,-0.000660,-0.001405,44.138672,21.754688,-30.410156,0.000000,0.000000,0.000000,0.000000,-0.121155,5.148000,0.000000,0.000000,0.000000,0.020000,0.024000,1010.606628,0.726489,27.098352,992,1500,1500,1500,992,992,1500,1500,1500
 12.856409,0.000000,0.000000,-0.726489,-22.447063,-1.429158,-0.007696,0.000000,0.000000,0.000000,-0.010238,-0.001724,0.001788,44.138672,21.754688,-30.410156,0.000000,0.000000,0.000000,0.000000,-0.119013,5.148000,0.000000,0.000000,0.000000,0.020000,0.024000,1010.606628,0.726489,27.098352,992,1500,1500,1500,992,992,1500,1500,1500
 12.956589,0.000000,0.000000,-0.726489,-22.453696,-1.428713,-0.013878,0.000000,0.000000,0.000000,-0.000660,-0.001724,-0.000341,44.138672,21.754688,-30.410156,0.000000,0.000000,0.000000,0.000000,-0.125196,5.148000,0.000000,0.000000,0.000000,0.020000,0.024000,1010.606628,0.726489,27.098352,992,1500,1500,1500,992,992,1500,1500,1500
 13.135681,0.000000,0.000000,-0.726489,-22.446981,-1.440996,0.006974,0.000000,0.000000,0.000000,0.003597,0.000404,0.001788,43.048828,22.120314,-30.761719,0.000000,0.000000,0.000000,0.000000,-0.120171,5.148000,0.000000,0.000000,0.000000,0.020000,0.024000,1010.606628,0.726489,27.098352,992,1500,1500,1500,992,992,1500,1500,1500
 13.236370,0.000000,0.000000,-0.726489,-22.448020,-1.440250,0.005302,0.000000,0.000000,0.000000,0.004661,0.002533,0.003916,43.048828,22.120314,-30.761719,0.000000,0.000000,0.000000,0.000000,-0.121843,5.148000,0.000000,0.000000,0.000000,0.020000,0.024000,1010.606628,0.726489,27.098352,992,1500,1500,1500,992,992,1500,1500,1500
 13.337910,0.000000,0.000000,-0.726489,-22.450245,-1.439944,0.004541,0.000000,0.000000,0.000000,0.001469,-0.001724,-0.000341,43.048828,22.120314,-30.761719,0.000000,0.000000,0.000000,0.000000,-0.122604,5.148000,0.000000,0.000000,0.000000,0.020000,0.024000,1010.606628,0.726489,27.098352,992,1500,1500,1500,992,992,1500,1500,1500
 13.438143,0.000000,0.000000,-0.171761,-22.451710,-1.438081,0.006651,0.000000,0.000000,0.000000,-0.002788,-0.002788,0.000724,43.957031,21.571877,-31.640625,0.000000,0.000000,0.000000,0.000000,-0.120494,5.148000,0.000000,0.000000,0.000000,0.020000,0.024000,1010.673096,0.171761,27.111328,992,1500,1500,1500,992,992,1500,1500,1500
 13.538527,0.000000,0.000000,-0.171761,-22.458819,-1.433979,0.005453,0.000000,0.000000,0.000000,0.001469,0.002533,0.002852,44.865234,21.023439,-30.761719,0.000000,0.000000,0.000000,0.000000,-0.121692,5.148000,0.000000,0.000000,0.000000,0.020000,0.024000,1010.673096,0.171761,27.111328,992,1500,1500,1500,992,992,1500,1500,1500
 13.639607,0.000000,0.000000,-0.171761,-22.461633,-1.431519,0.006165,0.000000,0.000000,0.000000,-0.001724,0.001469,0.002852,44.865234,21.023439,-30.761719,0.000000,0.000000,0.000000,0.000000,-0.120980,5.148000,0.000000,0.000000,0.000000,0.020000,0.024000,1010.673096,0.171761,27.111328,992,1500,1500,1500,992,992,1500,1500,1500
 13.739957,0.000000,0.000000,-0.171761,-22.460472,-1.428476,0.009829,0.000000,0.000000,0.000000,-0.001724,0.000404,0.001788,44.865234,21.023439,-30.761719,0.000000,0.000000,0.000000,0.000000,-0.117317,5.148000,0.000000,0.000000,0.000000,0.020000,0.024000,1010.673096,0.171761,27.111328,992,1500,1500,1500,992,992,1500,1500,1500
 13.841590,0.000000,0.000000,-0.171761,-22.463290,-1.429320,0.013939,0.000000,0.000000,0.000000,0.002533,0.003597,-0.001405,43.957031,21.937502,-30.937500,0.000000,0.000000,0.000000,0.000000,-0.113206,5.148000,0.000000,0.000000,0.000000,0.020000,0.024000,1010.673096,0.171761,27.111328,992,1500,1500,1500,992,992,1500,1500,1500
 13.943203,0.000000,0.000000,-0.171761,-22.464113,-1.429177,0.009914,0.000000,0.000000,0.000000,0.000404,-0.000660,-0.002469,43.957031,21.937502,-30.937500,0.000000,0.000000,0.000000,0.000000,-0.117232,5.148000,0.000000,0.000000,0.000000,0.020000,0.024000,1010.673096,0.171761,27.111328,992,1500,1500,1500,992,992,1500,1500,1500
 14.143233,0.000000,0.000000,-0.171761,-22.456394,-1.373528,0.034113,0.000000,0.000000,0.000000,-0.001724,-0.000660,0.001788,41.595703,20.657814,-31.464844,0.000000,0.000000,0.000000,0.000000,-0.085607,5.148000,0.000000,0.000000,0.000000,0.020000,0.024000,1010.673096,0.171761,27.111328,992,1500,1500,1500,992,992,1500,1500,1500
 14.244703,0.000000,0.000000,-0.171761,-22.463071,-1.383891,0.029202,0.000000,0.000000,0.000000,0.001469,-0.003852,0.001788,41.595703,20.657814,-31.464844,0.000000,0.000000,0.000000,0.000000,-0.090518,5.148000,0.000000,0.000000,0.000000,0.020000,0.024000,1010.673096,0.171761,27.111328,992,1500,1500,1500,992,992,1500,1500,1500
 14.344710,0.000000,0.000000,-0.171761,-22.459942,-1.388344,0.024685,0.000000,0.000000,0.000000,-0.000660,0.001469,-0.002469,41.595703,20.657814,-31.464844,0.000000,0.000000,0.000000,0.000000,-0.095035,5.148000,0.000000,0.000000,0.000000,0.020000,0.024000,1010.673096,0.171761,27.111328,992,1500,1500,1500,992,992,1500,1500,1500
 14.445281,0.000000,0.000000,-0.556349,-22.462455,-1.393652,0.019425,0.000000,0.000000,0.000000,-0.001724,0.001469,-0.000341,41.595703,20.657814,-31.464844,0.000000,0.000000,0.000000,0.000000,-0.100295,5.148000,0.000000,0.000000,0.000000,0.020000,0.024000,1010.627014,0.556349,27.083982,992,1500,1500,1500,992,992,1500,1500,1500
 14.546592,0.000000,0.000000,-0.556349,-22.470626,-1.393881,0.014875,0.000000,0.000000,0.000000,-0.001724,-0.000660,-0.002469,42.867188,20.840626,-30.937500,0.000000,0.000000,0.000000,0.000000,-0.104845,5.148000,0.000000,0.000000,0.000000,0.020000,0.024000,1010.627014,0.556349,27.083982,992,1500,1500,1500,992,992,1500,1500,1500
 14.648239,0.000000,0.000000,-0.556349,-22.474253,-1.394572,0.010075,0.000000,0.000000,0.000000,0.000404,0.002533,0.001788,42.867188,20.840626,-30.937500,0.000000,0.000000,0.000000,0.000000,-0.109645,5.148000,0.000000,0.000000,0.000000,0.020000,0.024000,1010.627014,0.556349,27.083982,992,1500,1500,1500,992,992,1500,1500,1500
 14.749791,0.000000,0.000000,-0.556349,-22.469813,-1.393108,0.011930,0.000000,0.000000,0.000000,0.000404,-0.000660,0.001788,42.867188,20.840626,-30.937500,0.000000,0.000000,0.000000,0.000000,-0.107790,5.148000,0.000000,0.000000,0.000000,0.020000,0.024000,1010.627014,0.556349,27.083982,992,1500,1500,1500,992,992,1500,1500,1500
 14.851352,0.000000,0.000000,-0.556349,-22.477187,-1.395280,0.009429,0.000000,0.000000,0.000000,0.000404,-0.002788,-0.003533,42.867188,20.840626,-30.937500,0.000000,0.000000,0.000000,0.000000,-0.110290,5.148000,0.000000,0.000000,0.000000,0.020000,0.024000,1010.627014,0.556349,27.083982,992,1500,1500,1500,992,992,1500,1500,1500
 14.951610,0.000000,0.000000,-0.556349,-22.477299,-1.393374,0.009381,0.000000,0.000000,0.000000,0.005726,-0.002788,0.000724,43.412109,20.657814,-32.519531,0.000000,0.000000,0.000000,0.000000,-0.110339,5.148000,0.000000,0.000000,0.000000,0.020000,0.024000,1010.627014,0.556349,27.083982,992,1500,1500,1500,992,992,1500,1500,1500
 15.142279,0.000000,0.000000,-0.556349,-22.412538,-1.433676,-0.003964,0.000000,0.000000,0.000000,0.003597,-0.000660,0.001788,43.412109,20.657814,-32.519531,0.000000,0.000000,0.000000,0.000000,-0.114819,5.148000,0.000000,0.000000,0.000000,0.020000,0.024000,1010.627014,0.556349,27.083982,992,1500,1500,1500,992,992,1500,1500,1500
 15.243273,0.000000,0.000000,-0.556349,-22.425490,-1.430784,-0.003162,0.000000,0.000000,0.000000,-0.001724,-0.002788,0.002852,43.048828,21.754688,-31.816406,0.000000,0.000000,0.000000,0.000000,-0.114017,5.148000,0.000000,0.000000,0.000000,0.020000,0.024000,1010.627014,0.556349,27.083982,992,1500,1500,1500,992,992,1500,1500,1500
 15.344705,0.000000,0.000000,-0.556349,-22.432619,-1.428474,-0.002347,0.000000,0.000000,0.000000,0.006790,-0.000660,0.001788,43.957031,23.034376,-30.234375,0.000000,0.000000,0.000000,0.000000,-0.113202,5.148000,0.000000,0.000000,0.000000,0.020000,0.024000,1010.627014,0.556349,27.083982,992,1500,1500,1500,992,992,1500,1500,1500
 15.445280,0.000000,0.000000,-0.556349,-22.428692,-1.421128,0.003271,0.000000,0.000000,0.000000,0.007854,-0.004917,0.001788,43.957031,23.034376,-30.234375,0.000000,0.000000,0.000000,0.000000,-0.107584,5.148000,0.000000,0.000000,0.000000,0.020000,0.024000,1010.627014,0.556349,27.083982,992,1500,1500,1500,992,992,1500,1500,1500
 15.546232,0.000000,0.000000,-0.426454,-22.424206,-1.419878,0.004424,0.000000,0.000000,0.000000,0.001469,-0.000660,-0.000341,43.957031,23.034376,-30.234375,0.000000,0.000000,0.000000,0.000000,-0.106430,5.148000,0.000000,0.000000,0.000000,0.020000,0.024000,1010.642578,0.426454,27.096539,992,1500,1500,1500,992,992,1500,1500,1500
 15.646425,0.000000,0.000000,-0.426454,-22.427229,-1.412553,0.005057,0.000000,0.000000,0.000000,-0.000660,0.004661,-0.003533,43.957031,23.034376,-30.234375,0.000000,0.000000,0.000000,0.000000,-0.105797,5.148000,0.000000,0.000000,0.000000,0.020000,0.024000,1010.642578,0.426454,27.096539,992,1500,1500,1500,992,992,1500,1500,1500
 15.746475,0.000000,0.000000,-0.426454,-22.440299,-1.418082,-0.000129,0.000000,0.000000,0.000000,-0.002788,0.001469,-0.002469,43.412109,20.292189,-30.761719,0.000000,0.000000,0.000000,0.000000,-0.110984,5.148000,0.000000,0.000000,0.000000,0.020000,0.024000,1010.642578,0.426454,27.096539,992,1500,1500,1500,992,992,1500,1500,1500
 15.846571,0.000000,0.000000,-0.426454,-22.442644,-1.417450,0.004010,0.000000,0.000000,0.000000,0.003597,0.000404,-0.002469,43.412109,20.292189,-30.761719,0.000000,0.000000,0.000000,0.000000,-0.106844,5.148000,0.000000,0.000000,0.000000,0.020000,0.024000,1010.642578,0.426454,27.096539,992,1500,1500,1500,992,992,1500,1500,1500
 15.946577,0.000000,0.000000,-0.426454,-22.441566,-1.417083,0.007550,0.000000,0.000000,0.000000,-0.003852,-0.000660,-0.003533,43.412109,20.292189,-30.761719,0.000000,0.000000,0.000000,0.000000,-0.103305,5.148000,0.000000,0.000000,0.000000,0.020000,0.024000,1010.642578,0.426454,27.096539,992,1500,1500,1500,992,992,1500,1500,1500
 16.136708,0.000000,0.000000,-0.426454,-22.504671,-1.506614,-0.048345,0.000000,0.000000,0.000000,-0.004917,-0.000660,-0.002469,43.593750,21.937502,-31.289062,0.000000,0.000000,0.000000,0.000000,-0.152904,5.148000,0.000000,0.000000,0.000000,0.020000,0.024000,1010.642578,0.426454,27.096539,992,1500,1500,1500,992,992,1500,1500,1500
 16.238086,0.000000,0.000000,-0.426454,-22.501534,-1.498832,-0.046989,0.000000,0.000000,0.000000,-0.007045,0.000404,-0.002469,43.593750,21.937502,-31.289062,0.000000,0.000000,0.000000,0.000000,-0.151548,5.148000,0.000000,0.000000,0.000000,0.020000,0.024000,1010.642578,0.426454,27.096539,992,1500,1500,1500,992,992,1500,1500,1500
 16.338093,0.000000,0.000000,-0.426454,-22.500421,-1.483719,-0.042580,0.000000,0.000000,0.000000,0.002533,0.000404,0.001788,43.593750,21.937502,-31.289062,0.000000,0.000000,0.000000,0.000000,-0.147139,5.148000,0.000000,0.000000,0.000000,0.020000,0.024000,1010.642578,0.426454,27.096539,992,1500,1500,1500,992,992,1500,1500,1500
 16.439652,0.000000,0.000000,-0.426454,-22.496515,-1.476362,-0.042638,0.000000,0.000000,0.000000,0.004661,0.000404,0.000724,43.412109,21.389065,-31.816406,0.000000,0.000000,0.000000,0.000000,-0.147197,5.148000,0.000000,0.000000,0.000000,0.020000,0.024000,1010.642578,0.426454,27.096539,992,1500,1500,1500,992,992,1500,1500,1500
 16.539665,0.000000,0.000000,-0.319482,-22.493484,-1.470999,-0.041107,0.000000,0.000000,0.000000,-0.001724,-0.001724,-0.001405,43.412109,21.389065,-31.816406,0.000000,0.000000,0.000000,0.000000,-0.145666,5.148000,0.000000,0.000000,0.000000,0.020000,0.024000,1010.655396,0.319482,27.142927,992,1500,1500,1500,992,992,1500,1500,1500
 16.639718,0.000000,0.000000,-0.319482,-22.492071,-1.469270,-0.036972,0.000000,0.000000,0.000000,-0.000660,-0.000660,0.001788,42.503906,21.937502,-31.992188,0.000000,0.000000,0.000000,0.000000,-0.141531,5.148000,0.000000,0.000000,0.000000,0.020000,0.024000,1010.655396,0.319482,27.142927,992,1500,1500,1500,992,992,1500,1500,1500
 16.741735,0.000000,0.000000,-0.319482,-22.493016,-1.461524,-0.037715,0.000000,0.000000,0.000000,0.000404,-0.002788,-0.000341,42.503906,21.937502,-31.992188,0.000000,0.000000,0.000000,0.000000,-0.142274,5.148000,0.000000,0.000000,0.000000,0.020000,0.024000,1010.655396,0.319482,27.142927,992,1500,1500,1500,992,992,1500,1500,1500
 16.843266,0.000000,0.000000,-0.319482,-22.486233,-1.456628,-0.038160,0.000000,0.000000,0.000000,-0.000660,-0.001724,0.003916,42.503906,21.937502,-31.992188,0.000000,0.000000,0.000000,0.000000,-0.142719,5.148000,0.000000,0.000000,0.000000,0.020000,0.024000,1010.655396,0.319482,27.142927,992,1500,1500,1500,992,992,1500,1500,1500
 16.944760,0.000000,0.000000,-0.319482,-22.482595,-1.443401,-0.035920,0.000000,0.000000,0.000000,-0.001724,0.002533,-0.001405,43.048828,22.120314,-31.464844,0.000000,0.000000,0.000000,0.000000,-0.140478,5.148000,0.000000,0.000000,0.000000,0.020000,0.024000,1010.655396,0.319482,27.142927,992,1500,1500,1500,992,992,1500,1500,1500
 17.156095,0.000000,0.000000,-0.319482,-22.438031,-1.432550,0.006102,0.000000,0.000000,0.000000,0.001469,0.000404,0.000724,42.867188,22.303127,-30.585938,0.000000,0.000000,0.000000,0.000000,-0.134284,5.148000,0.000000,0.000000,0.000000,0.020000,0.024000,1010.655396,0.319482,27.142927,992,1500,1500,1500,992,992,1500,1500,1500
 17.256153,0.000000,0.000000,-0.319482,-22.445579,-1.432919,0.006598,0.000000,0.000000,0.000000,-0.000660,0.002533,-0.000341,42.867188,22.303127,-30.585938,0.000000,0.000000,0.000000,0.000000,-0.133788,5.148000,0.000000,0.000000,0.000000,0.020000,0.024000,1010.655396,0.319482,27.142927,992,1500,1500,1500,992,992,1500,1500,1500
 17.357539,0.000000,0.000000,-0.319482,-22.446334,-1.430918,0.006490,0.000000,0.000000,0.000000,0.006790,0.000404,-0.000341,42.867188,22.303127,-30.585938,0.000000,0.000000,0.000000,0.000000,-0.133897,5.148000,0.000000,0.000000,0.000000,0.020000,0.024000,1010.655396,0.319482,27.142927,992,1500,1500,1500,992,992,1500,1500,1500
 17.458611,0.000000,0.000000,-0.319482,-22.446508,-1.429332,0.006421,0.000000,0.000000,0.000000,0.001469,0.000404,0.001788,41.777344,22.303127,-30.937500,0.000000,0.000000,0.000000,0.000000,-0.133965,5.148000,0.000000,0.000000,0.000000,0.020000,0.024000,1010.655396,0.319482,27.142927,992,1500,1500,1500,992,992,1500,1500,1500
 17.559323,0.000000,0.000000,-0.745847,-22.461146,-1.426077,0.006748,0.000000,0.000000,0.000000,-0.003852,0.001469,0.001788,41.777344,22.303127,-30.937500,0.000000,0.000000,0.000000,0.000000,-0.133639,5.148000,0.000000,0.000000,0.000000,0.020000,0.024000,1010.604309,0.745847,27.166714,992,1500,1500,1500,992,992,1500,1500,1500
 17.660203,0.000000,0.000000,-0.745847,-22.461046,-1.425088,0.005966,0.000000,0.000000,0.000000,0.001469,0.000404,-0.000341,41.777344,22.303127,-30.937500,0.000000,0.000000,0.000000,0.000000,-0.134420,5.148000,0.000000,0.000000,0.000000,0.020000,0.024000,1010.604309,0.745847,27.166714,992,1500,1500,1500,992,992,1500,1500,1500
 17.761505,0.000000,0.000000,-0.745847,-22.465918,-1.421367,0.008142,0.000000,0.000000,0.000000,-0.004917,-0.001724,-0.001405,41.777344,22.303127,-30.937500,0.000000,0.000000,0.000000,0.000000,-0.132244,5.148000,0.000000,0.000000,0.000000,0.020000,0.024000,1010.604309,0.745847,27.166714,992,1500,1500,1500,992,992,1500,1500,1500
 17.862801,0.000000,0.000000,-0.745847,-22.469133,-1.419963,0.011125,0.000000,0.000000,0.000000,-0.000660,0.000404,-0.001405,43.775391,19.926563,-32.167969,0.000000,0.000000,0.000000,0.000000,-0.129261,5.148000,0.000000,0.000000,0.000000,0.020000,0.024000,1010.604309,0.745847,27.166714,992,1500,1500,1500,992,992,1500,1500,1500
 17.966660,0.000000,0.000000,-0.745847,-22.478011,-1.425484,0.012954,0.000000,0.000000,0.000000,-0.001724,0.001469,0.001788,43.775391,19.926563,-32.167969,0.000000,0.000000,0.000000,0.000000,-0.127432,5.148000,0.000000,0.000000,0.000000,0.020000,0.024000,1010.604309,0.745847,27.166714,992,1500,1500,1500,992,992,1500,1500,1500
 18.138661,0.000000,0.000000,-0.745847,-22.448458,-1.471384,-0.010866,0.000000,0.000000,0.000000,0.000404,-0.000660,0.000724,43.775391,19.926563,-32.167969,0.000000,0.000000,0.000000,0.000000,-0.136113,5.148000,0.000000,0.000000,0.000000,0.020000,0.024000,1010.604309,0.745847,27.166714,992,1500,1500,1500,992,992,1500,1500,1500
 18.239589,0.000000,0.000000,-0.745847,-22.448835,-1.464833,-0.008847,0.000000,0.000000,0.000000,-0.003852,-0.001724,0.002852,41.958984,21.023439,-32.519531,0.000000,0.000000,0.000000,0.000000,-0.134094,5.148000,0.000000,0.000000,0.000000,0.020000,0.024000,1010.604309,0.745847,27.166714,992,1500,1500,1500,992,992,1500,1500,1500
 18.340831,0.000000,0.000000,-0.745847,-22.453194,-1.457233,-0.004390,0.000000,0.000000,0.000000,-0.001724,0.003597,-0.001405,41.958984,21.023439,-32.519531,0.000000,0.000000,0.000000,0.000000,-0.129636,5.148000,0.000000,0.000000,0.000000,0.020000,0.024000,1010.604309,0.745847,27.166714,992,1500,1500,1500,992,992,1500,1500,1500
 18.442359,0.000000,0.000000,-0.745847,-22.456788,-1.448155,-0.001183,0.000000,0.000000,0.000000,0.000404,-0.005981,0.000724,41.958984,21.023439,-32.519531,0.000000,0.000000,0.000000,0.000000,-0.126429,5.148000,0.000000,0.000000,0.000000,0.020000,0.024000,1010.604309,0.745847,27.166714,992,1500,1500,1500,992,992,1500,1500,1500
 18.542554,0.000000,0.000000,-0.359724,-22.456993,-1.436166,0.001581,0.000000,0.000000,0.000000,0.002533,-0.000660,0.006045,41.958984,21.023439,-32.519531,0.000000,0.000000,0.000000,0.000000,-0.123666,5.148000,0.000000,0.000000,0.000000,0.020000,0.024000,1010.650574,0.359724,27.200825,992,1500,1500,1500,992,992,1500,1500,1500
 18.642738,0.000000,0.000000,-0.359724,-22.459441,-1.428753,0.007559,0.000000,0.000000,0.000000,0.000404,-0.000660,-0.000341,43.775391,22.851564,-31.113281,0.000000,0.000000,0.000000,0.000000,-0.117687,5.148000,0.000000,0.000000,0.000000,0.020000,0.024000,1010.650574,0.359724,27.200825,992,1500,1500,1500,992,992,1500,1500,1500
 18.743866,0.000000,0.000000,-0.359724,-22.447794,-1.421185,0.010499,0.000000,0.000000,0.000000,0.000404,0.001469,0.003916,42.867188,21.937502,-30.937500,0.000000,0.000000,0.000000,0.000000,-0.114747,5.148000,0.000000,0.000000,0.000000,0.020000,0.024000,1010.650574,0.359724,27.200825,992,1500,1500,1500,992,992,1500,1500,1500
 18.844670,0.000000,0.000000,-0.359724,-22.452797,-1.412592,0.013675,0.000000,0.000000,0.000000,0.000404,0.000404,0.003916,42.867188,21.937502,-30.937500,0.000000,0.000000,0.000000,0.000000,-0.111572,5.148000,0.000000,0.000000,0.000000,0.020000,0.024000,1010.650574,0.359724,27.200825,992,1500,1500,1500,992,992,1500,1500,1500
 18.946058,0.000000,0.000000,-0.359724,-22.451611,-1.413461,0.013146,0.000000,0.000000,0.000000,-0.001724,0.000404,-0.001405,42.867188,21.937502,-30.937500,0.000000,0.000000,0.000000,0.000000,-0.112101,5.148000,0.000000,0.000000,0.000000,0.020000,0.024000,1010.650574,0.359724,27.200825,992,1500,1500,1500,992,992,1500,1500,1500
 19.131761,0.000000,0.000000,-0.359724,-22.552409,-1.417022,-0.016789,0.000000,0.000000,0.000000,-0.004917,-0.002788,-0.003533,43.230469,22.303127,-31.289062,0.000000,0.000000,0.000000,0.000000,-0.129520,5.148000,0.000000,0.000000,0.000000,0.020000,0.024000,1010.650574,0.359724,27.200825,992,1500,1500,1500,992,992,1500,1500,1500
 19.232118,0.000000,0.000000,-0.359724,-22.555545,-1.413086,-0.014947,0.000000,0.000000,0.000000,0.001469,-0.001724,0.001788,43.230469,22.303127,-31.289062,0.000000,0.000000,0.000000,0.000000,-0.127678,5.148000,0.000000,0.000000,0.000000,0.020000,0.024000,1010.650574,0.359724,27.200825,992,1500,1500,1500,992,992,1500,1500,1500
 19.332180,0.000000,0.000000,-0.359724,-22.551427,-1.418747,-0.014386,0.000000,0.000000,0.000000,-0.001724,-0.000660,0.000724,43.230469,22.303127,-31.289062,0.000000,0.000000,0.000000,0.000000,-0.127117,5.148000,0.000000,0.000000,0.000000,0.020000,0.024000,1010.650574,0.359724,27.200825,992,1500,1500,1500,992,992,1500,1500,1500
 19.432255,0.000000,0.000000,-0.359724,-22.542328,-1.415276,-0.017016,0.000000,0.000000,0.000000,0.002533,0.002533,0.002852,43.230469,22.303127,-31.289062,0.000000,0.000000,0.000000,0.000000,-0.129747,5.148000,0.000000,0.000000,0.000000,0.020000,0.024000,1010.650574,0.359724,27.200825,992,1500,1500,1500,992,992,1500,1500,1500
 19.532352,0.000000,0.000000,-0.359724,-22.533826,-1.417389,-0.017325,0.000000,0.000000,0.000000,-0.000660,-0.001724,-0.001405,43.230469,22.303127,-31.289062,0.000000,0.000000,0.000000,0.000000,-0.130056,5.148000,0.000000,0.000000,0.000000,0.020000,0.024000,1010.650574,0.359724,27.200825,992,1500,1500,1500,992,992,1500,1500,1500
 19.632774,0.000000,0.000000,-0.582329,-22.525061,-1.413735,-0.015207,0.000000,0.000000,0.000000,-0.000660,0.002533,-0.000341,44.320312,22.668751,-30.585938,0.000000,0.000000,0.000000,0.000000,-0.127938,5.148000,0.000000,0.000000,0.000000,0.020000,0.024000,1010.623901,0.582329,27.239120,992,1500,1500,1500,992,992,1500,1500,1500
 19.733949,0.000000,0.000000,-0.582329,-22.514126,-1.415585,-0.019823,0.000000,0.000000,0.000000,-0.001724,0.002533,0.000724,42.503906,20.840626,-30.937500,0.000000,0.000000,0.000000,0.000000,-0.132554,5.148000,0.000000,0.000000,0.000000,0.020000,0.024000,1010.623901,0.582329,27.239120,992,1500,1500,1500,992,992,1500,1500,1500
 19.835187,0.000000,0.000000,-0.582329,-22.508162,-1.410391,-0.021824,0.000000,0.000000,0.000000,-0.000660,0.001469,-0.000341,42.503906,20.840626,-30.937500,0.000000,0.000000,0.000000,0.000000,-0.134555,5.148000,0.000000,0.000000,0.000000,0.020000,0.024000,1010.623901,0.582329,27.239120,992,1500,1500,1500,992,992,1500,1500,1500
 19.935197,0.000000,0.000000,-0.582329,-22.506822,-1.417682,-0.024619,0.000000,0.000000,0.000000,-0.001724,-0.001724,-0.000341,42.503906,20.840626,-30.937500,0.000000,0.000000,0.000000,0.000000,-0.137350,5.148000,0.000000,0.000000,0.000000,0.020000,0.024000,1010.623901,0.582329,27.239120,992,1500,1500,1500,992,992,1500,1500,1500
