Time (sec) ,Sense X(m) ,Sense Y(m) ,Sense Z(m) ,Sense Roll (deg) ,Sense Pitch (deg) ,Sense Compass (deg) ,Sense U(m/s) ,Sense V(m/s) ,Sense W(m/s) ,Sense P(rad/s) ,Sense Q(rad/s) ,Sense R(rad/s) ,Sense Mx(Gauss) ,Sense My(Gauss) ,Sense Mz(Gauss) ,Sense GPS Latitude (deg) ,Sense GPS Longitude (deg) ,Sense GPS Altitude (m) ,Sense GPS Heading (deg) ,Sense IMU Heading (deg) ,Sense Analog 1 (V) ,Sense Analog 2 (V) ,Sense Analog 3 (V) ,Sense Analog 4 (V) ,Sense Analog 5 (V) ,Sense Analog 6 (V) ,Sense Pressure (Pa) ,Sense Pressure Altitude (m) ,Sense Temperature (C) ,RC In Channel #5 ,PWM Hardware Out 1 ,PWM Hardware Out 2 ,PWM Hardware Out 3 ,PWM Hardware Out 4 
 0.000000,0.000000,0.000000,-0.000000,0.000000,0.000000,0.000000,0.000000,0.000000,0.000000,0.011228,-0.007439,0.001905,14.121680,-32.565235,17.931446,30.491684,-88.211945,0.000000,0.000000,-0.000000,5.142000,0.000000,1.134000,0.000000,0.014000,0.024000,-99.000000,0.000000,25.500000,992,992,1500,1500,1500
0.142155,0.000000,0.000000,-0.000000,-0.992604,1.364625,-0.024508,0.000000,0.000000,0.000000,-0.023892,0.002139,-0.004480,14.121680,-32.565235,17.931446,30.491684,-88.211945,0.000000,0.000000,-0.024508,5.142000,0.000000,1.134000,0.000000,0.014000,0.024000,-99.000000,0.000000,25.500000,992,992,1500,1500,1500
0.243710,0.000000,0.000000,-0.000000,-1.641425,2.168865,-0.019787,0.000000,0.000000,0.000000,0.004842,-0.008503,0.001905,12.287696,-32.565235,17.221289,30.491684,-88.211945,0.000000,0.000000,-0.019787,5.142000,0.000000,1.134000,0.000000,0.014000,0.024000,1027.656372,0.000000,17.190168,992,992,1492,1505,1502
0.344483,0.000000,0.000000,-0.000000,-1.984293,2.875390,0.014754,0.000000,0.000000,0.000000,0.019741,0.005332,0.008290,12.287696,-32.565235,17.221289,30.491684,-88.211945,0.000000,0.000000,0.014754,5.142000,0.000000,1.134000,0.000000,0.014000,0.024000,1027.656372,0.000000,17.190168,992,992,1491,1506,1502
0.444709,0.000000,0.000000,-0.000000,-2.409567,3.521693,0.038529,0.000000,0.000000,0.000000,0.002714,0.005332,0.004033,12.287696,-32.565235,17.221289,30.491684,-88.211945,0.000000,0.000000,0.038529,5.142000,0.000000,1.134000,0.000000,0.014000,0.024000,1027.656372,0.000000,17.190168,992,992,1492,1504,1503
0.545508,0.000000,0.000000,-0.000000,-2.724549,4.109985,0.071305,0.000000,0.000000,0.000000,-0.003672,-0.006375,-0.001288,14.855273,-32.197266,18.286524,30.491684,-88.211945,0.000000,0.000000,0.071305,5.142000,0.000000,1.134000,0.000000,0.014000,0.024000,1027.656372,0.000000,17.190168,993,992,1492,1505,1502
0.646390,0.000000,0.000000,-0.000000,-3.062592,4.631860,0.098652,0.000000,0.000000,0.000000,-0.001543,0.000011,-0.002352,14.121680,-33.301174,17.576368,30.491684,-88.211945,0.000000,0.000000,0.098652,5.142000,0.000000,1.134000,0.000000,0.014000,0.024000,1027.656372,0.000000,17.190168,993,992,1492,1505,1502
0.747160,0.000000,0.000000,-0.000000,-3.368976,5.115143,0.128928,0.000000,0.000000,0.000000,0.001650,0.003203,-0.001288,14.121680,-33.301174,17.576368,30.491684,-88.211945,0.000000,0.000000,0.128928,5.142000,0.000000,1.134000,0.000000,0.014000,0.024000,1027.656372,0.000000,17.190168,992,992,1492,1504,1503
0.847815,0.000000,0.000000,-0.000000,-3.642286,5.558377,0.160969,0.000000,0.000000,0.000000,-0.006864,-0.001054,-0.003416,14.121680,-33.301174,17.576368,30.491684,-88.211945,0.000000,0.000000,0.160969,5.142000,0.000000,1.134000,0.000000,0.014000,0.024000,1027.656372,0.000000,17.190168,993,992,1492,1505,1502
0.948034,0.000000,0.000000,-0.000000,-3.968913,5.943996,0.185781,0.000000,0.000000,0.000000,0.037833,-0.002118,0.005098,14.121680,-33.301174,17.576368,30.491684,-88.211945,0.000000,0.000000,0.185781,5.142000,0.000000,1.134000,0.000000,0.014000,0.024000,1027.656372,0.000000,17.190168,992,992,1491,1504,1503
1.049529,30.806913,-43.358602,-0.000000,-3.985639,6.279909,0.001048,0.000000,0.000000,0.000000,-0.023892,0.005332,-0.003416,14.488477,-31.093361,19.706837,30.491961,-88.212397,-8.798000,0.000000,0.206169,5.142000,0.000000,1.134000,0.000000,0.014000,0.024000,1027.656372,0.000000,17.190168,993,992,1490,1505,1502
1.150087,30.806913,-43.358602,-0.000000,-4.407106,6.608408,0.024501,0.000000,0.000000,0.000000,0.016549,-0.004246,0.001905,14.671875,-32.013283,19.529297,30.491961,-88.212397,-8.798000,0.000000,0.229622,5.142000,0.000000,1.134000,0.000000,0.014000,0.024000,1027.656372,0.000000,17.190168,992,992,1491,1505,1502
1.250176,30.806913,-43.358602,-5477.364337,-4.314939,6.907426,0.052705,0.000000,0.000000,0.000000,0.022934,0.004268,0.005098,14.671875,-32.013283,19.529297,30.491961,-88.212397,-8.798000,0.000000,0.257826,5.142000,0.000000,1.134000,0.000000,0.014000,0.024000,1027.671387,5477.364337,17.200310,992,992,1491,1505,1503
1.351326,30.806913,-43.358602,-5477.364337,-4.665427,7.178403,0.072866,0.000000,0.000000,0.000000,-0.055819,0.004268,-0.008737,14.671875,-32.013283,19.529297,30.491961,-88.212397,-8.798000,0.000000,0.277987,5.142000,0.000000,1.134000,0.000000,0.014000,0.024000,1027.671387,5477.364337,17.200310,992,992,1491,1505,1503
1.451630,30.806913,-43.358602,-5477.364337,-4.848515,7.420898,0.099726,0.000000,0.000000,0.000000,0.049540,0.005332,0.000841,12.104297,-32.381252,19.884375,30.491961,-88.212397,-8.798000,0.000000,0.304847,5.142000,0.000000,1.134000,0.000000,0.014000,0.024000,1027.671387,5477.364337,17.200310,992,992,1490,1505,1502
1.551679,30.806913,-43.358602,-5477.364337,-4.893888,7.639482,0.126491,0.000000,0.000000,0.000000,-0.048369,-0.008503,-0.007673,14.488477,-33.301174,20.061914,30.491961,-88.212397,-8.798000,0.000000,0.331612,5.142000,0.000000,1.134000,0.000000,0.014000,0.024000,1027.671387,5477.364337,17.200310,992,992,1491,1505,1503
1.651708,30.806913,-43.358602,-5477.364337,-5.176246,7.832723,0.141034,0.000000,0.000000,0.000000,0.025062,-0.007439,-0.001288,14.488477,-33.301174,20.061914,30.491961,-88.212397,-8.798000,0.000000,0.346155,5.142000,0.000000,1.134000,0.000000,0.014000,0.024000,1027.671387,5477.364337,17.200310,993,992,1491,1505,1502
1.753124,30.806913,-43.358602,-5477.364337,-5.092292,8.006101,0.154215,0.000000,0.000000,0.000000,0.015484,-0.004246,0.005098,14.488477,-33.301174,20.061914,30.491961,-88.212397,-8.798000,0.000000,0.359336,5.142000,0.000000,1.134000,0.000000,0.014000,0.024000,1027.671387,5477.364337,17.200310,993,992,1491,1505,1502
1.853948,30.806913,-43.358602,-5477.364337,-5.133140,8.162472,0.169603,0.000000,0.000000,0.000000,-0.022828,0.004268,-0.002352,14.488477,-33.301174,20.061914,30.491961,-88.212397,-8.798000,0.000000,0.374724,5.142000,0.000000,1.134000,0.000000,0.014000,0.024000,1027.671387,5477.364337,17.200310,992,992,1491,1505,1503
1.954799,30.806913,-43.358602,-5477.364337,-5.377500,8.324037,0.184205,0.000000,0.000000,0.000000,-0.003672,-0.003182,-0.002352,13.021289,-32.933205,16.511133,30.491961,-88.212397,-8.798000,0.000000,0.389326,5.142000,0.000000,1.134000,0.000000,0.014000,0.024000,1027.671387,5477.364337,17.200310,992,992,1491,1505,1502
2.126859,30.806913,-43.358602,-5477.364337,-5.643054,8.600923,0.044485,0.000000,0.000000,0.000000,-0.013250,-0.004246,0.000841,13.021289,-33.669144,17.931446,30.491961,-88.212397,-8.798000,0.000000,0.437285,5.142000,0.000000,1.134000,0.000000,0.014000,0.024000,1027.671387,5477.364337,17.200310,992,992,1490,1505,1502
2.227346,30.806913,-43.358602,-8362.023169,-5.671294,8.692678,0.054390,0.000000,0.000000,0.000000,0.049540,0.000011,0.005098,13.021289,-33.669144,17.931446,30.491961,-88.212397,-8.798000,0.000000,0.447189,5.142000,0.000000,1.134000,0.000000,0.014000,0.024000,1027.695801,8362.023169,17.204762,992,992,1491,1505,1502
2.327400,30.806913,-43.358602,-8362.023169,-5.586742,8.786391,0.064585,0.000000,0.000000,0.000000,-0.006864,0.003203,0.000841,13.021289,-33.669144,17.931446,30.491961,-88.212397,-8.798000,0.000000,0.457384,5.142000,0.000000,1.134000,0.000000,0.014000,0.024000,1027.695801,8362.023169,17.204762,992,992,1490,1505,1502
2.428064,30.806913,-43.358602,-8362.023169,-5.799471,8.859780,0.079042,0.000000,0.000000,0.000000,-0.016442,0.002139,0.006162,12.471094,-33.117188,17.753906,30.491961,-88.212397,-8.798000,0.000000,0.471841,5.142000,0.000000,1.134000,0.000000,0.014000,0.024000,1027.695801,8362.023169,17.204762,992,992,1491,1505,1502
2.528811,30.806913,-43.358602,-8362.023169,-5.804019,8.964800,0.093263,0.000000,0.000000,0.000000,0.049540,0.038323,0.015740,12.471094,-33.117188,17.753906,30.491961,-88.212397,-8.798000,0.000000,0.486062,5.142000,0.000000,1.134000,0.000000,0.014000,0.024000,1027.695801,8362.023169,17.204762,992,992,1491,1505,1502
2.630134,30.806913,-43.358602,-8362.023169,-5.733372,9.050690,0.095841,0.000000,0.000000,0.000000,-0.023892,-0.014888,-0.004480,12.471094,-33.117188,17.753906,30.491961,-88.212397,-8.798000,0.000000,0.488640,5.142000,0.000000,1.134000,0.000000,0.014000,0.024000,1027.695801,8362.023169,17.204762,992,992,1491,1505,1502
2.730820,30.806913,-43.358602,-8362.023169,-5.737126,9.103861,0.102243,0.000000,0.000000,0.000000,-0.017506,0.000011,-0.008737,12.471094,-33.117188,17.753906,30.491961,-88.212397,-8.798000,0.000000,0.495042,5.142000,0.000000,1.134000,0.000000,0.014000,0.024000,1027.695801,8362.023169,17.204762,992,992,1491,1505,1502
2.832359,30.806913,-43.358602,-8362.023169,-5.868332,9.167453,0.110867,0.000000,0.000000,0.000000,0.010163,-0.004246,0.000841,14.121680,-34.037109,18.641602,30.491961,-88.212397,-8.798000,0.000000,0.503666,5.142000,0.000000,1.134000,0.000000,0.014000,0.024000,1027.695801,8362.023169,17.204762,992,992,1491,1505,1502
2.933393,30.806913,-43.358602,-8362.023169,-5.785495,9.224163,0.117020,0.000000,0.000000,0.000000,-0.008993,0.006396,0.000841,14.121680,-34.037109,18.641602,30.491961,-88.212397,-8.798000,0.000000,0.509819,5.142000,0.000000,1.134000,0.000000,0.014000,0.024000,1027.695801,8362.023169,17.204762,992,992,1491,1505,1502
3.073220,30.906921,-43.492655,-8362.023169,-5.777630,9.249205,-53.269819,0.055708,0.000000,0.000000,0.048475,-0.003182,0.009355,14.121680,-34.037109,18.641602,30.491962,-88.212399,-9.687000,-53.275915,0.526352,5.142000,0.000000,1.134000,0.000000,0.014000,0.024000,1027.695801,8362.023169,17.204762,992,992,1490,1505,1502
3.174283,30.906921,-43.492655,-8362.023169,-5.701487,9.282569,-53.267906,0.055708,0.000000,0.000000,-0.034534,0.006396,-0.005545,13.571485,-33.485157,15.978516,30.491962,-88.212399,-9.687000,-53.275915,0.528266,5.142000,0.000000,1.134000,0.000000,0.014000,0.024000,1027.695801,8362.023169,17.204762,992,992,1491,1505,1503
3.274330,30.906921,-43.492655,-10277.972651,-5.842417,9.335481,-53.261314,0.055708,0.000000,0.000000,0.027191,-0.007439,0.005098,13.571485,-33.485157,15.978516,30.491962,-88.212399,-9.687000,-53.275915,0.534857,5.142000,0.000000,1.134000,0.000000,0.014000,0.024000,1027.697021,10277.972651,17.201746,992,992,1490,1505,1502
3.375251,30.906921,-43.492655,-10277.972651,-5.817359,9.365458,-53.257218,0.055708,0.000000,0.000000,-0.020699,-0.009567,-0.003416,13.571485,-33.485157,15.978516,30.491962,-88.212399,-9.687000,-53.275915,0.538954,5.142000,0.000000,1.134000,0.000000,0.014000,0.024000,1027.697021,10277.972651,17.201746,992,992,1491,1505,1502
3.475320,30.906921,-43.492655,-10277.972651,-5.913189,9.386167,-53.254657,0.055708,0.000000,0.000000,0.019741,0.002139,0.004033,13.571485,-33.485157,15.978516,30.491962,-88.212399,-9.687000,-53.275915,0.541514,5.142000,0.000000,1.134000,0.000000,0.014000,0.024000,1027.697021,10277.972651,17.201746,993,992,1491,1505,1502
3.576089,30.906921,-43.492655,-10277.972651,-5.829411,9.423443,-53.253989,0.055708,0.000000,0.000000,0.004842,0.004268,-0.001288,13.388086,-32.565235,16.866211,30.491962,-88.212399,-9.687000,-53.275915,0.542183,5.142000,0.000000,1.134000,0.000000,0.014000,0.024000,1027.697021,10277.972651,17.201746,993,992,1491,1505,1502
3.677633,30.906921,-43.492655,-10277.972651,-6.026972,9.463494,-53.242755,0.055708,0.000000,0.000000,0.008035,-0.004246,0.002969,13.388086,-32.565235,16.866211,30.491962,-88.212399,-9.687000,-53.275915,0.553416,5.142000,0.000000,1.134000,0.000000,0.014000,0.024000,1027.697021,10277.972651,17.201746,992,992,1491,1505,1503
3.779561,30.906921,-43.492655,-10277.972651,-5.862915,9.467561,-53.247534,0.055708,0.000000,0.000000,-0.000479,0.004268,-0.005545,13.388086,-32.565235,16.866211,30.491962,-88.212399,-9.687000,-53.275915,0.548637,5.142000,0.000000,1.134000,0.000000,0.014000,0.024000,1027.697021,10277.972651,17.201746,993,992,1491,1505,1502
3.880587,30.906921,-43.492655,-10277.972651,-5.973954,9.489386,-53.238894,0.055708,0.000000,0.000000,-0.004736,0.007460,0.004033,14.671875,-32.749222,19.529297,30.491962,-88.212399,-9.687000,-53.275915,0.557278,5.142000,0.000000,1.134000,0.000000,0.014000,0.024000,1027.697021,10277.972651,17.201746,992,992,1491,1505,1502
3.980865,30.906921,-43.492655,-10277.972651,-5.879881,9.519519,-53.240462,0.055708,0.000000,0.000000,0.038897,-0.006375,0.005098,14.671875,-32.749222,19.529297,30.491962,-88.212399,-9.687000,-53.275915,0.555709,5.142000,0.000000,1.134000,0.000000,0.014000,0.024000,1027.697021,10277.972651,17.201746,992,992,1491,1506,1502
4.128456,30.906921,-43.492655,-10277.972651,-5.833968,9.583266,-53.253842,0.055708,0.000000,0.000000,0.018677,0.008524,0.006162,14.671875,-32.749222,19.529297,30.491962,-88.212399,-9.687000,-53.275915,0.577522,5.142000,0.000000,1.134000,0.000000,0.014000,0.024000,1027.697021,10277.972651,17.201746,992,992,1490,1506,1502
4.229765,30.906921,-43.492655,-10277.972651,-5.757561,9.603498,-53.251515,0.055708,0.000000,0.000000,-0.041984,-0.001054,-0.002352,14.671875,-33.853127,17.753906,30.491962,-88.212399,-9.687000,-53.275915,0.579848,5.142000,0.000000,1.134000,0.000000,0.014000,0.024000,1027.697021,10277.972651,17.201746,992,992,1491,1505,1503
4.331189,30.906921,-43.492655,-11693.570315,-5.926042,9.605893,-53.248686,0.055708,0.000000,0.000000,0.046347,-0.006375,0.000841,14.671875,-33.853127,17.753906,30.491962,-88.212399,-9.687000,-53.275915,0.582677,5.142000,0.000000,1.134000,0.000000,0.014000,0.024000,1027.689575,11693.570315,17.203186,992,992,1490,1506,1502
4.432397,30.906921,-43.492655,-11693.570315,-5.810582,9.606432,-53.250564,0.055708,0.000000,0.000000,-0.015378,0.009589,-0.002352,14.671875,-33.853127,17.753906,30.491962,-88.212399,-9.687000,-53.275915,0.580799,5.142000,0.000000,1.134000,0.000000,0.014000,0.024000,1027.689575,11693.570315,17.203186,993,992,1491,1505,1502
4.532792,30.906921,-43.492655,-11693.570315,-6.004281,9.633600,-53.239113,0.055708,0.000000,0.000000,0.017613,0.001075,0.005098,14.671875,-33.853127,17.753906,30.491962,-88.212399,-9.687000,-53.275915,0.592250,5.142000,0.000000,1.134000,0.000000,0.014000,0.024000,1027.689575,11693.570315,17.203186,993,992,1491,1505,1502
4.633815,30.906921,-43.492655,-11693.570315,-5.825451,9.632616,-53.248221,0.055708,0.000000,0.000000,-0.010057,-0.005310,-0.005545,13.388086,-31.829298,16.156055,30.491962,-88.212399,-9.687000,-53.275915,0.583143,5.142000,0.000000,1.134000,0.000000,0.014000,0.024000,1027.689575,11693.570315,17.203186,992,992,1491,1505,1503
4.734527,30.906921,-43.492655,-11693.570315,-5.950990,9.630371,-53.243335,0.055708,0.000000,0.000000,0.022934,0.000011,0.005098,13.388086,-31.829298,16.156055,30.491962,-88.212399,-9.687000,-53.275915,0.588028,5.142000,0.000000,1.134000,0.000000,0.014000,0.024000,1027.689575,11693.570315,17.203186,992,992,1491,1505,1502
4.834864,30.906921,-43.492655,-11693.570315,-5.863638,9.630602,-53.245263,0.055708,0.000000,0.000000,-0.028149,0.004268,-0.005545,13.388086,-31.829298,16.156055,30.491962,-88.212399,-9.687000,-53.275915,0.586100,5.142000,0.000000,1.134000,0.000000,0.014000,0.024000,1027.689575,11693.570315,17.203186,993,992,1491,1505,1502
4.935689,30.906921,-43.492655,-11693.570315,-5.939643,9.636459,-53.244384,0.055708,0.000000,0.000000,0.034641,0.004268,0.006162,13.388086,-31.829298,16.156055,30.491962,-88.212399,-9.687000,-53.275915,0.586979,5.142000,0.000000,1.134000,0.000000,0.014000,0.024000,1027.689575,11693.570315,17.203186,993,992,1492,1505,1502
5.077169,30.962481,-43.463930,-11693.570315,-5.923562,9.638865,27.328920,0.031245,0.000000,0.000000,0.008035,0.002139,-0.001288,14.671875,-32.381252,17.398829,30.491963,-88.212399,-10.369000,27.339944,0.576779,5.142000,0.000000,1.134000,0.000000,0.014000,0.024000,1027.689575,11693.570315,17.203186,992,992,1491,1504,1503
5.178293,30.962481,-43.463930,-11693.570315,-5.905221,9.646744,27.328366,0.031245,0.000000,0.000000,0.013356,0.001075,0.002969,14.671875,-32.381252,17.398829,30.491963,-88.212399,-10.369000,27.339944,0.576225,5.142000,0.000000,1.134000,0.000000,0.014000,0.024000,1027.689575,11693.570315,17.203186,993,992,1492,1505,1502
5.278467,30.962481,-43.463930,0.011822,-5.885045,9.653194,27.328871,0.031245,0.000000,0.000000,0.005906,0.001075,0.004033,14.671875,-32.381252,17.398829,30.491963,-88.212399,-10.369000,27.339944,0.576730,5.142000,0.000000,1.134000,0.000000,0.014000,0.024000,1027.683472,-0.011822,17.223326,993,992,1490,1505,1502
5.378976,30.962481,-43.463930,0.011822,-5.901031,9.671961,27.333702,0.031245,0.000000,0.000000,-0.007928,0.001075,0.000841,13.204688,-33.853127,17.753906,30.491963,-88.212399,-10.369000,27.339944,0.581561,5.142000,0.000000,1.134000,0.000000,0.014000,0.024000,1027.683472,-0.011822,17.223326,992,992,1492,1504,1503
5.479873,30.962481,-43.463930,0.011822,-5.895862,9.675678,27.332758,0.031245,0.000000,0.000000,0.002714,0.004268,0.000841,12.837891,-34.221096,18.108984,30.491963,-88.212399,-10.369000,27.339944,0.580617,5.142000,0.000000,1.134000,0.000000,0.014000,0.024000,1027.683472,-0.011822,17.223326,992,992,1491,1506,1502
5.580219,30.962481,-43.463930,0.011822,-5.879175,9.673556,27.330550,0.031245,0.000000,0.000000,0.011228,0.001075,0.004033,12.837891,-34.221096,18.108984,30.491963,-88.212399,-10.369000,27.339944,0.578409,5.142000,0.000000,1.134000,0.000000,0.014000,0.024000,1027.683472,-0.011822,17.223326,993,992,1491,1505,1502
5.681535,30.962481,-43.463930,0.011822,-5.902107,9.681719,27.334550,0.031245,0.000000,0.000000,0.016549,0.011717,0.007226,12.837891,-34.221096,18.108984,30.491963,-88.212399,-10.369000,27.339944,0.582409,5.142000,0.000000,1.134000,0.000000,0.014000,0.024000,1027.683472,-0.011822,17.223326,993,992,1491,1505,1502
5.782226,30.962481,-43.463930,0.011822,-5.922657,9.697097,27.338721,0.031245,0.000000,0.000000,0.003778,-0.003182,-0.003416,12.837891,-34.221096,18.108984,30.491963,-88.212399,-10.369000,27.339944,0.586580,5.142000,0.000000,1.134000,0.000000,0.014000,0.024000,1027.683472,-0.011822,17.223326,993,992,1491,1505,1502
5.883137,30.962481,-43.463930,0.011822,-5.896888,9.693529,27.339454,0.031245,0.000000,0.000000,-0.011121,-0.002118,-0.001288,14.121680,-30.725391,18.641602,30.491963,-88.212399,-10.369000,27.339944,0.587313,5.142000,0.000000,1.134000,0.000000,0.014000,0.024000,1027.683472,-0.011822,17.223326,992,992,1491,1506,1502
5.984016,30.962481,-43.463930,0.011822,-5.930406,9.692212,27.340337,0.031245,0.000000,0.000000,0.001650,0.002139,0.002969,14.121680,-30.725391,18.641602,30.491963,-88.212399,-10.369000,27.339944,0.588196,5.142000,0.000000,1.134000,0.000000,0.014000,0.024000,1027.683472,-0.011822,17.223326,992,992,1491,1506,1502
6.131921,30.962481,-43.463930,0.011822,-5.677865,9.781393,27.349089,0.031245,0.000000,0.000000,0.020806,0.003203,0.004033,14.121680,-30.725391,18.641602,30.491963,-88.212399,-10.369000,27.339944,0.598261,5.142000,0.000000,1.134000,0.000000,0.014000,0.024000,1027.683472,-0.011822,17.223326,992,992,1491,1505,1502
6.232553,30.962481,-43.463930,0.011822,-5.706033,9.782032,27.350326,0.031245,0.000000,0.000000,0.013356,-0.002118,0.001905,15.038672,-32.013283,18.819141,30.491963,-88.212399,-10.369000,27.339944,0.599499,5.142000,0.000000,1.134000,0.000000,0.014000,0.024000,1027.683472,-0.011822,17.223326,992,992,1491,1506,1502
6.332988,30.962481,-43.463930,0.063921,-5.749158,9.764838,27.353991,0.031245,0.000000,0.000000,-0.001543,-0.003182,0.000841,15.038672,-32.013283,18.819141,30.491963,-88.212399,-10.369000,27.339944,0.603163,5.142000,0.000000,1.134000,0.000000,0.014000,0.024000,1027.689819,-0.063921,17.252230,992,992,1491,1505,1502
6.433883,30.962481,-43.463930,0.063921,-5.788686,9.755972,27.356472,0.031245,0.000000,0.000000,-0.006864,0.002139,-0.001288,15.038672,-32.013283,18.819141,30.491963,-88.212399,-10.369000,27.339944,0.605644,5.142000,0.000000,1.134000,0.000000,0.014000,0.024000,1027.689819,-0.063921,17.252230,993,992,1492,1505,1502
6.534925,30.962481,-43.463930,0.063921,-5.803012,9.743808,27.352095,0.031245,0.000000,0.000000,0.016549,-0.002118,-0.000223,15.038672,-32.013283,18.819141,30.491963,-88.212399,-10.369000,27.339944,0.601268,5.142000,0.000000,1.134000,0.000000,0.014000,0.024000,1027.689819,-0.063921,17.252230,992,992,1491,1505,1502
6.636267,30.962481,-43.463930,0.063921,-5.893888,9.745181,27.359445,0.031245,0.000000,0.000000,-0.032406,0.000011,-0.006609,14.855273,-32.565235,21.127150,30.491963,-88.212399,-10.369000,27.339944,0.608617,5.142000,0.000000,1.134000,0.000000,0.014000,0.024000,1027.689819,-0.063921,17.252230,993,992,1491,1505,1502
6.736850,30.962481,-43.463930,0.063921,-5.901267,9.739668,27.354711,0.031245,0.000000,0.000000,0.034641,0.002139,0.007226,14.855273,-32.565235,21.127150,30.491963,-88.212399,-10.369000,27.339944,0.603883,5.142000,0.000000,1.134000,0.000000,0.014000,0.024000,1027.689819,-0.063921,17.252230,992,992,1491,1506,1502
6.836900,30.962481,-43.463930,0.063921,-5.936231,9.747993,27.358589,0.031245,0.000000,0.000000,-0.017506,0.005332,0.000841,11.920898,-31.093361,17.576368,30.491963,-88.212399,-10.369000,27.339944,0.607761,5.142000,0.000000,1.134000,0.000000,0.014000,0.024000,1027.689819,-0.063921,17.252230,993,992,1491,1505,1502
6.938479,30.962481,-43.463930,0.063921,-5.974214,9.748151,27.355906,0.031245,0.000000,0.000000,0.041026,-0.002118,0.004033,11.920898,-31.093361,17.576368,30.491963,-88.212399,-10.369000,27.339944,0.605078,5.142000,0.000000,1.134000,0.000000,0.014000,0.024000,1027.689819,-0.063921,17.252230,992,992,1491,1506,1502
7.080446,30.940257,-43.272425,0.063921,-6.054672,9.748356,96.616333,0.096263,0.000000,0.000000,-0.021763,0.002139,-0.004480,15.038672,-31.645313,19.529297,30.491962,-88.212396,-10.143000,96.619525,0.597061,5.142000,0.000000,1.134000,0.000000,0.014000,0.024000,1027.689819,-0.063921,17.252230,992,992,1491,1505,1502
7.181727,30.940257,-43.272425,0.063921,-6.053020,9.750058,96.617586,0.096263,0.000000,0.000000,0.016549,-0.002118,0.004033,15.038672,-31.645313,19.529297,30.491962,-88.212396,-10.143000,96.619525,0.598314,5.142000,0.000000,1.134000,0.000000,0.014000,0.024000,1027.689819,-0.063921,17.252230,992,992,1491,1506,1502
7.281919,30.940257,-43.272425,0.063921,-6.106150,9.749400,96.623786,0.096263,0.000000,0.000000,-0.004736,-0.002118,-0.002352,15.038672,-31.645313,19.529297,30.491962,-88.212396,-10.143000,96.619525,0.604515,5.142000,0.000000,1.134000,0.000000,0.014000,0.024000,1027.689819,-0.063921,17.252230,992,992,1491,1505,1502
7.383458,30.940257,-43.272425,0.401554,-6.063017,9.747960,96.622016,0.096263,0.000000,0.000000,0.003778,0.004268,-0.000223,14.305079,-30.541409,18.464064,30.491962,-88.212396,-10.143000,96.619525,0.602744,5.142000,0.000000,1.134000,0.000000,0.014000,0.024000,1027.730957,-0.401554,17.259830,993,992,1491,1505,1502
7.484211,30.940257,-43.272425,0.401554,-6.110114,9.747255,96.623281,0.096263,0.000000,0.000000,0.000585,-0.002118,-0.000223,14.305079,-30.541409,18.464064,30.491962,-88.212396,-10.143000,96.619525,0.604009,5.142000,0.000000,1.134000,0.000000,0.014000,0.024000,1027.730957,-0.401554,17.259830,992,992,1492,1504,1503
7.584836,30.940257,-43.272425,0.401554,-6.054815,9.744513,96.621837,0.096263,0.000000,0.000000,0.002714,0.002139,0.004033,14.305079,-30.541409,18.464064,30.491962,-88.212396,-10.143000,96.619525,0.602565,5.142000,0.000000,1.134000,0.000000,0.014000,0.024000,1027.730957,-0.401554,17.259830,993,992,1492,1505,1502
7.685924,30.940257,-43.272425,0.401554,-6.082261,9.743214,96.625484,0.096263,0.000000,0.000000,-0.004736,-0.001054,-0.001288,14.305079,-30.541409,18.464064,30.491962,-88.212396,-10.143000,96.619525,0.606212,5.142000,0.000000,1.134000,0.000000,0.014000,0.024000,1027.730957,-0.401554,17.259830,993,992,1492,1505,1502
7.787484,30.940257,-43.272425,0.401554,-6.104561,9.739977,96.625803,0.096263,0.000000,0.000000,0.010163,-0.006375,-0.000223,14.305079,-30.541409,18.464064,30.491962,-88.212396,-10.143000,96.619525,0.606532,5.142000,0.000000,1.134000,0.000000,0.014000,0.024000,1027.730957,-0.401554,17.259830,992,992,1492,1504,1503
7.888825,30.940257,-43.272425,0.401554,-6.095924,9.738351,96.623699,0.096263,0.000000,0.000000,0.002714,0.002139,-0.000223,13.021289,-32.197266,18.996679,30.491962,-88.212396,-10.143000,96.619525,0.604428,5.142000,0.000000,1.134000,0.000000,0.014000,0.024000,1027.730957,-0.401554,17.259830,993,992,1492,1505,1502
7.990233,30.940257,-43.272425,0.401554,-6.097116,9.743855,96.626775,0.096263,0.000000,0.000000,-0.005800,0.004268,-0.000223,13.021289,-32.197266,18.996679,30.491962,-88.212396,-10.143000,96.619525,0.607503,5.142000,0.000000,1.134000,0.000000,0.014000,0.024000,1027.730957,-0.401554,17.259830,992,992,1492,1504,1503
8.132428,30.940257,-43.272425,0.401554,-6.010205,9.801659,96.631625,0.096263,0.000000,0.000000,0.015484,0.004268,0.004033,13.021289,-32.197266,18.996679,30.491962,-88.212396,-10.143000,96.619525,0.620683,5.142000,0.000000,1.134000,0.000000,0.014000,0.024000,1027.730957,-0.401554,17.259830,993,992,1492,1504,1503
8.233078,30.940257,-43.272425,0.401554,-6.032053,9.789979,96.634180,0.096263,0.000000,0.000000,-0.005800,-0.001054,-0.001288,13.021289,-32.197266,18.996679,30.491962,-88.212396,-10.143000,96.619525,0.623238,5.142000,0.000000,1.134000,0.000000,0.014000,0.024000,1027.730957,-0.401554,17.259830,993,992,1492,1505,1502
8.333564,30.940257,-43.272425,0.165112,-6.007886,9.780757,96.630432,0.096263,0.000000,0.000000,0.010163,0.001075,0.001905,15.588867,-30.357424,18.996679,30.491962,-88.212396,-10.143000,96.619525,0.619490,5.142000,0.000000,1.134000,0.000000,0.014000,0.024000,1027.702148,-0.165112,17.290779,992,992,1491,1505,1503
8.434863,30.940257,-43.272425,0.165112,-6.024999,9.766123,96.630043,0.096263,0.000000,0.000000,0.000585,-0.006375,0.000841,13.204688,-31.645313,18.464064,30.491962,-88.212396,-10.143000,96.619525,0.619101,5.142000,0.000000,1.134000,0.000000,0.014000,0.024000,1027.702148,-0.165112,17.290779,993,992,1491,1505,1502
8.535501,30.940257,-43.272425,0.165112,-5.991990,9.759706,96.628801,0.096263,0.000000,0.000000,0.012292,-0.004246,-0.001288,13.204688,-31.645313,18.464064,30.491962,-88.212396,-10.143000,96.619525,0.617859,5.142000,0.000000,1.134000,0.000000,0.014000,0.024000,1027.702148,-0.165112,17.290779,992,992,1492,1504,1503
8.636466,30.940257,-43.272425,0.165112,-6.078286,9.758431,96.634115,0.096263,0.000000,0.000000,-0.024956,0.007460,-0.002352,13.204688,-31.645313,18.464064,30.491962,-88.212396,-10.143000,96.619525,0.623173,5.142000,0.000000,1.134000,0.000000,0.014000,0.024000,1027.702148,-0.165112,17.290779,992,992,1491,1505,1502
8.736623,30.940257,-43.272425,0.165112,-6.067559,9.761668,96.632287,0.096263,0.000000,0.000000,0.025062,0.001075,0.006162,13.204688,-31.645313,18.464064,30.491962,-88.212396,-10.143000,96.619525,0.621345,5.142000,0.000000,1.134000,0.000000,0.014000,0.024000,1027.702148,-0.165112,17.290779,993,992,1492,1505,1502
8.837909,30.940257,-43.272425,0.165112,-6.016676,9.748553,96.624434,0.096263,0.000000,0.000000,-0.011121,-0.008503,0.001905,13.204688,-31.645313,18.464064,30.491962,-88.212396,-10.143000,96.619525,0.613492,5.142000,0.000000,1.134000,0.000000,0.014000,0.024000,1027.702148,-0.165112,17.290779,992,992,1491,1505,1502
8.938461,30.940257,-43.272425,0.165112,-6.051468,9.737587,96.626265,0.096263,0.000000,0.000000,0.001650,0.002139,-0.003416,14.855273,-32.565235,18.996679,30.491962,-88.212396,-10.143000,96.619525,0.615323,5.142000,0.000000,1.134000,0.000000,0.014000,0.024000,1027.702148,-0.165112,17.290779,992,992,1491,1505,1502
9.079782,31.073601,-43.224549,0.165112,-6.138760,9.678687,19.748633,0.070761,0.000000,0.000000,0.005906,-0.003182,0.001905,14.855273,-32.565235,18.996679,30.491964,-88.212396,-10.243000,19.750312,0.620428,5.142000,0.000000,1.134000,0.000000,0.014000,0.024000,1027.702148,-0.165112,17.290779,993,992,1491,1505,1502
9.180866,31.073601,-43.224549,0.165112,-6.074252,9.686886,19.746285,0.070761,0.000000,0.000000,0.002714,0.008524,0.004033,14.855273,-32.565235,18.996679,30.491964,-88.212396,-10.243000,19.750312,0.618080,5.142000,0.000000,1.134000,0.000000,0.014000,0.024000,1027.702148,-0.165112,17.290779,992,992,1491,1506,1502
9.281694,31.073601,-43.224549,0.165112,-6.086809,9.686978,19.745873,0.070761,0.000000,0.000000,0.012292,-0.001054,0.007226,14.855273,-32.565235,18.996679,30.491964,-88.212396,-10.243000,19.750312,0.617668,5.142000,0.000000,1.134000,0.000000,0.014000,0.024000,1027.702148,-0.165112,17.290779,993,992,1492,1504,1502
9.382683,31.073601,-43.224549,0.131048,-6.056193,9.687273,19.744899,0.070761,0.000000,0.000000,0.001650,0.001075,-0.000223,13.938281,-32.381252,16.688673,30.491964,-88.212396,-10.243000,19.750312,0.616694,5.142000,0.000000,1.134000,0.000000,0.014000,0.024000,1027.697998,-0.131048,17.305634,993,992,1491,1505,1502
9.483645,31.073601,-43.224549,0.131048,-6.060890,9.686065,19.741449,0.070761,0.000000,0.000000,-0.000479,0.000011,0.001905,13.938281,-30.909376,19.529297,30.491964,-88.212396,-10.243000,19.750312,0.613244,5.142000,0.000000,1.134000,0.000000,0.014000,0.024000,1027.697998,-0.131048,17.305634,993,992,1491,1505,1502
9.584114,31.073601,-43.224549,0.131048,-6.026942,9.693866,19.736240,0.070761,0.000000,0.000000,0.013356,-0.003182,0.004033,13.938281,-30.909376,19.529297,30.491964,-88.212396,-10.243000,19.750312,0.608035,5.142000,0.000000,1.134000,0.000000,0.014000,0.024000,1027.697998,-0.131048,17.305634,992,992,1492,1504,1503
9.684903,31.073601,-43.224549,0.131048,-6.017539,9.696450,19.738685,0.070761,0.000000,0.000000,-0.022828,-0.001054,-0.002352,12.287696,-32.933205,17.576368,30.491964,-88.212396,-10.243000,19.750312,0.610480,5.142000,0.000000,1.134000,0.000000,0.014000,0.024000,1027.697998,-0.131048,17.305634,993,992,1492,1505,1502
9.786362,31.073601,-43.224549,0.131048,-6.154417,9.700659,19.740374,0.070761,0.000000,0.000000,0.009099,0.002139,-0.001288,12.287696,-32.933205,17.576368,30.491964,-88.212396,-10.243000,19.750312,0.612169,5.142000,0.000000,1.134000,0.000000,0.014000,0.024000,1027.697998,-0.131048,17.305634,992,992,1491,1505,1503
9.887199,31.073601,-43.224549,0.131048,-6.114465,9.695850,19.742118,0.070761,0.000000,0.000000,0.000585,-0.001054,-0.001288,13.938281,-30.541409,18.108984,30.491964,-88.212396,-10.243000,19.750312,0.613913,5.142000,0.000000,1.134000,0.000000,0.014000,0.024000,1027.697998,-0.131048,17.305634,992,992,1491,1505,1502
9.987968,31.073601,-43.224549,0.131048,-6.112874,9.698038,19.741892,0.070761,0.000000,0.000000,0.008035,-0.003182,0.001905,13.938281,-30.541409,18.108984,30.491964,-88.212396,-10.243000,19.750312,0.613687,5.142000,0.000000,1.134000,0.000000,0.014000,0.024000,1027.697998,-0.131048,17.305634,993,992,1492,1505,1502
10.133622,31.073601,-43.224549,0.131048,-5.979467,9.690213,19.757280,0.070761,0.000000,0.000000,0.017613,-0.001054,0.004033,13.938281,-30.541409,18.108984,30.491964,-88.212396,-10.243000,19.750312,0.621220,5.142000,0.000000,1.134000,0.000000,0.014000,0.024000,1027.697998,-0.131048,17.305634,992,992,1491,1505,1502
10.233958,31.073601,-43.224549,0.131048,-5.926052,9.684060,19.755948,0.070761,0.000000,0.000000,0.012292,-0.003182,0.004033,14.488477,-31.829298,19.706837,30.491964,-88.212396,-10.243000,19.750312,0.619888,5.142000,0.000000,1.134000,0.000000,0.014000,0.024000,1027.697998,-0.131048,17.305634,992,992,1491,1505,1503
10.335062,31.073601,-43.224549,0.131048,-5.949765,9.686741,19.759062,0.070761,0.000000,0.000000,-0.027085,-0.001054,-0.005545,14.488477,-31.829298,19.706837,30.491964,-88.212396,-10.243000,19.750312,0.623002,5.142000,0.000000,1.134000,0.000000,0.014000,0.024000,1027.697998,-0.131048,17.305634,993,992,1490,1505,1502
10.435390,31.073601,-43.224549,0.446638,-6.051454,9.692977,19.760972,0.070761,0.000000,0.000000,0.038897,0.002139,0.004033,14.488477,-31.829298,19.706837,30.491964,-88.212396,-10.243000,19.750312,0.624912,5.142000,0.000000,1.134000,0.000000,0.014000,0.024000,1027.736450,-0.446638,17.327265,992,992,1492,1504,1503
10.536436,31.073601,-43.224549,0.446638,-5.929829,9.693386,19.759335,0.070761,0.000000,0.000000,-0.026020,0.001075,-0.008737,14.855273,-32.197266,18.286524,30.491964,-88.212396,-10.243000,19.750312,0.623275,5.142000,0.000000,1.134000,0.000000,0.014000,0.024000,1027.736450,-0.446638,17.327265,992,992,1491,1506,1502
10.637825,31.073601,-43.224549,0.446638,-6.126702,9.696571,19.763896,0.070761,0.000000,0.000000,0.034641,-0.006375,0.004033,14.855273,-32.197266,18.286524,30.491964,-88.212396,-10.243000,19.750312,0.627836,5.142000,0.000000,1.134000,0.000000,0.014000,0.024000,1027.736450,-0.446638,17.327265,992,992,1491,1505,1503
10.738523,31.073601,-43.224549,0.446638,-5.922345,9.702294,19.759635,0.070761,0.000000,0.000000,-0.021763,0.006396,-0.000223,14.855273,-32.197266,18.286524,30.491964,-88.212396,-10.243000,19.750312,0.623575,5.142000,0.000000,1.134000,0.000000,0.014000,0.024000,1027.736450,-0.446638,17.327265,993,992,1492,1505,1502
10.839457,31.073601,-43.224549,0.446638,-5.999853,9.709549,19.758742,0.070761,0.000000,0.000000,0.030384,-0.002118,0.004033,14.855273,-32.197266,18.286524,30.491964,-88.212396,-10.243000,19.750312,0.622682,5.142000,0.000000,1.134000,0.000000,0.014000,0.024000,1027.736450,-0.446638,17.327265,993,992,1491,1505,1502
10.939767,31.073601,-43.224549,0.446638,-5.965283,9.698488,19.760016,0.070761,0.000000,0.000000,-0.014314,-0.001054,-0.002352,14.121680,-30.725391,20.772070,30.491964,-88.212396,-10.243000,19.750312,0.623956,5.142000,0.000000,1.134000,0.000000,0.014000,0.024000,1027.736450,-0.446638,17.327265,993,992,1491,1505,1502
11.081095,30.995817,-43.243699,0.446638,-5.981990,9.693602,-166.153565,0.040032,0.000000,0.000000,-0.006864,0.002139,0.002969,14.488477,-32.565235,16.866211,30.491963,-88.212396,-10.150000,-166.168812,0.641317,5.142000,0.000000,1.134000,0.000000,0.014000,0.024000,1027.736450,-0.446638,17.327265,993,992,1491,1505,1502
11.182605,30.995817,-43.243699,0.446638,-6.058183,9.689053,-166.151567,0.040032,0.000000,0.000000,0.083595,0.000011,0.009355,14.488477,-32.565235,16.866211,30.491963,-88.212396,-10.150000,-166.168812,0.643314,5.142000,0.000000,1.134000,0.000000,0.014000,0.024000,1027.736450,-0.446638,17.327265,993,992,1491,1505,1502
11.284040,30.995817,-43.243699,0.446638,-5.745158,9.691845,-166.168311,0.040032,0.000000,0.000000,-0.018571,0.003203,-0.001288,12.471094,-29.805470,17.043751,30.491963,-88.212396,-10.150000,-166.168812,0.626571,5.142000,0.000000,1.134000,0.000000,0.014000,0.024000,1027.736450,-0.446638,17.327265,992,992,1491,1505,1502
11.385361,30.995817,-43.243699,0.446638,-5.904436,9.705352,-166.163510,0.040032,0.000000,0.000000,0.000585,0.005332,-0.002352,12.471094,-29.805470,17.043751,30.491963,-88.212396,-10.150000,-166.168812,0.631372,5.142000,0.000000,1.134000,0.000000,0.014000,0.024000,1027.736450,-0.446638,17.327265,992,992,1492,1504,1503
11.486651,30.995817,-43.243699,-0.028254,-5.772288,9.704369,-166.167981,0.040032,0.000000,0.000000,-0.011121,-0.002118,-0.005545,14.121680,-30.725391,18.996679,30.491963,-88.212396,-10.150000,-166.168812,0.626901,5.142000,0.000000,1.134000,0.000000,0.014000,0.024000,1027.678589,0.028254,17.342867,992,992,1491,1505,1503
11.587929,30.995817,-43.243699,-0.028254,-5.893826,9.710211,-166.163186,0.040032,0.000000,0.000000,0.032512,0.001075,0.000841,14.121680,-30.725391,18.996679,30.491963,-88.212396,-10.150000,-166.168812,0.631695,5.142000,0.000000,1.134000,0.000000,0.014000,0.024000,1027.678589,0.028254,17.342867,992,992,1491,1505,1503
11.689356,30.995817,-43.243699,-0.028254,-5.849130,9.713851,-166.161913,0.040032,0.000000,0.000000,0.011228,-0.013824,-0.002352,14.121680,-30.725391,18.996679,30.491963,-88.212396,-10.150000,-166.168812,0.632969,5.142000,0.000000,1.134000,0.000000,0.014000,0.024000,1027.678589,0.028254,17.342867,992,992,1492,1504,1503
11.790242,30.995817,-43.243699,-0.028254,-5.710030,9.700397,-166.174402,0.040032,0.000000,0.000000,0.013356,-0.001054,-0.004480,13.754883,-29.989454,19.706837,30.491963,-88.212396,-10.150000,-166.168812,0.620480,5.142000,0.000000,1.134000,0.000000,0.014000,0.024000,1027.678589,0.028254,17.342867,992,992,1491,1505,1503
11.891284,30.995817,-43.243699,-0.028254,-5.799824,9.713354,-166.172123,0.040032,0.000000,0.000000,0.008035,-0.003182,0.001905,13.754883,-29.989454,19.706837,30.491963,-88.212396,-10.150000,-166.168812,0.622758,5.142000,0.000000,1.134000,0.000000,0.014000,0.024000,1027.678589,0.028254,17.342867,992,992,1491,1506,1502
11.991929,30.995817,-43.243699,-0.028254,-5.839379,9.723019,-166.166935,0.040032,0.000000,0.000000,-0.013250,0.001075,-0.004480,13.754883,-29.989454,19.706837,30.491963,-88.212396,-10.150000,-166.168812,0.627947,5.142000,0.000000,1.134000,0.000000,0.014000,0.024000,1027.678589,0.028254,17.342867,992,992,1491,1505,1503
12.137675,30.995817,-43.243699,-0.028254,-6.037486,9.693217,-166.127557,0.040032,0.000000,0.000000,-0.027085,0.004268,0.001905,13.754883,-29.989454,19.706837,30.491963,-88.212396,-10.150000,-166.168812,0.667868,5.142000,0.000000,1.134000,0.000000,0.014000,0.024000,1027.678589,0.028254,17.342867,993,992,1491,1505,1503
12.238340,30.995817,-43.243699,-0.028254,-6.023179,9.700707,-166.134561,0.040032,0.000000,0.000000,0.046347,0.007460,0.005098,14.855273,-31.461330,18.641602,30.491963,-88.212396,-10.150000,-166.168812,0.660865,5.142000,0.000000,1.134000,0.000000,0.014000,0.024000,1027.678589,0.028254,17.342867,992,992,1492,1504,1503
12.338348,30.995817,-43.243699,-0.028254,-5.955758,9.710904,-166.141132,0.040032,0.000000,0.000000,0.017613,0.003203,0.002969,14.855273,-31.461330,18.641602,30.491963,-88.212396,-10.150000,-166.168812,0.654294,5.142000,0.000000,1.134000,0.000000,0.014000,0.024000,1027.678589,0.028254,17.342867,992,992,1491,1505,1502
12.439428,30.995817,-43.243699,-0.170525,-5.797317,9.695332,-166.163753,0.040032,0.000000,0.000000,-0.011121,0.000011,0.002969,14.855273,-31.461330,18.641602,30.491963,-88.212396,-10.150000,-166.168812,0.631673,5.142000,0.000000,1.134000,0.000000,0.014000,0.024000,1027.661255,0.170525,17.343279,992,992,1491,1505,1502
12.541134,30.995817,-43.243699,-0.170525,-5.959173,9.703119,-166.167410,0.040032,0.000000,0.000000,0.020806,0.007460,0.005098,14.488477,-32.565235,17.931446,30.491963,-88.212396,-10.150000,-166.168812,0.628016,5.142000,0.000000,1.134000,0.000000,0.014000,0.024000,1027.661255,0.170525,17.343279,992,992,1491,1505,1503
12.641235,30.995817,-43.243699,-0.170525,-6.015259,9.731783,-166.163213,0.040032,0.000000,0.000000,-0.034534,-0.004246,-0.012994,13.388086,-31.093361,19.351759,30.491963,-88.212396,-10.150000,-166.168812,0.632213,5.142000,0.000000,1.134000,0.000000,0.014000,0.024000,1027.661255,0.170525,17.343279,993,992,1491,1505,1502
12.742398,30.995817,-43.243699,-0.170525,-5.932764,9.705671,-166.181728,0.040032,0.000000,0.000000,0.043154,-0.001054,-0.003416,13.388086,-31.093361,19.351759,30.491963,-88.212396,-10.150000,-166.168812,0.613698,5.142000,0.000000,1.134000,0.000000,0.014000,0.024000,1027.661255,0.170525,17.343279,992,992,1491,1505,1502
12.843415,30.995817,-43.243699,-0.170525,-5.890294,9.703765,-166.223769,0.040032,0.000000,0.000000,-0.004736,0.000011,-0.000223,13.388086,-31.093361,19.351759,30.491963,-88.212396,-10.150000,-166.168812,0.571657,5.142000,0.000000,1.134000,0.000000,0.014000,0.024000,1027.661255,0.170525,17.343279,992,992,1492,1504,1503
12.944148,30.995817,-43.243699,-0.170525,-5.906292,9.715280,-166.220499,0.040032,0.000000,0.000000,-0.027085,0.001075,-0.007673,13.388086,-31.093361,19.351759,30.491963,-88.212396,-10.150000,-166.168812,0.574927,5.142000,0.000000,1.134000,0.000000,0.014000,0.024000,1027.661255,0.170525,17.343279,992,992,1492,1504,1503
13.081575,30.973593,-43.329876,-0.170525,-5.853467,9.754202,-104.458821,0.044474,0.000000,0.000000,0.028255,-0.003182,0.004033,14.305079,-30.909376,18.108984,30.491963,-88.212397,-10.198000,-104.460775,0.577015,5.142000,0.000000,1.134000,0.000000,0.014000,0.024000,1027.661255,0.170525,17.343279,992,992,1491,1505,1502
13.182553,30.973593,-43.329876,-0.170525,-5.885668,9.751277,-104.456342,0.044474,0.000000,0.000000,-0.019635,0.000011,-0.003416,14.305079,-30.909376,18.108984,30.491963,-88.212397,-10.198000,-104.460775,0.579495,5.142000,0.000000,1.134000,0.000000,0.014000,0.024000,1027.661255,0.170525,17.343279,992,992,1491,1505,1503
13.283284,30.973593,-43.329876,-0.170525,-5.870665,9.754775,-104.459652,0.044474,0.000000,0.000000,0.014420,0.000011,-0.001288,14.305079,-30.909376,18.108984,30.491963,-88.212397,-10.198000,-104.460775,0.576184,5.142000,0.000000,1.134000,0.000000,0.014000,0.024000,1027.661255,0.170525,17.343279,992,992,1491,1505,1503
13.384387,30.973593,-43.329876,-0.170525,-5.817800,9.745473,-104.460896,0.044474,0.000000,0.000000,-0.027085,-0.007439,0.002969,13.938281,-30.541409,19.884375,30.491963,-88.212397,-10.198000,-104.460775,0.574940,5.142000,0.000000,1.134000,0.000000,0.014000,0.024000,1027.661255,0.170525,17.343279,993,992,1491,1505,1502
13.484785,30.973593,-43.329876,0.142068,-5.822934,9.729203,-104.463778,0.044474,0.000000,0.000000,0.020806,0.000011,-0.000223,13.938281,-30.541409,19.884375,30.491963,-88.212397,-10.198000,-104.460775,0.572058,5.142000,0.000000,1.134000,0.000000,0.014000,0.024000,1027.699341,-0.142068,17.350395,992,992,1491,1505,1502
13.585835,30.973593,-43.329876,0.142068,-5.935304,9.752533,-104.452485,0.044474,0.000000,0.000000,-0.006864,-0.003182,-0.000223,13.938281,-32.381252,17.753906,30.491963,-88.212397,-10.198000,-104.460775,0.583351,5.142000,0.000000,1.134000,0.000000,0.014000,0.024000,1027.699341,-0.142068,17.350395,992,992,1492,1505,1502
13.687315,30.973593,-43.329876,0.142068,-5.730900,9.732430,-104.465693,0.044474,0.000000,0.000000,-0.002607,-0.003182,0.002969,13.938281,-32.381252,17.753906,30.491963,-88.212397,-10.198000,-104.460775,0.570143,5.142000,0.000000,1.134000,0.000000,0.014000,0.024000,1027.699341,-0.142068,17.350395,992,992,1491,1505,1503
13.788181,30.973593,-43.329876,0.142068,-5.964717,9.737728,-104.456382,0.044474,0.000000,0.000000,-0.013250,-0.004246,-0.007673,13.938281,-32.381252,17.753906,30.491963,-88.212397,-10.198000,-104.460775,0.579454,5.142000,0.000000,1.134000,0.000000,0.014000,0.024000,1027.699341,-0.142068,17.350395,992,992,1491,1505,1502
13.889749,30.973593,-43.329876,0.142068,-5.809904,9.730689,-104.463644,0.044474,0.000000,0.000000,0.005906,0.004268,0.001905,15.955665,-29.621487,20.061914,30.491963,-88.212397,-10.198000,-104.460775,0.572192,5.142000,0.000000,1.134000,0.000000,0.014000,0.024000,1027.699341,-0.142068,17.350395,992,992,1491,1504,1503
13.991278,30.973593,-43.329876,0.142068,-5.977117,9.740849,-104.452909,0.044474,0.000000,0.000000,0.013356,-0.003182,0.001905,15.955665,-29.621487,20.061914,30.491963,-88.212397,-10.198000,-104.460775,0.582927,5.142000,0.000000,1.134000,0.000000,0.014000,0.024000,1027.699341,-0.142068,17.350395,992,992,1491,1506,1502
14.137230,30.973593,-43.329876,0.142068,-6.477793,9.754734,-104.390200,0.044474,0.000000,0.000000,-0.064332,0.000011,-0.001288,15.955665,-29.621487,20.061914,30.491963,-88.212397,-10.198000,-104.460775,0.652312,5.142000,0.000000,1.134000,0.000000,0.014000,0.024000,1027.699341,-0.142068,17.350395,992,992,1491,1506,1502
14.237931,30.973593,-43.329876,0.142068,-6.531840,9.751819,-104.389903,0.044474,0.000000,0.000000,0.055925,-0.005310,0.008290,15.955665,-29.621487,20.061914,30.491963,-88.212397,-10.198000,-104.460775,0.652610,5.142000,0.000000,1.134000,0.000000,0.014000,0.024000,1027.699341,-0.142068,17.350395,993,992,1491,1505,1502
14.338661,30.973593,-43.329876,0.142068,-6.454418,9.758168,-104.387983,0.044474,0.000000,0.000000,-0.056883,-0.003182,-0.008737,14.855273,-30.725391,19.351759,30.491963,-88.212397,-10.198000,-104.460775,0.654530,5.142000,0.000000,1.134000,0.000000,0.014000,0.024000,1027.699341,-0.142068,17.350395,992,992,1491,1505,1503
14.439576,30.973593,-43.329876,0.142068,-6.567626,9.771165,-104.391246,0.044474,0.000000,0.000000,0.004842,0.001075,0.000841,14.855273,-30.725391,19.351759,30.491963,-88.212397,-10.198000,-104.460775,0.651266,5.142000,0.000000,1.134000,0.000000,0.014000,0.024000,1027.699341,-0.142068,17.350395,992,992,1491,1505,1503
14.540561,30.973593,-43.329876,0.525784,-6.378384,9.766049,-104.395240,0.044474,0.000000,0.000000,-0.017506,-0.006375,-0.001288,14.305079,-32.381252,20.594532,30.491963,-88.212397,-10.198000,-104.460775,0.647272,5.142000,0.000000,1.134000,0.000000,0.014000,0.024000,1027.746094,-0.525784,17.378174,992,992,1491,1506,1502
14.641149,30.973593,-43.329876,0.525784,-6.513034,9.753670,-104.389823,0.044474,0.000000,0.000000,0.034641,-0.001054,0.001905,14.305079,-32.381252,20.594532,30.491963,-88.212397,-10.198000,-104.460775,0.652689,5.142000,0.000000,1.134000,0.000000,0.014000,0.024000,1027.746094,-0.525784,17.378174,992,992,1491,1505,1502
14.741171,30.973593,-43.329876,0.525784,-6.120349,9.729187,-104.404541,0.044474,0.000000,0.000000,-0.065397,0.007460,0.002969,14.305079,-32.381252,20.594532,30.491963,-88.212397,-10.198000,-104.460775,0.637972,5.142000,0.000000,1.134000,0.000000,0.014000,0.024000,1027.746094,-0.525784,17.378174,992,992,1491,1505,1502
14.842073,30.973593,-43.329876,0.525784,-6.573629,9.759371,-104.403655,0.044474,0.000000,0.000000,0.070824,-0.001054,0.013611,14.305079,-32.381252,20.594532,30.491963,-88.212397,-10.198000,-104.460775,0.638858,5.142000,0.000000,1.134000,0.000000,0.014000,0.024000,1027.746094,-0.525784,17.378174,993,992,1491,1505,1502
14.942741,30.973593,-43.329876,0.525784,-6.008012,9.734555,-104.440087,0.044474,0.000000,0.000000,-0.014314,0.005332,-0.004480,15.038672,-30.541409,18.108984,30.491963,-88.212397,-10.198000,-104.460775,0.602425,5.142000,0.000000,1.134000,0.000000,0.014000,0.024000,1027.746094,-0.525784,17.378174,993,992,1492,1504,1502
15.082613,30.951369,-43.262850,0.525784,-6.412938,9.788012,108.357198,0.035271,0.000000,0.000000,-0.018571,0.007460,-0.000223,14.488477,-31.829298,18.996679,30.491962,-88.212396,-10.465000,108.343941,0.628573,5.142000,0.000000,1.134000,0.000000,0.014000,0.024000,1027.746094,-0.525784,17.378174,992,992,1492,1505,1503
15.183783,30.951369,-43.262850,0.525784,-6.239042,9.800070,108.343389,0.035271,0.000000,0.000000,0.048475,-0.021274,-0.001288,14.488477,-31.829298,18.996679,30.491962,-88.212396,-10.465000,108.343941,0.614765,5.142000,0.000000,1.134000,0.000000,0.014000,0.024000,1027.746094,-0.525784,17.378174,992,992,1491,1505,1502
15.284327,30.951369,-43.262850,0.525784,-6.078828,9.764738,108.328493,0.035271,0.000000,0.000000,0.008035,-0.008503,0.001905,14.488477,-31.829298,18.996679,30.491962,-88.212396,-10.465000,108.343941,0.599868,5.142000,0.000000,1.134000,0.000000,0.014000,0.024000,1027.746094,-0.525784,17.378174,992,992,1491,1506,1502
15.385398,30.951369,-43.262850,0.525784,-5.993535,9.729856,108.319400,0.035271,0.000000,0.000000,0.013356,0.013846,-0.000223,13.938281,-30.909376,20.594532,30.491962,-88.212396,-10.465000,108.343941,0.590775,5.142000,0.000000,1.134000,0.000000,0.014000,0.024000,1027.746094,-0.525784,17.378174,992,992,1491,1505,1502
15.486924,30.951369,-43.262850,0.525784,-5.967231,9.741194,108.325500,0.035271,0.000000,0.000000,-0.020699,-0.005310,-0.002352,14.488477,-30.357424,19.351759,30.491962,-88.212396,-10.465000,108.343941,0.596875,5.142000,0.000000,1.134000,0.000000,0.014000,0.024000,1027.746094,-0.525784,17.378174,992,992,1491,1505,1502
15.587421,30.951369,-43.262850,-0.379928,-6.228900,9.752364,108.344140,0.035271,0.000000,0.000000,-0.015378,-0.011696,0.000841,14.488477,-30.357424,19.351759,30.491962,-88.212396,-10.465000,108.343941,0.615516,5.142000,0.000000,1.134000,0.000000,0.014000,0.024000,1027.635742,0.379928,17.356691,992,992,1491,1505,1503
15.688799,30.951369,-43.262850,-0.379928,-6.006343,9.734506,108.344007,0.035271,0.000000,0.000000,0.048475,-0.008503,0.011483,14.488477,-30.357424,19.351759,30.491962,-88.212396,-10.465000,108.343941,0.615383,5.142000,0.000000,1.134000,0.000000,0.014000,0.024000,1027.635742,0.379928,17.356691,992,992,1492,1504,1503
15.790437,30.951369,-43.262850,-0.379928,-5.761613,9.728736,108.334445,0.035271,0.000000,0.000000,-0.019635,-0.006375,0.000841,14.488477,-30.357424,19.351759,30.491962,-88.212396,-10.465000,108.343941,0.605820,5.142000,0.000000,1.134000,0.000000,0.014000,0.024000,1027.635742,0.379928,17.356691,992,992,1492,1504,1503
15.891872,30.951369,-43.262850,-0.379928,-5.976937,9.733167,108.344474,0.035271,0.000000,0.000000,-0.032406,-0.013824,-0.005545,13.938281,-31.277346,19.884375,30.491962,-88.212396,-10.465000,108.343941,0.615849,5.142000,0.000000,1.134000,0.000000,0.014000,0.024000,1027.635742,0.379928,17.356691,992,992,1491,1506,1502
15.993477,30.951369,-43.262850,-0.379928,-5.997905,9.717696,108.344543,0.035271,0.000000,0.000000,0.039962,0.000011,0.006162,13.938281,-31.277346,19.884375,30.491962,-88.212396,-10.465000,108.343941,0.615919,5.142000,0.000000,1.134000,0.000000,0.014000,0.024000,1027.635742,0.379928,17.356691,992,992,1491,1505,1502
16.141228,30.951369,-43.262850,-0.379928,-5.821409,9.589453,108.317907,0.035271,0.000000,0.000000,0.020806,-0.009567,0.000841,13.938281,-31.277346,19.884375,30.491962,-88.212396,-10.465000,108.343941,0.588402,5.142000,0.000000,1.134000,0.000000,0.014000,0.024000,1027.635742,0.379928,17.356691,992,992,1492,1505,1502
16.241755,30.951369,-43.262850,-0.379928,-5.745146,9.583826,108.313219,0.035271,0.000000,0.000000,-0.030277,0.020231,0.017868,14.121680,-32.565235,18.641602,30.491962,-88.212396,-10.465000,108.343941,0.583714,5.142000,0.000000,1.134000,0.000000,0.014000,0.024000,1027.635742,0.379928,17.356691,993,992,1491,1505,1502
16.342739,30.951369,-43.262850,-0.379928,-5.862089,9.590080,108.320900,0.035271,0.000000,0.000000,0.004842,0.009589,-0.002352,14.121680,-32.565235,18.641602,30.491962,-88.212396,-10.465000,108.343941,0.591395,5.142000,0.000000,1.134000,0.000000,0.014000,0.024000,1027.635742,0.379928,17.356691,993,992,1491,1505,1502
16.443415,30.951369,-43.262850,-0.379928,-5.886611,9.611681,108.327534,0.035271,0.000000,0.000000,0.017613,0.002139,0.001905,14.855273,-32.197266,20.772070,30.491962,-88.212396,-10.465000,108.343941,0.598028,5.142000,0.000000,1.134000,0.000000,0.014000,0.024000,1027.635742,0.379928,17.356691,992,992,1491,1505,1502
16.544778,30.951369,-43.262850,-0.206594,-5.808179,9.614185,108.323711,0.035271,0.000000,0.000000,0.012292,-0.007439,0.001905,14.855273,-32.197266,20.772070,30.491962,-88.212396,-10.465000,108.343941,0.594206,5.142000,0.000000,1.134000,0.000000,0.014000,0.024000,1027.656860,0.206594,17.320829,992,992,1491,1505,1502
16.645041,30.951369,-43.262850,-0.206594,-6.008934,9.634644,108.340201,0.035271,0.000000,0.000000,-0.068589,-0.007439,-0.005545,14.855273,-32.197266,20.772070,30.491962,-88.212396,-10.465000,108.343941,0.610696,5.142000,0.000000,1.134000,0.000000,0.014000,0.024000,1027.656860,0.206594,17.320829,993,992,1491,1505,1502
16.745909,30.951369,-43.262850,-0.206594,-6.055473,9.646713,108.348160,0.035271,0.000000,0.000000,0.037833,-0.006375,0.005098,14.855273,-32.197266,20.772070,30.491962,-88.212396,-10.465000,108.343941,0.618655,5.142000,0.000000,1.134000,0.000000,0.014000,0.024000,1027.656860,0.206594,17.320829,993,992,1492,1505,1502
16.846417,30.951369,-43.262850,-0.206594,-6.033207,9.651970,108.351081,0.035271,0.000000,0.000000,-0.029213,0.004268,-0.002352,14.305079,-31.645313,19.174219,30.491962,-88.212396,-10.465000,108.343941,0.621575,5.142000,0.000000,1.134000,0.000000,0.014000,0.024000,1027.656860,0.206594,17.320829,992,992,1492,1504,1503
16.947687,30.951369,-43.262850,-0.206594,-5.899495,9.656948,108.343025,0.035271,0.000000,0.000000,0.015484,0.000011,-0.001288,14.305079,-31.645313,19.174219,30.491962,-88.212396,-10.465000,108.343941,0.613520,5.142000,0.000000,1.134000,0.000000,0.014000,0.024000,1027.656860,0.206594,17.320829,992,992,1491,1505,1502
17.084297,31.084713,-43.138371,-0.206594,-5.932994,9.704945,43.043184,0.091182,0.000000,0.000000,0.012292,0.000011,0.004033,14.305079,-31.645313,19.174219,30.491964,-88.212395,-10.256000,43.030518,0.628554,5.142000,0.000000,1.134000,0.000000,0.014000,0.024000,1027.656860,0.206594,17.320829,992,992,1491,1505,1502
17.185636,31.084713,-43.138371,-0.206594,-5.890587,9.706050,43.042977,0.091182,0.000000,0.000000,-0.006864,-0.006375,0.002969,14.305079,-31.645313,19.174219,30.491964,-88.212395,-10.256000,43.030518,0.628347,5.142000,0.000000,1.134000,0.000000,0.014000,0.024000,1027.656860,0.206594,17.320829,992,992,1492,1504,1503
17.286532,31.084713,-43.138371,-0.206594,-5.911238,9.702579,43.044018,0.091182,0.000000,0.000000,0.012292,0.000011,0.002969,14.855273,-35.141018,18.996679,30.491964,-88.212395,-10.256000,43.030518,0.629388,5.142000,0.000000,1.134000,0.000000,0.014000,0.024000,1027.656860,0.206594,17.320829,992,992,1492,1504,1503
17.388037,31.084713,-43.138371,-0.206594,-6.001840,9.709851,43.049450,0.091182,0.000000,0.000000,0.012292,0.001075,-0.000223,14.855273,-35.141018,18.996679,30.491964,-88.212395,-10.256000,43.030518,0.634820,5.142000,0.000000,1.134000,0.000000,0.014000,0.024000,1027.656860,0.206594,17.320829,993,992,1492,1505,1502
17.489503,31.084713,-43.138371,-0.206594,-5.899878,9.697268,43.045556,0.091182,0.000000,0.000000,0.002714,-0.002118,0.000841,14.855273,-35.141018,18.996679,30.491964,-88.212395,-10.256000,43.030518,0.630926,5.142000,0.000000,1.134000,0.000000,0.014000,0.024000,1027.656860,0.206594,17.320829,992,992,1491,1506,1502
17.590522,31.084713,-43.138371,0.249270,-5.861874,9.675886,43.042128,0.091182,0.000000,0.000000,0.038897,-0.006375,0.006162,14.671875,-40.108597,18.819141,30.491964,-88.212395,-10.256000,43.030518,0.627498,5.142000,0.000000,1.134000,0.000000,0.014000,0.024000,1027.712402,-0.249270,17.310631,993,992,1491,1505,1502
17.691076,31.084713,-43.138371,0.249270,-5.749636,9.559554,43.075636,0.091182,0.000000,0.000000,0.145320,-0.027659,0.021061,14.671875,-40.108597,18.819141,30.491964,-88.212395,-10.256000,43.030518,0.661006,5.142000,0.000000,1.134000,0.000000,0.014000,0.024000,1027.712402,-0.249270,17.310631,992,992,1491,1505,1502
17.792559,31.084713,-43.138371,0.249270,-5.522249,9.537752,43.053066,0.091182,0.000000,0.000000,-0.044112,0.023424,0.010419,14.671875,-40.108597,18.819141,30.491964,-88.212395,-10.256000,43.030518,0.638437,5.142000,0.000000,1.134000,0.000000,0.014000,0.024000,1027.712402,-0.249270,17.310631,992,992,1491,1506,1502
17.893236,31.084713,-43.138371,0.249270,-6.259281,9.436115,43.392391,0.091182,0.000000,0.000000,-0.393178,-0.264981,0.210493,14.671875,-40.108597,18.819141,30.491964,-88.212395,-10.256000,43.030518,0.977762,5.142000,0.000000,1.134000,0.000000,0.014000,0.024000,1027.712402,-0.249270,17.310631,993,992,1490,1506,1502
17.993469,31.084713,-43.138371,0.249270,-7.036993,9.140050,44.434181,0.091182,0.000000,0.000000,0.160219,0.131974,-0.001288,10.086914,-39.188675,19.706837,30.491964,-88.212395,-10.256000,43.030518,2.019551,5.142000,0.000000,1.134000,0.000000,0.014000,0.024000,1027.712402,-0.249270,17.310631,992,992,1491,1505,1503
18.139560,31.084713,-43.138371,0.249270,-7.358067,9.740076,41.703424,0.091182,0.000000,0.000000,0.020806,0.093662,-0.183270,10.086914,-39.188675,19.706837,30.491964,-88.212395,-10.256000,43.030518,0.656994,5.142000,0.000000,1.134000,0.000000,0.014000,0.024000,1027.712402,-0.249270,17.310631,992,992,1492,1505,1502
18.240236,31.084713,-43.138371,0.249270,-7.940685,9.871713,40.649273,0.091182,0.000000,0.000000,-0.212260,-0.105348,-0.239674,10.086914,-39.188675,19.706837,30.491964,-88.212395,-10.256000,43.030518,-0.397157,5.142000,0.000000,1.134000,0.000000,0.014000,0.024000,1027.712402,-0.249270,17.310631,992,992,1492,1505,1502
18.341716,31.084713,-43.138371,0.249270,-9.044359,9.458496,39.794108,0.091182,0.000000,0.000000,-0.085617,-0.088320,-0.050242,19.623632,-42.500393,16.156055,30.491964,-88.212395,-10.256000,43.030518,-1.252322,5.142000,0.000000,1.134000,0.000000,0.014000,0.024000,1027.712402,-0.249270,17.310631,992,992,1491,1506,1502
18.443181,31.084713,-43.138371,0.249270,-9.310016,9.154600,39.728493,0.091182,0.000000,0.000000,0.069760,-0.030852,0.019997,19.623632,-42.500393,16.156055,30.491964,-88.212395,-10.256000,43.030518,-1.317937,5.142000,0.000000,1.134000,0.000000,0.014000,0.024000,1027.712402,-0.249270,17.310631,993,992,1492,1505,1502
18.543376,31.084713,-43.138371,0.249270,-7.815961,7.182170,41.692955,0.091182,0.000000,0.000000,0.254935,0.353333,0.089171,19.623632,-42.500393,16.156055,30.491964,-88.212395,-10.256000,43.030518,0.646525,5.142000,0.000000,1.134000,0.000000,0.014000,0.024000,1027.712402,-0.249270,17.310631,992,992,1492,1504,1503
18.643529,31.084713,-43.138371,0.449643,-6.775558,7.104195,40.170827,0.091182,0.000000,0.000000,0.169797,-0.085127,-0.384408,19.623632,-42.500393,16.156055,30.491964,-88.212395,-10.256000,43.030518,-0.875603,5.142000,0.000000,1.134000,0.000000,0.014000,0.024000,1027.736816,-0.449643,17.353544,992,992,1491,1505,1502
18.743804,31.084713,-43.138371,0.449643,-6.493596,7.600860,39.905256,0.091182,0.000000,0.000000,-0.470866,0.056415,0.087043,19.623632,-42.500393,16.156055,30.491964,-88.212395,-10.256000,43.030518,-1.141174,5.142000,0.000000,1.134000,0.000000,0.014000,0.024000,1027.736816,-0.449643,17.353544,993,992,1491,1505,1502
18.844414,31.084713,-43.138371,0.449643,-8.983397,7.666986,40.266977,0.091182,0.000000,0.000000,-0.212260,-0.058522,0.007226,19.990431,-45.076176,18.641602,30.491964,-88.212395,-10.256000,43.030518,-0.779452,5.142000,0.000000,1.134000,0.000000,0.014000,0.024000,1027.736816,-0.449643,17.353544,992,992,1491,1505,1503
18.945966,31.084713,-43.138371,0.449643,-8.661215,7.679027,40.206510,0.091182,0.000000,0.000000,0.376256,0.010653,0.027446,19.990431,-45.076176,18.641602,30.491964,-88.212395,-10.256000,43.030518,-0.839920,5.142000,0.000000,1.134000,0.000000,0.014000,0.024000,1027.736816,-0.449643,17.353544,992,992,1491,1505,1502
19.087690,31.251393,-43.052194,0.449643,-7.236806,7.535597,27.327694,0.093748,0.000000,0.000000,-0.073910,0.000011,-0.010866,19.990431,-45.076176,18.641602,30.491965,-88.212394,-9.793000,27.339944,-0.926023,5.142000,0.000000,1.134000,0.000000,0.014000,0.024000,1027.736816,-0.449643,17.353544,992,992,1491,1505,1502
19.188335,31.251393,-43.052194,0.449643,-7.815532,7.572684,27.374426,0.093748,0.000000,0.000000,0.053797,0.020231,0.019997,19.990431,-45.076176,18.641602,30.491965,-88.212394,-9.793000,27.339944,-0.879291,5.142000,0.000000,1.134000,0.000000,0.014000,0.024000,1027.736816,-0.449643,17.353544,992,992,1490,1506,1502
19.289854,31.251393,-43.052194,0.449643,-6.633377,7.514423,26.842461,0.093748,0.000000,0.000000,-0.017506,-0.040430,-0.601510,19.440235,-44.524220,17.753906,30.491965,-88.212394,-9.793000,27.339944,-1.411256,5.142000,0.000000,1.134000,0.000000,0.014000,0.024000,1027.736816,-0.449643,17.353544,993,992,1491,1505,1502
19.390216,31.251393,-43.052194,0.449643,-8.755898,7.436527,25.936445,0.093748,0.000000,0.000000,-0.376150,0.059607,0.000841,20.540625,-40.108597,18.108984,30.491965,-88.212394,-9.793000,27.339944,-2.317272,5.142000,0.000000,1.134000,0.000000,0.014000,0.024000,1027.736816,-0.449643,17.353544,992,992,1491,1505,1502
19.490284,31.251393,-43.052194,0.449643,-10.400050,7.520158,26.000204,0.093748,0.000000,0.000000,-0.562389,-0.053201,-0.043857,20.540625,-40.108597,18.108984,30.491965,-88.212394,-9.793000,27.339944,-2.253513,5.142000,0.000000,1.134000,0.000000,0.014000,0.024000,1027.736816,-0.449643,17.353544,992,992,1491,1505,1503
19.591131,31.251393,-43.052194,0.296358,-12.991568,7.189661,25.755781,0.093748,0.000000,0.000000,0.340073,0.045772,0.022125,20.540625,-40.108597,18.108984,30.491965,-88.212394,-9.793000,27.339944,-2.497936,5.142000,0.000000,1.134000,0.000000,0.014000,0.024000,1027.718140,-0.296358,17.364355,992,992,1491,1505,1502
