Time (sec) ,Sense X(m) ,Sense Y(m) ,Sense Z(m) ,Sense Roll (deg) ,Sense Pitch (deg) ,Sense Compass (deg) ,Sense U(m/s) ,Sense V(m/s) ,Sense W(m/s) ,Sense P(rad/s) ,Sense Q(rad/s) ,Sense R(rad/s) ,Sense Mx(Gauss) ,Sense My(Gauss) ,Sense Mz(Gauss) ,Sense GPS Latitude (deg) ,Sense GPS Longitude (deg) ,Sense GPS Altitude (m) ,Sense GPS Heading (deg) ,Sense IMU Heading (deg) ,Sense Analog 1 (V) ,Sense Analog 2 (V) ,Sense Analog 3 (V) ,Sense Analog 4 (V) ,Sense Analog 5 (V) ,Sense Analog 6 (V) ,Sense Pressure (Pa) ,Sense Pressure Altitude (m) ,Sense Temperature (C) ,RC Channel #1 ,RC Channel #2 ,RC Channel #3 ,RC Channel #4 ,RC Channel #5 ,PWM Hardware Out 1 ,PWM Hardware Out 2 ,PWM Hardware Out 3 ,PWM Hardware Out 4 ,PWM Hardware Out 5 
 0.000000,0.000000,0.000000,-0.000000,0.000000,0.000000,0.000000,0.000000,0.000000,0.000000,-0.000298,0.001309,-0.006300,39.063869,-7.911328,3.728320,30.491684,-88.211945,0.000000,0.000000,-0.000000,5.118000,0.033000,0.134000,0.040000,0.016000,0.026000,-99.000000,0.000000,25.500000,996,1498,1503,1509,2017,992,992,992,992,992
0.127687,0.000000,0.000000,-0.000000,-0.135929,-0.022285,0.008354,0.000000,0.000000,0.000000,-0.001362,0.002373,0.001149,39.063869,-7.911328,3.728320,30.491684,-88.211945,0.000000,0.000000,0.008354,5.121000,0.033000,0.134000,0.040000,0.016000,0.020000,-99.000000,0.000000,25.500000,995,1498,1503,1509,2017,992,992,992,992,992
0.227796,0.000000,0.000000,-0.000000,-0.238985,-0.043353,0.005264,0.000000,0.000000,0.000000,-0.000298,-0.000819,0.000085,38.880470,-8.831250,2.485547,30.491684,-88.211945,0.000000,0.000000,0.005264,5.124000,0.044000,0.134000,0.040000,0.020000,0.020000,1010.460632,0.000000,30.708721,993,1498,1503,1509,2017,993,1498,1503,1509,2000
0.329332,0.000000,0.000000,-0.000000,-0.332054,-0.055555,0.003468,0.000000,0.000000,0.000000,-0.001362,-0.000819,0.000085,38.880470,-8.831250,2.485547,30.491684,-88.211945,0.000000,0.000000,0.003468,5.118000,0.033000,0.136000,0.040000,0.022000,0.024000,1010.460632,0.000000,30.708721,995,1498,1504,1509,2016,995,1498,1504,1509,2000
0.430857,0.000000,0.000000,-0.000000,-0.427101,-0.071457,0.002973,0.000000,0.000000,0.000000,0.002895,0.000245,-0.000979,37.229885,-7.175391,4.793555,30.491684,-88.211945,0.000000,0.000000,0.002973,5.112000,0.033000,0.134000,0.040000,0.022000,0.028000,1010.460632,0.000000,30.708721,995,1498,1503,1509,2017,995,1498,1503,1509,2000
0.531795,0.000000,0.000000,-0.000000,-0.505079,-0.084308,0.003707,0.000000,0.000000,0.000000,-0.000298,-0.000819,0.002214,37.229885,-7.175391,4.793555,30.491684,-88.211945,0.000000,0.000000,0.003707,5.118000,0.033000,0.136000,0.040000,0.022000,0.022000,1010.460632,0.000000,30.708721,995,1498,1504,1508,2017,995,1498,1504,1508,2000
0.632178,0.000000,0.000000,-0.000000,-0.571990,-0.092965,0.003907,0.000000,0.000000,0.000000,0.000766,-0.000819,0.001149,37.229885,-7.175391,4.793555,30.491684,-88.211945,0.000000,0.000000,0.003907,5.118000,0.033000,0.134000,0.040000,0.018000,0.018000,1010.460632,0.000000,30.708721,995,1498,1504,1509,2016,995,1498,1504,1509,2000
0.732894,0.000000,0.000000,-0.000000,-0.632881,-0.100431,0.000304,0.000000,0.000000,0.000000,-0.000298,0.000245,0.001149,37.963478,-7.175391,4.793555,30.491684,-88.211945,0.000000,0.000000,0.000304,5.118000,0.033000,0.136000,0.040000,0.014000,0.022000,1010.460632,0.000000,30.708721,995,1498,1504,1509,2016,995,1498,1504,1509,2000
0.833614,0.000000,0.000000,-0.000000,-0.696562,-0.106173,0.000531,0.000000,0.000000,0.000000,-0.001362,-0.002948,0.000085,37.963478,-7.175391,4.793555,30.491684,-88.211945,0.000000,0.000000,0.000531,5.112000,0.044000,0.136000,0.040000,0.018000,0.024000,1010.460632,0.000000,30.708721,995,1498,1503,1509,2017,995,1498,1503,1509,2000
0.934854,0.000000,0.000000,-0.000000,-0.748683,-0.119669,0.000829,0.000000,0.000000,0.000000,0.001830,-0.005076,0.001149,37.413280,-6.991406,5.326172,30.491684,-88.211945,0.000000,0.000000,0.000829,5.115000,0.033000,0.138000,0.040000,0.018000,0.024000,1010.460632,0.000000,30.708721,995,1497,1503,1509,2017,995,1497,1503,1509,2000
1.036095,-3388235.921628,8446506.900491,-0.000000,-0.805901,-0.098626,0.000482,0.000000,0.000000,0.000000,-0.000298,0.000245,-0.004172,37.413280,-6.991406,5.326172,0.000000,0.000000,0.000000,0.000000,0.001002,5.115000,0.044000,0.136000,0.040000,0.018000,0.024000,1010.460632,0.000000,30.708721,995,1497,1504,1509,2016,995,1497,1504,1509,2000
1.136456,-3388235.921628,8446506.900491,-0.000000,-0.848894,-0.113135,0.002518,0.000000,0.000000,0.000000,-0.000298,-0.000819,-0.003108,37.413280,-6.991406,5.326172,0.000000,0.000000,0.000000,0.000000,0.003038,5.109000,0.044000,0.138000,0.040000,0.016000,0.024000,1010.460632,0.000000,30.708721,995,1498,1504,1508,2017,995,1498,1504,1508,2000
1.237298,-3388235.921628,8446506.900491,-5476.927195,-0.892159,-0.121382,0.001917,0.000000,0.000000,0.000000,-0.003491,0.000245,0.000085,37.229885,-8.647266,4.438477,0.000000,0.000000,0.000000,0.000000,0.002437,5.115000,0.033000,0.136000,0.040000,0.020000,0.024000,1010.594910,5476.927195,30.761494,995,1498,1504,1509,2016,995,1498,1504,1509,2000
1.338205,-3388235.921628,8446506.900491,-5476.927195,-0.921192,-0.128882,0.001083,0.000000,0.000000,0.000000,-0.000298,-0.004012,-0.002043,37.229885,-8.647266,4.438477,0.000000,0.000000,0.000000,0.000000,0.001603,5.112000,0.033000,0.134000,0.040000,0.016000,0.024000,1010.594910,5476.927195,30.761494,995,1498,1504,1509,2016,995,1497,1504,1509,2000
1.439089,-3388235.921628,8446506.900491,-5476.927195,-0.960424,-0.132840,-0.002730,0.000000,0.000000,0.000000,-0.001362,-0.001884,-0.000979,38.330273,-8.279297,4.083398,0.000000,0.000000,0.000000,0.000000,-0.002210,5.112000,0.033000,0.134000,0.040000,0.018000,0.024000,1010.594910,5476.927195,30.761494,995,1498,1504,1509,2016,995,1498,1504,1509,2000
1.539904,-3388235.921628,8446506.900491,-5476.927195,-0.992795,-0.137285,-0.004328,0.000000,0.000000,0.000000,0.000766,0.000245,-0.002043,37.780079,-8.095313,2.130469,0.000000,0.000000,0.000000,0.000000,-0.003808,5.109000,0.033000,0.134000,0.040000,0.018000,0.022000,1010.594910,5476.927195,30.761494,995,1497,1504,1509,2016,995,1497,1504,1509,2000
1.640339,-3388235.921628,8446506.900491,-5476.927195,-1.019155,-0.149454,-0.007485,0.000000,0.000000,0.000000,0.000766,0.001309,0.000085,37.780079,-8.095313,2.130469,0.000000,0.000000,0.000000,0.000000,-0.006965,5.109000,0.033000,0.134000,0.040000,0.022000,0.024000,1010.594910,5476.927195,30.761494,995,1498,1504,1509,2016,995,1498,1504,1509,2000
1.741392,-3388235.921628,8446506.900491,-5476.927195,-1.037066,-0.150540,-0.010394,0.000000,0.000000,0.000000,-0.001362,-0.000819,0.000085,37.780079,-8.095313,2.130469,0.000000,0.000000,0.000000,0.000000,-0.009874,5.109000,0.033000,0.134000,0.040000,0.024000,0.024000,1010.594910,5476.927195,30.761494,995,1498,1504,1508,2017,995,1498,1504,1508,2000
1.842630,-3388235.921628,8446506.900491,-5476.927195,-1.064761,-0.150699,-0.012949,0.000000,0.000000,0.000000,-0.000298,-0.000819,0.002214,38.146877,-5.519532,4.260938,0.000000,0.000000,0.000000,0.000000,-0.012430,5.112000,0.033000,0.134000,0.040000,0.020000,0.024000,1010.594910,5476.927195,30.761494,995,1498,1504,1508,2017,995,1498,1504,1508,2000
1.944259,-3388235.921628,8446506.900491,-5476.927195,-1.088080,-0.154902,-0.017704,0.000000,0.000000,0.000000,-0.003491,0.000245,-0.000979,38.146877,-5.519532,4.260938,0.000000,0.000000,0.000000,0.000000,-0.017184,5.112000,0.033000,0.134000,0.040000,0.016000,0.020000,1010.594910,5476.927195,30.761494,995,1498,1504,1508,2017,995,1498,1504,1508,2000
2.090503,-3388235.921628,8446506.900491,-5476.927195,-1.104361,-0.125535,0.006493,0.000000,0.000000,0.000000,-0.000298,0.000245,0.001149,38.146877,-5.519532,4.260938,0.000000,0.000000,0.000000,0.000000,-0.010223,5.109000,0.033000,0.134000,0.040000,0.020000,0.024000,1010.594910,5476.927195,30.761494,995,1498,1504,1508,2017,995,1497,1504,1509,2000
2.195324,-3388235.921628,8446506.900491,-8361.847717,-1.124871,-0.133377,0.005365,0.000000,0.000000,0.000000,-0.003491,0.000245,-0.002043,38.146877,-5.519532,4.260938,0.000000,0.000000,0.000000,0.000000,-0.011351,5.112000,0.033000,0.134000,0.040000,0.020000,0.024000,1010.598022,8361.847717,30.796053,995,1498,1504,1509,2016,995,1498,1504,1509,2000
2.296436,-3388235.921628,8446506.900491,-8361.847717,-1.138147,-0.148343,0.001795,0.000000,0.000000,0.000000,-0.000298,-0.001884,-0.003108,37.046486,-6.623438,3.905859,0.000000,0.000000,0.000000,0.000000,-0.014922,5.109000,0.044000,0.134000,0.040000,0.022000,0.024000,1010.598022,8361.847717,30.796053,995,1498,1504,1509,2016,995,1498,1504,1509,2000
2.396832,-3388235.921628,8446506.900491,-8361.847717,-1.153347,-0.162074,0.004021,0.000000,0.000000,0.000000,-0.000298,0.000245,0.002214,37.046486,-6.623438,3.905859,0.000000,0.000000,0.000000,0.000000,-0.012695,5.109000,0.044000,0.134000,0.040000,0.014000,0.022000,1010.598022,8361.847717,30.796053,995,1497,1504,1508,2017,995,1497,1504,1508,2000
2.498448,-3388235.921628,8446506.900491,-8361.847717,-1.160698,-0.163312,0.004529,0.000000,0.000000,0.000000,-0.001362,0.003437,-0.003108,37.963478,-7.175391,3.373242,0.000000,0.000000,0.000000,0.000000,-0.012188,5.109000,0.033000,0.134000,0.040000,0.016000,0.022000,1010.598022,8361.847717,30.796053,996,1497,1503,1509,2017,996,1497,1503,1509,2000
2.599808,-3388235.921628,8446506.900491,-8361.847717,-1.173109,-0.165365,0.004149,0.000000,0.000000,0.000000,-0.002426,-0.000819,0.001149,37.963478,-7.175391,3.373242,0.000000,0.000000,0.000000,0.000000,-0.012568,5.109000,0.033000,0.134000,0.040000,0.014000,0.024000,1010.598022,8361.847717,30.796053,995,1497,1504,1508,2017,995,1497,1504,1508,2000
2.699826,-3388235.921628,8446506.900491,-8361.847717,-1.182293,-0.171129,0.005212,0.000000,0.000000,0.000000,0.002895,-0.000819,-0.004172,37.963478,-7.175391,3.373242,0.000000,0.000000,0.000000,0.000000,-0.011504,5.112000,0.033000,0.134000,0.040000,0.018000,0.020000,1010.598022,8361.847717,30.796053,995,1498,1503,1509,2016,995,1498,1503,1509,2000
2.801495,-3388235.921628,8446506.900491,-8361.847717,-1.191650,-0.174839,0.005703,0.000000,0.000000,0.000000,-0.002426,0.002373,0.002214,37.963478,-7.175391,3.373242,0.000000,0.000000,0.000000,0.000000,-0.011013,5.109000,0.033000,0.134000,0.040000,0.018000,0.024000,1010.598022,8361.847717,30.796053,995,1498,1503,1509,2016,995,1498,1503,1509,2000
2.908097,-3388235.921628,8446506.900491,-8361.847717,-1.204491,-0.174369,0.007261,0.000000,0.000000,0.000000,0.002895,-0.000819,0.001149,37.963478,-7.175391,4.438477,0.000000,0.000000,0.000000,0.000000,-0.009455,5.109000,0.033000,0.136000,0.040000,0.020000,0.022000,1010.598022,8361.847717,30.796053,994,1498,1503,1509,2017,995,1498,1504,1508,2000
3.008214,-3388235.921628,8446506.900491,-8361.847717,-1.217158,-0.181817,0.000000,0.000000,0.000000,0.000000,-0.001362,-0.002948,0.000085,37.963478,-7.175391,4.438477,0.000000,0.000000,0.000000,0.000000,-0.008755,5.109000,0.033000,0.134000,0.040000,0.016000,0.020000,1010.598022,8361.847717,30.796053,996,1498,1503,1509,2016,996,1498,1503,1509,2000
3.109731,-3388235.921628,8446506.900491,-8361.847717,-1.235818,-0.196340,-0.016309,0.000000,0.000000,0.000000,0.000766,-0.000819,0.003278,37.963478,-7.175391,4.438477,0.000000,0.000000,0.000000,0.000000,-0.025064,5.112000,0.033000,0.134000,0.040000,0.016000,0.020000,1010.598022,8361.847717,30.796053,995,1498,1504,1509,2016,995,1498,1504,1509,2000
3.216122,-3388235.921628,8446506.900491,-10277.881139,-1.240472,-0.195386,-0.014232,0.000000,0.000000,0.000000,0.000766,-0.001884,0.004342,37.229885,-6.807422,4.083398,0.000000,0.000000,0.000000,0.000000,-0.022987,5.100000,0.033000,0.136000,0.040000,0.020000,0.024000,1010.592346,10277.881139,30.829872,994,1498,1503,1509,2017,994,1498,1503,1509,2000
3.316894,-3388235.921628,8446506.900491,-10277.881139,-1.240318,-0.203865,-0.011575,0.000000,0.000000,0.000000,-0.002426,0.001309,0.000085,37.229885,-6.807422,4.083398,0.000000,0.000000,0.000000,0.000000,-0.020330,5.109000,0.033000,0.134000,0.040000,0.018000,0.024000,1010.592346,10277.881139,30.829872,995,1498,1503,1509,2017,995,1498,1503,1509,2000
3.417875,-3388235.921628,8446506.900491,-10277.881139,-1.248294,-0.202554,-0.011471,0.000000,0.000000,0.000000,0.000766,0.001309,0.002214,37.413280,-8.095313,4.260938,0.000000,0.000000,0.000000,0.000000,-0.020226,5.121000,0.033000,0.134000,0.040000,0.018000,0.024000,1010.592346,10277.881139,30.829872,995,1497,1504,1508,2017,995,1497,1504,1508,2000
3.519410,-3388235.921628,8446506.900491,-10277.881139,-1.248481,-0.199763,-0.011039,0.000000,0.000000,0.000000,-0.002426,0.001309,0.002214,37.413280,-8.095313,4.260938,0.000000,0.000000,0.000000,0.000000,-0.019794,5.121000,0.033000,0.134000,0.040000,0.016000,0.024000,1010.592346,10277.881139,30.829872,995,1499,1503,1509,2016,995,1499,1503,1509,2000
3.620209,-3388235.921628,8446506.900491,-10277.881139,-1.251523,-0.203496,-0.012183,0.000000,0.000000,0.000000,0.001830,0.002373,0.005406,37.413280,-8.095313,4.260938,0.000000,0.000000,0.000000,0.000000,-0.020937,5.121000,0.033000,0.134000,0.040000,0.016000,0.024000,1010.592346,10277.881139,30.829872,995,1498,1504,1509,2016,995,1498,1504,1509,2000
3.721211,-3388235.921628,8446506.900491,-10277.881139,-1.252754,-0.200439,-0.011018,0.000000,0.000000,0.000000,0.000766,0.001309,0.002214,37.413280,-8.095313,4.260938,0.000000,0.000000,0.000000,0.000000,-0.019773,5.118000,0.033000,0.134000,0.040000,0.020000,0.020000,1010.592346,10277.881139,30.829872,994,1499,1503,1509,2016,994,1499,1503,1509,2000
3.822229,-3388235.921628,8446506.900491,-10277.881139,-1.258905,-0.197397,-0.012226,0.000000,0.000000,0.000000,-0.001362,0.003437,0.000085,37.046486,-7.359375,2.485547,0.000000,0.000000,0.000000,0.000000,-0.020981,5.124000,0.033000,0.134000,0.040000,0.016000,0.024000,1010.592346,10277.881139,30.829872,995,1498,1503,1509,2017,995,1498,1503,1509,2000
3.922617,-3388235.921628,8446506.900491,-10277.881139,-1.262482,-0.204517,-0.013124,0.000000,0.000000,0.000000,-0.002426,-0.002948,-0.004172,37.046486,-7.359375,2.485547,0.000000,0.000000,0.000000,0.000000,-0.021879,5.124000,0.033000,0.134000,0.040000,0.018000,0.022000,1010.592346,10277.881139,30.829872,995,1497,1504,1509,2016,995,1497,1504,1509,2000
4.083193,-3388235.921628,8446506.900491,-10277.881139,-1.259768,-0.246840,0.013056,0.000000,0.000000,0.000000,0.000766,-0.002948,0.003278,37.596680,-5.703516,4.793555,0.000000,0.000000,0.000000,0.000000,-0.005641,5.121000,0.033000,0.134000,0.040000,0.016000,0.024000,1010.592346,10277.881139,30.829872,996,1497,1504,1509,2016,995,1497,1504,1509,2000
4.184879,-3388235.921628,8446506.900491,-10277.881139,-1.255181,-0.238631,0.015453,0.000000,0.000000,0.000000,-0.000298,0.001309,0.004342,37.596680,-5.703516,4.793555,0.000000,0.000000,0.000000,0.000000,-0.003244,5.121000,0.033000,0.134000,0.040000,0.020000,0.022000,1010.592346,10277.881139,30.829872,995,1498,1503,1509,2017,995,1498,1503,1509,2000
4.285093,-3388235.921628,8446506.900491,-11693.694589,-1.252142,-0.239077,0.013790,0.000000,0.000000,0.000000,0.005023,0.002373,0.000085,37.780079,-7.359375,3.195703,0.000000,0.000000,0.000000,0.000000,-0.004906,5.118000,0.033000,0.134000,0.040000,0.016000,0.024000,1010.545471,11693.694589,30.852711,995,1498,1503,1509,2017,995,1498,1503,1509,2000
4.385368,-3388235.921628,8446506.900491,-11693.694589,-1.256845,-0.235487,0.013223,0.000000,0.000000,0.000000,-0.002426,0.000245,-0.000979,37.780079,-7.359375,3.195703,0.000000,0.000000,0.000000,0.000000,-0.005474,5.121000,0.033000,0.134000,0.040000,0.016000,0.020000,1010.545471,11693.694589,30.852711,995,1498,1503,1509,2017,995,1498,1503,1509,2000
4.485539,-3388235.921628,8446506.900491,-11693.694589,-1.255112,-0.237086,0.011715,0.000000,0.000000,0.000000,-0.000298,-0.002948,-0.000979,37.780079,-7.359375,3.195703,0.000000,0.000000,0.000000,0.000000,-0.006981,5.121000,0.033000,0.134000,0.040000,0.016000,0.026000,1010.545471,11693.694589,30.852711,995,1497,1504,1509,2016,995,1497,1504,1509,2000
4.587015,-3388235.921628,8446506.900491,-11693.694589,-1.260504,-0.235200,0.013385,0.000000,0.000000,0.000000,0.003959,-0.005076,-0.002043,37.780079,-7.359375,3.195703,0.000000,0.000000,0.000000,0.000000,-0.005311,5.121000,0.033000,0.134000,0.040000,0.018000,0.024000,1010.545471,11693.694589,30.852711,996,1498,1503,1509,2017,996,1498,1503,1509,2000
4.687971,-3388235.921628,8446506.900491,-11693.694589,-1.254525,-0.235847,0.014685,0.000000,0.000000,0.000000,0.003959,-0.005076,0.001149,37.046486,-6.623438,5.326172,0.000000,0.000000,0.000000,0.000000,-0.004012,5.124000,0.033000,0.134000,0.040000,0.020000,0.018000,1010.545471,11693.694589,30.852711,995,1498,1503,1509,2016,995,1498,1503,1509,2000
4.788261,-3388235.921628,8446506.900491,-11693.694589,-1.258760,-0.234062,0.017181,0.000000,0.000000,0.000000,-0.001362,-0.001884,-0.000979,37.046486,-6.623438,5.326172,0.000000,0.000000,0.000000,0.000000,-0.001515,5.118000,0.033000,0.134000,0.040000,0.020000,0.022000,1010.545471,11693.694589,30.852711,995,1497,1504,1508,2017,995,1497,1504,1508,2000
4.889938,-3388235.921628,8446506.900491,-11693.694589,-1.257023,-0.233344,0.019882,0.000000,0.000000,0.000000,0.001830,0.001309,0.000085,37.780079,-7.727344,2.130469,0.000000,0.000000,0.000000,0.000000,0.001185,5.118000,0.033000,0.134000,0.040000,0.020000,0.022000,1010.545471,11693.694589,30.852711,996,1497,1504,1509,2016,996,1497,1504,1509,2000
4.990061,-3388235.921628,8446506.900491,-11693.694589,-1.260019,-0.235415,0.021404,0.000000,0.000000,0.000000,0.000766,-0.001884,0.000085,37.780079,-7.727344,2.130469,0.000000,0.000000,0.000000,0.000000,0.002707,5.124000,0.033000,0.134000,0.040000,0.018000,0.020000,1010.545471,11693.694589,30.852711,995,1498,1503,1509,2016,995,1498,1503,1509,2000
5.091564,-3388235.921628,8446506.900491,-11693.694589,-1.256733,-0.216433,-0.008090,0.000000,0.000000,0.000000,0.003959,-0.001884,-0.000979,37.780079,-7.727344,2.130469,0.000000,0.000000,0.000000,0.000000,-0.005484,5.124000,0.033000,0.134000,0.040000,0.016000,0.024000,1010.545471,11693.694589,30.852711,995,1498,1504,1508,2017,995,1498,1504,1508,2000
5.191809,-3388235.921628,8446506.900491,-11693.694589,-1.264558,-0.209682,-0.007536,0.000000,0.000000,0.000000,-0.000298,-0.001884,0.002214,37.780079,-7.727344,2.130469,0.000000,0.000000,0.000000,0.000000,-0.004930,5.112000,0.033000,0.134000,0.040000,0.020000,0.026000,1010.545471,11693.694589,30.852711,995,1498,1503,1509,2017,995,1498,1503,1509,2000
5.293432,-3388235.921628,8446506.900491,0.009781,-1.267870,-0.206569,-0.005717,0.000000,0.000000,0.000000,0.001830,-0.001884,-0.002043,38.146877,-7.727344,2.130469,0.000000,0.000000,0.000000,0.000000,-0.003112,5.121000,0.033000,0.134000,0.040000,0.020000,0.024000,1010.559448,-0.009781,30.879498,995,1497,1504,1509,2016,995,1497,1504,1509,2000
5.395160,-3388235.921628,8446506.900491,0.009781,-1.268425,-0.197616,-0.005537,0.000000,0.000000,0.000000,0.001830,0.002373,0.001149,38.146877,-7.727344,2.130469,0.000000,0.000000,0.000000,0.000000,-0.002931,5.124000,0.033000,0.134000,0.040000,0.018000,0.024000,1010.559448,-0.009781,30.879498,995,1497,1504,1508,2017,995,1497,1504,1508,2000
5.495263,-3388235.921628,8446506.900491,0.009781,-1.260050,-0.195208,-0.001188,0.000000,0.000000,0.000000,0.000766,-0.000819,-0.000979,38.330273,-7.175391,3.373242,0.000000,0.000000,0.000000,0.000000,0.001418,5.121000,0.044000,0.134000,0.040000,0.018000,0.026000,1010.559448,-0.009781,30.879498,995,1498,1503,1509,2017,995,1498,1503,1509,2000
5.596441,-3388235.921628,8446506.900491,0.009781,-1.249913,-0.189117,0.002076,0.000000,0.000000,0.000000,0.001830,0.002373,0.001149,38.330273,-7.175391,3.373242,0.000000,0.000000,0.000000,0.000000,0.004681,5.118000,0.033000,0.134000,0.040000,0.016000,0.024000,1010.559448,-0.009781,30.879498,995,1498,1504,1508,2017,995,1498,1503,1509,2000
5.696513,-3388235.921628,8446506.900491,0.009781,-1.247422,-0.192510,0.001758,0.000000,0.000000,0.000000,0.001830,0.000245,0.005406,38.330273,-7.175391,3.373242,0.000000,0.000000,0.000000,0.000000,0.004364,5.124000,0.033000,0.134000,0.040000,0.018000,0.022000,1010.559448,-0.009781,30.879498,995,1498,1504,1508,2017,995,1498,1504,1508,2000
5.798040,-3388235.921628,8446506.900491,0.009781,-1.252119,-0.188977,-0.000343,0.000000,0.000000,0.000000,-0.000298,0.000245,0.001149,38.330273,-7.175391,3.373242,0.000000,0.000000,0.000000,0.000000,0.002263,5.124000,0.033000,0.134000,0.040000,0.022000,0.020000,1010.559448,-0.009781,30.879498,995,1498,1504,1509,2016,995,1498,1504,1509,2000
5.898099,-3388235.921628,8446506.900491,0.009781,-1.254417,-0.192247,-0.000755,0.000000,0.000000,0.000000,0.002895,-0.000819,-0.000979,37.596680,-10.855079,5.148633,0.000000,0.000000,0.000000,0.000000,0.001851,5.121000,0.033000,0.134000,0.040000,0.016000,0.024000,1010.559448,-0.009781,30.879498,995,1498,1503,1509,2017,995,1498,1503,1509,2000
5.999756,-3388235.921628,8446506.900491,0.009781,-1.251884,-0.194094,-0.001301,0.000000,0.000000,0.000000,-0.001362,0.001309,-0.000979,37.596680,-10.855079,5.148633,0.000000,0.000000,0.000000,0.000000,0.001305,5.118000,0.033000,0.134000,0.040000,0.020000,0.024000,1010.559448,-0.009781,30.879498,995,1498,1503,1509,2017,995,1498,1503,1509,2000
6.099989,-3388235.921628,8446506.900491,0.009781,-1.292436,-0.166378,0.001109,0.000000,0.000000,0.000000,0.001830,-0.002948,0.003278,37.596680,-8.647266,0.887695,0.000000,0.000000,0.000000,0.000000,0.002696,5.121000,0.033000,0.134000,0.040000,0.020000,0.024000,1010.559448,-0.009781,30.879498,995,1497,1504,1509,2016,995,1497,1504,1509,2000
6.201548,-3388235.921628,8446506.900491,0.009781,-1.282231,-0.170562,0.000701,0.000000,0.000000,0.000000,0.002895,0.000245,-0.000979,37.596680,-8.647266,0.887695,0.000000,0.000000,0.000000,0.000000,0.002289,5.121000,0.033000,0.134000,0.040000,0.018000,0.020000,1010.559448,-0.009781,30.879498,994,1498,1504,1509,2016,994,1498,1504,1509,2000
6.306601,-3388235.921628,8446506.900491,0.084668,-1.278525,-0.175016,-0.001114,0.000000,0.000000,0.000000,0.000766,0.000245,0.003278,37.596680,-8.647266,0.887695,0.000000,0.000000,0.000000,0.000000,0.000474,5.121000,0.033000,0.134000,0.040000,0.016000,0.024000,1010.568420,-0.084668,30.900995,995,1498,1504,1509,2016,995,1498,1504,1509,2000
6.407694,-3388235.921628,8446506.900491,0.084668,-1.281194,-0.179801,0.000112,0.000000,0.000000,0.000000,-0.000298,-0.000819,-0.000979,38.146877,-7.727344,3.195703,0.000000,0.000000,0.000000,0.000000,0.001700,5.118000,0.033000,0.134000,0.040000,0.016000,0.022000,1010.568420,-0.084668,30.900995,995,1498,1503,1509,2017,995,1498,1503,1509,2000
6.509113,-3388235.921628,8446506.900491,0.084668,-1.271753,-0.178619,0.001744,0.000000,0.000000,0.000000,-0.001362,0.000245,-0.002043,38.146877,-7.727344,3.195703,0.000000,0.000000,0.000000,0.000000,0.003331,5.121000,0.033000,0.134000,0.040000,0.016000,0.024000,1010.568420,-0.084668,30.900995,995,1498,1503,1509,2017,995,1498,1503,1509,2000
6.609459,-3388235.921628,8446506.900491,0.084668,-1.271892,-0.182961,0.000768,0.000000,0.000000,0.000000,-0.001362,-0.001884,0.001149,38.146877,-6.991406,4.616016,0.000000,0.000000,0.000000,0.000000,0.002356,5.118000,0.033000,0.134000,0.040000,0.016000,0.022000,1010.568420,-0.084668,30.900995,995,1498,1504,1509,2016,995,1498,1504,1509,2000
6.711244,-3388235.921628,8446506.900491,0.084668,-1.266860,-0.188663,0.001425,0.000000,0.000000,0.000000,-0.003491,0.001309,-0.003108,38.146877,-6.991406,4.616016,0.000000,0.000000,0.000000,0.000000,0.003013,5.124000,0.033000,0.134000,0.040000,0.018000,0.020000,1010.568420,-0.084668,30.900995,995,1498,1504,1509,2016,995,1498,1504,1509,2000
6.811320,-3388235.921628,8446506.900491,0.084668,-1.260094,-0.189278,0.001908,0.000000,0.000000,0.000000,-0.002426,-0.004012,-0.003108,38.146877,-6.991406,4.616016,0.000000,0.000000,0.000000,0.000000,0.003496,5.124000,0.033000,0.134000,0.040000,0.016000,0.022000,1010.568420,-0.084668,30.900995,995,1498,1503,1509,2017,995,1498,1503,1509,2000
6.912851,-3388235.921628,8446506.900491,0.084668,-1.264969,-0.186139,0.002282,0.000000,0.000000,0.000000,-0.004555,0.001309,0.000085,38.146877,-8.095313,3.195703,0.000000,0.000000,0.000000,0.000000,0.003870,5.124000,0.033000,0.134000,0.040000,0.016000,0.024000,1010.568420,-0.084668,30.900995,995,1497,1504,1509,2016,995,1497,1504,1509,2000
7.082357,-3388235.921628,8446506.900491,0.084668,-1.246195,-0.182956,-0.004085,0.000000,0.000000,0.000000,-0.003491,0.001309,-0.000979,38.146877,-8.095313,3.195703,0.000000,0.000000,0.000000,0.000000,-0.003700,5.121000,0.033000,0.134000,0.040000,0.022000,0.022000,1010.568420,-0.084668,30.900995,996,1498,1504,1508,2017,995,1498,1504,1509,2000
7.183133,-3388235.921628,8446506.900491,0.084668,-1.244330,-0.183338,-0.003795,0.000000,0.000000,0.000000,-0.000298,0.002373,-0.000979,38.146877,-8.095313,3.195703,0.000000,0.000000,0.000000,0.000000,-0.003410,5.118000,0.033000,0.134000,0.040000,0.020000,0.022000,1010.568420,-0.084668,30.900995,995,1498,1504,1508,2017,995,1498,1504,1508,2000
7.283217,-3388235.921628,8446506.900491,0.084668,-1.243825,-0.188207,-0.001272,0.000000,0.000000,0.000000,0.000766,0.005566,0.002214,37.963478,-6.439454,2.663086,0.000000,0.000000,0.000000,0.000000,-0.000887,5.121000,0.033000,0.134000,0.040000,0.016000,0.022000,1010.568420,-0.084668,30.900995,995,1498,1503,1509,2017,995,1498,1503,1509,2000
7.384744,-3388235.921628,8446506.900491,0.146310,-1.236976,-0.190677,-0.001914,0.000000,0.000000,0.000000,0.000766,-0.000819,0.000085,37.963478,-6.439454,2.663086,0.000000,0.000000,0.000000,0.000000,-0.001530,5.124000,0.033000,0.134000,0.040000,0.016000,0.022000,1010.575806,-0.146310,30.917740,995,1498,1503,1509,2017,995,1498,1503,1509,2000
7.484803,-3388235.921628,8446506.900491,0.146310,-1.241593,-0.189791,-0.002415,0.000000,0.000000,0.000000,-0.004555,0.000245,-0.002043,38.330273,-8.647266,5.858789,0.000000,0.000000,0.000000,0.000000,-0.002031,5.121000,0.033000,0.134000,0.040000,0.018000,0.022000,1010.575806,-0.146310,30.917740,995,1498,1504,1509,2016,995,1498,1504,1509,2000
7.586045,-3388235.921628,8446506.900491,0.146310,-1.238144,-0.189065,-0.002719,0.000000,0.000000,0.000000,0.000766,-0.000819,0.005406,38.330273,-8.647266,5.858789,0.000000,0.000000,0.000000,0.000000,-0.002334,5.118000,0.044000,0.134000,0.040000,0.016000,0.020000,1010.575806,-0.146310,30.917740,995,1497,1503,1509,2017,995,1497,1503,1509,2000
7.686574,-3388235.921628,8446506.900491,0.146310,-1.240603,-0.187937,-0.003279,0.000000,0.000000,0.000000,0.001830,0.002373,-0.003108,38.330273,-8.647266,5.858789,0.000000,0.000000,0.000000,0.000000,-0.002894,5.124000,0.033000,0.134000,0.040000,0.018000,0.024000,1010.575806,-0.146310,30.917740,996,1498,1503,1509,2017,996,1498,1503,1509,2000
7.786579,-3388235.921628,8446506.900491,0.146310,-1.239625,-0.183237,-0.003137,0.000000,0.000000,0.000000,0.001830,0.002373,-0.002043,37.596680,-6.807422,4.438477,0.000000,0.000000,0.000000,0.000000,-0.002753,5.124000,0.033000,0.134000,0.040000,0.016000,0.024000,1010.575806,-0.146310,30.917740,995,1497,1504,1509,2016,995,1497,1504,1509,2000
7.887975,-3388235.921628,8446506.900491,0.146310,-1.237993,-0.181067,-0.005343,0.000000,0.000000,0.000000,-0.000298,0.002373,0.002214,37.596680,-6.807422,4.438477,0.000000,0.000000,0.000000,0.000000,-0.004958,5.124000,0.033000,0.134000,0.040000,0.018000,0.024000,1010.575806,-0.146310,30.917740,994,1498,1504,1509,2016,994,1498,1504,1509,2000
7.989471,-3388235.921628,8446506.900491,0.146310,-1.240937,-0.179258,-0.002670,0.000000,0.000000,0.000000,-0.003491,-0.004012,0.000085,37.413280,-7.727344,3.195703,0.000000,0.000000,0.000000,0.000000,-0.002285,5.118000,0.033000,0.134000,0.040000,0.024000,0.024000,1010.575806,-0.146310,30.917740,996,1497,1504,1508,2017,996,1497,1504,1508,2000
8.090991,-3388235.921628,8446506.900491,0.146310,-1.247047,-0.161418,0.009589,0.000000,0.000000,0.000000,-0.002426,0.002373,-0.002043,37.413280,-7.727344,3.195703,0.000000,0.000000,0.000000,0.000000,0.006317,5.124000,0.033000,0.134000,0.040000,0.016000,0.024000,1010.575806,-0.146310,30.917740,995,1498,1504,1509,2016,995,1498,1504,1509,2000
8.192112,-3388235.921628,8446506.900491,0.146310,-1.246609,-0.159516,0.009271,0.000000,0.000000,0.000000,-0.002426,0.003437,0.000085,37.963478,-7.911328,5.148633,0.000000,0.000000,0.000000,0.000000,0.005999,5.115000,0.033000,0.134000,0.040000,0.022000,0.024000,1010.575806,-0.146310,30.917740,995,1497,1504,1508,2017,995,1497,1504,1508,2000
8.292115,-3388235.921628,8446506.900491,0.146310,-1.243669,-0.163020,0.008051,0.000000,0.000000,0.000000,-0.001362,0.005566,0.003278,37.963478,-7.911328,5.148633,0.000000,0.000000,0.000000,0.000000,0.004780,5.124000,0.033000,0.134000,0.038000,0.018000,0.020000,1010.575806,-0.146310,30.917740,995,1498,1503,1509,2016,995,1498,1503,1509,2000
8.393112,-3388235.921628,8446506.900491,0.240045,-1.244471,-0.163602,0.007144,0.000000,0.000000,0.000000,-0.001362,0.004502,0.001149,37.963478,-7.911328,5.148633,0.000000,0.000000,0.000000,0.000000,0.003872,5.121000,0.033000,0.134000,0.040000,0.018000,0.020000,1010.587036,-0.240045,30.904945,995,1497,1504,1509,2016,995,1497,1504,1509,2000
8.494749,-3388235.921628,8446506.900491,0.240045,-1.253177,-0.165202,0.005849,0.000000,0.000000,0.000000,0.002895,0.004502,-0.006300,36.129494,-6.807422,3.373242,0.000000,0.000000,0.000000,0.000000,0.002577,5.124000,0.033000,0.134000,0.040000,0.016000,0.024000,1010.587036,-0.240045,30.904945,996,1497,1504,1508,2017,996,1497,1504,1508,2000
8.594861,-3388235.921628,8446506.900491,0.240045,-1.254135,-0.170358,0.004301,0.000000,0.000000,0.000000,0.000766,0.004502,0.006470,36.129494,-6.807422,3.373242,0.000000,0.000000,0.000000,0.000000,0.001029,5.121000,0.033000,0.134000,0.038000,0.016000,0.022000,1010.587036,-0.240045,30.904945,995,1498,1504,1509,2016,995,1498,1504,1509,2000
8.695425,-3388235.921628,8446506.900491,0.240045,-1.257128,-0.174766,0.005797,0.000000,0.000000,0.000000,-0.002426,-0.000819,-0.002043,36.129494,-6.807422,3.373242,0.000000,0.000000,0.000000,0.000000,0.002525,5.118000,0.044000,0.134000,0.040000,0.018000,0.024000,1010.587036,-0.240045,30.904945,995,1497,1504,1509,2016,995,1497,1504,1509,2000
8.795870,-3388235.921628,8446506.900491,0.240045,-1.254857,-0.175116,0.001324,0.000000,0.000000,0.000000,-0.004555,0.006630,0.000085,36.129494,-6.807422,3.373242,0.000000,0.000000,0.000000,0.000000,-0.001948,5.121000,0.033000,0.134000,0.040000,0.016000,0.024000,1010.587036,-0.240045,30.904945,995,1498,1503,1509,2017,995,1498,1503,1509,2000
8.897490,-3388235.921628,8446506.900491,0.240045,-1.259702,-0.179958,0.000770,0.000000,0.000000,0.000000,0.001830,-0.001884,-0.004172,36.129494,-6.807422,3.373242,0.000000,0.000000,0.000000,0.000000,-0.002502,5.124000,0.033000,0.134000,0.040000,0.016000,0.024000,1010.587036,-0.240045,30.904945,995,1497,1504,1509,2016,995,1497,1504,1509,2000
8.998323,-3388235.921628,8446506.900491,0.240045,-1.258112,-0.184166,0.002846,0.000000,0.000000,0.000000,0.001830,-0.000819,0.003278,36.129494,-6.807422,3.373242,0.000000,0.000000,0.000000,0.000000,-0.000425,5.124000,0.033000,0.134000,0.040000,0.022000,0.024000,1010.587036,-0.240045,30.904945,995,1498,1503,1509,2017,995,1498,1503,1509,2000
9.098619,-3388235.921628,8446506.900491,0.240045,-1.263690,-0.188406,-0.001424,0.000000,0.000000,0.000000,0.000766,-0.001884,0.000085,36.129494,-6.807422,3.373242,0.000000,0.000000,0.000000,0.000000,-0.000568,5.118000,0.033000,0.134000,0.040000,0.016000,0.024000,1010.587036,-0.240045,30.904945,996,1498,1503,1509,2017,996,1498,1503,1509,2000
9.199057,-3388235.921628,8446506.900491,0.240045,-1.267902,-0.186625,-0.002820,0.000000,0.000000,0.000000,0.001830,-0.001884,-0.003108,36.129494,-6.807422,3.373242,0.000000,0.000000,0.000000,0.000000,-0.001964,5.118000,0.033000,0.134000,0.040000,0.016000,0.024000,1010.587036,-0.240045,30.904945,995,1498,1504,1508,2017,995,1498,1504,1508,2000
9.301121,-3388235.921628,8446506.900491,0.240045,-1.268175,-0.188913,-0.001231,0.000000,0.000000,0.000000,0.003959,0.001309,-0.002043,36.129494,-6.807422,3.373242,0.000000,0.000000,0.000000,0.000000,-0.000374,5.121000,0.033000,0.134000,0.040000,0.018000,0.024000,1010.587036,-0.240045,30.904945,994,1499,1503,1509,2016,994,1499,1503,1509,2000
9.406399,-3388235.921628,8446506.900491,0.054612,-1.266387,-0.185228,-0.002206,0.000000,0.000000,0.000000,-0.001362,0.001309,-0.004172,37.046486,-9.567188,4.616016,0.000000,0.000000,0.000000,0.000000,-0.001349,5.124000,0.033000,0.134000,0.040000,0.022000,0.024000,1010.564819,-0.054612,30.912115,995,1498,1504,1508,2017,995,1498,1504,1508,2000
9.507958,-3388235.921628,8446506.900491,0.054612,-1.267186,-0.183378,-0.002025,0.000000,0.000000,0.000000,0.001830,-0.004012,0.001149,37.046486,-9.567188,4.616016,0.000000,0.000000,0.000000,0.000000,-0.001168,5.121000,0.033000,0.134000,0.040000,0.014000,0.022000,1010.564819,-0.054612,30.912115,994,1498,1503,1509,2017,994,1498,1503,1509,2000
9.609102,-3388235.921628,8446506.900491,0.054612,-1.261490,-0.176138,-0.001275,0.000000,0.000000,0.000000,-0.001362,0.001309,0.000085,38.146877,-8.463282,3.905859,0.000000,0.000000,0.000000,0.000000,-0.000419,5.124000,0.033000,0.134000,0.040000,0.016000,0.020000,1010.564819,-0.054612,30.912115,995,1498,1503,1509,2017,995,1498,1503,1509,2000
9.709679,-3388235.921628,8446506.900491,0.054612,-1.258648,-0.181108,-0.002045,0.000000,0.000000,0.000000,-0.004555,-0.000819,-0.000979,38.146877,-8.463282,3.905859,0.000000,0.000000,0.000000,0.000000,-0.001188,5.121000,0.033000,0.134000,0.040000,0.018000,0.024000,1010.564819,-0.054612,30.912115,995,1498,1504,1509,2016,995,1498,1504,1509,2000
9.811281,-3388235.921628,8446506.900491,0.054612,-1.253040,-0.181532,-0.001379,0.000000,0.000000,0.000000,0.006087,0.000245,0.002214,37.596680,-8.279297,1.597852,0.000000,0.000000,0.000000,0.000000,-0.000522,5.121000,0.033000,0.134000,0.040000,0.022000,0.024000,1010.564819,-0.054612,30.912115,995,1498,1504,1509,2016,995,1498,1504,1509,2000
9.911543,-3388235.921628,8446506.900491,0.054612,-1.248046,-0.187460,-0.001199,0.000000,0.000000,0.000000,-0.004555,-0.000819,-0.000979,37.596680,-8.279297,1.597852,0.000000,0.000000,0.000000,0.000000,-0.000342,5.121000,0.044000,0.134000,0.038000,0.016000,0.024000,1010.564819,-0.054612,30.912115,996,1498,1503,1509,2017,996,1498,1503,1509,2000
10.013027,-3388235.921628,8446506.900491,0.054612,-1.246291,-0.185747,0.000000,0.000000,0.000000,0.000000,0.000766,-0.000819,0.002214,37.596680,-8.279297,1.597852,0.000000,0.000000,0.000000,0.000000,-0.000371,5.121000,0.033000,0.134000,0.040000,0.014000,0.024000,1010.564819,-0.054612,30.912115,995,1498,1503,1509,2017,995,1498,1503,1509,2000
10.114582,-3388235.921628,8446506.900491,0.054612,-1.244955,-0.139516,0.005503,0.000000,0.000000,0.000000,0.002895,-0.000819,-0.003108,37.596680,-8.279297,1.597852,0.000000,0.000000,0.000000,0.000000,0.005131,5.118000,0.033000,0.134000,0.040000,0.018000,0.024000,1010.564819,-0.054612,30.912115,995,1497,1504,1509,2016,995,1497,1504,1509,2000
10.215680,-3388235.921628,8446506.900491,0.054612,-1.246974,-0.145960,0.002930,0.000000,0.000000,0.000000,-0.004555,0.000245,0.000085,40.347656,-6.991406,3.550781,0.000000,0.000000,0.000000,0.000000,0.002558,5.115000,0.033000,0.134000,0.040000,0.018000,0.024000,1010.564819,-0.054612,30.912115,995,1498,1504,1509,2016,995,1498,1504,1509,2000
10.316844,-3388235.921628,8446506.900491,0.054612,-1.249694,-0.151021,0.002953,0.000000,0.000000,0.000000,-0.002426,0.007694,0.001149,40.347656,-6.991406,3.550781,0.000000,0.000000,0.000000,0.000000,0.002582,5.118000,0.033000,0.134000,0.040000,0.020000,0.020000,1010.564819,-0.054612,30.912115,995,1497,1503,1509,2017,995,1497,1503,1509,2000
10.417481,-3388235.921628,8446506.900491,0.369948,-1.243118,-0.159641,0.000200,0.000000,0.000000,0.000000,0.000766,-0.004012,0.000085,37.229885,-6.807422,4.083398,0.000000,0.000000,0.000000,0.000000,-0.000172,5.121000,0.033000,0.134000,0.040000,0.016000,0.022000,1010.602600,-0.369948,30.925308,995,1498,1503,1509,2017,996,1498,1503,1509,2000
10.518612,-3388235.921628,8446506.900491,0.369948,-1.236635,-0.164266,0.002549,0.000000,0.000000,0.000000,-0.002426,-0.002948,0.003278,37.229885,-6.807422,4.083398,0.000000,0.000000,0.000000,0.000000,0.002177,5.121000,0.033000,0.134000,0.040000,0.016000,0.020000,1010.602600,-0.369948,30.925308,995,1497,1504,1509,2016,995,1497,1504,1509,2000
10.620042,-3388235.921628,8446506.900491,0.369948,-1.239747,-0.164520,0.005690,0.000000,0.000000,0.000000,0.001830,0.002373,0.002214,37.229885,-6.807422,4.083398,0.000000,0.000000,0.000000,0.000000,0.005319,5.124000,0.033000,0.134000,0.040000,0.016000,0.024000,1010.602600,-0.369948,30.925308,995,1498,1503,1509,2017,995,1498,1503,1509,2000
10.721029,-3388235.921628,8446506.900491,0.369948,-1.247283,-0.159514,0.002810,0.000000,0.000000,0.000000,-0.002426,0.001309,-0.002043,38.697071,-7.175391,0.887695,0.000000,0.000000,0.000000,0.000000,0.002439,5.118000,0.033000,0.134000,0.040000,0.016000,0.024000,1010.602600,-0.369948,30.925308,995,1497,1504,1509,2016,995,1497,1504,1509,2000
10.822354,-3388235.921628,8446506.900491,0.369948,-1.250296,-0.163133,0.002252,0.000000,0.000000,0.000000,-0.003491,0.002373,-0.003108,38.697071,-7.175391,0.887695,0.000000,0.000000,0.000000,0.000000,0.001881,5.121000,0.033000,0.134000,0.040000,0.018000,0.024000,1010.602600,-0.369948,30.925308,995,1497,1504,1509,2016,995,1497,1504,1509,2000
10.923716,-3388235.921628,8446506.900491,0.369948,-1.250909,-0.165161,0.002317,0.000000,0.000000,0.000000,-0.001362,-0.001884,-0.002043,38.880470,-8.831250,2.130469,0.000000,0.000000,0.000000,0.000000,0.001946,5.118000,0.033000,0.134000,0.040000,0.022000,0.022000,1010.602600,-0.369948,30.925308,996,1497,1503,1509,2017,996,1497,1503,1509,2000
11.087332,-3388235.921628,8446506.900491,0.369948,-1.254916,-0.183390,-0.004433,0.000000,0.000000,0.000000,-0.003491,-0.000819,-0.000979,38.880470,-8.831250,2.130469,0.000000,0.000000,0.000000,0.000000,-0.004254,5.121000,0.044000,0.134000,0.040000,0.016000,0.024000,1010.602600,-0.369948,30.925308,995,1498,1503,1509,2017,995,1497,1503,1509,2000
11.187357,-3388235.921628,8446506.900491,0.369948,-1.257105,-0.185385,-0.001848,0.000000,0.000000,0.000000,-0.002426,-0.007205,0.001149,37.780079,-8.095313,2.840625,0.000000,0.000000,0.000000,0.000000,-0.001668,5.112000,0.033000,0.134000,0.038000,0.018000,0.024000,1010.602600,-0.369948,30.925308,995,1498,1503,1509,2017,995,1498,1503,1509,2000
11.288518,-3388235.921628,8446506.900491,0.369948,-1.252487,-0.185901,-0.002831,0.000000,0.000000,0.000000,-0.004555,0.000245,0.003278,37.780079,-8.095313,2.840625,0.000000,0.000000,0.000000,0.000000,-0.002651,5.121000,0.033000,0.134000,0.038000,0.016000,0.024000,1010.602600,-0.369948,30.925308,995,1497,1504,1509,2016,995,1497,1504,1509,2000
11.388709,-3388235.921628,8446506.900491,0.369948,-1.253009,-0.179166,-0.002866,0.000000,0.000000,0.000000,-0.000298,0.001309,-0.000979,37.780079,-8.095313,2.840625,0.000000,0.000000,0.000000,0.000000,-0.002687,5.124000,0.033000,0.134000,0.038000,0.016000,0.024000,1010.602600,-0.369948,30.925308,996,1497,1504,1509,2016,996,1497,1504,1509,2000
11.488897,-3388235.921628,8446506.900491,-0.049314,-1.254874,-0.180929,-0.003884,0.000000,0.000000,0.000000,-0.000298,-0.002948,0.002214,37.780079,-8.095313,2.840625,0.000000,0.000000,0.000000,0.000000,-0.003705,5.115000,0.033000,0.134000,0.040000,0.018000,0.024000,1010.552368,0.049314,30.945601,995,1498,1504,1508,2017,995,1498,1504,1508,2000
11.589711,-3388235.921628,8446506.900491,-0.049314,-1.258510,-0.181480,-0.000659,0.000000,0.000000,0.000000,-0.000298,0.000245,0.005406,36.496288,-9.015235,2.663086,0.000000,0.000000,0.000000,0.000000,-0.000480,5.121000,0.033000,0.134000,0.038000,0.020000,0.018000,1010.552368,0.049314,30.945601,995,1499,1503,1509,2016,995,1499,1503,1509,2000
11.691118,-3388235.921628,8446506.900491,-0.049314,-1.258673,-0.179337,-0.001511,0.000000,0.000000,0.000000,-0.002426,0.002373,-0.002043,36.496288,-9.015235,2.663086,0.000000,0.000000,0.000000,0.000000,-0.001331,5.118000,0.033000,0.134000,0.038000,0.020000,0.022000,1010.552368,0.049314,30.945601,996,1497,1503,1509,2017,996,1497,1503,1509,2000
11.792124,-3388235.921628,8446506.900491,-0.049314,-1.254519,-0.178836,0.002867,0.000000,0.000000,0.000000,-0.002426,-0.000819,-0.000979,37.780079,-9.199219,2.485547,0.000000,0.000000,0.000000,0.000000,0.003047,5.121000,0.033000,0.134000,0.038000,0.016000,0.024000,1010.552368,0.049314,30.945601,995,1498,1503,1509,2017,995,1498,1503,1509,2000
11.893014,-3388235.921628,8446506.900491,-0.049314,-1.262167,-0.178672,0.002131,0.000000,0.000000,0.000000,-0.004555,0.000245,-0.002043,37.780079,-9.199219,2.485547,0.000000,0.000000,0.000000,0.000000,0.002311,5.118000,0.033000,0.134000,0.040000,0.016000,0.024000,1010.552368,0.049314,30.945601,994,1499,1503,1509,2016,994,1499,1503,1509,2000
11.994550,-3388235.921628,8446506.900491,-0.049314,-1.264670,-0.175186,0.002675,0.000000,0.000000,0.000000,-0.002426,-0.001884,0.000085,37.780079,-9.199219,2.485547,0.000000,0.000000,0.000000,0.000000,0.002854,5.121000,0.033000,0.134000,0.040000,0.020000,0.024000,1010.552368,0.049314,30.945601,995,1498,1504,1509,2016,995,1498,1504,1509,2000
12.095754,-3388235.921628,8446506.900491,-0.049314,-1.264213,-0.185181,-0.000142,0.000000,0.000000,0.000000,-0.001362,-0.000819,-0.000979,36.863087,-6.807422,2.663086,0.000000,0.000000,0.000000,0.000000,0.003005,5.124000,0.033000,0.134000,0.040000,0.016000,0.022000,1010.552368,0.049314,30.945601,995,1498,1503,1509,2016,995,1498,1503,1509,2000
12.197207,-3388235.921628,8446506.900491,-0.049314,-1.269639,-0.189464,0.002067,0.000000,0.000000,0.000000,-0.003491,0.001309,0.001149,36.863087,-6.807422,2.663086,0.000000,0.000000,0.000000,0.000000,0.005213,5.118000,0.033000,0.134000,0.040000,0.020000,0.022000,1010.552368,0.049314,30.945601,996,1498,1503,1509,2017,996,1498,1503,1509,2000
12.298841,-3388235.921628,8446506.900491,-0.049314,-1.266608,-0.189491,0.002521,0.000000,0.000000,0.000000,0.001830,0.000245,-0.002043,36.863087,-6.807422,2.663086,0.000000,0.000000,0.000000,0.000000,0.005668,5.115000,0.033000,0.134000,0.040000,0.022000,0.020000,1010.552368,0.049314,30.945601,995,1498,1504,1509,2016,995,1498,1504,1509,2000
12.399822,-3388235.921628,8446506.900491,-0.049314,-1.267079,-0.187042,0.003342,0.000000,0.000000,0.000000,0.000766,-0.001884,0.000085,38.330273,-7.175391,4.438477,0.000000,0.000000,0.000000,0.000000,0.006489,5.121000,0.033000,0.134000,0.038000,0.018000,0.024000,1010.552368,0.049314,30.945601,995,1497,1504,1509,2016,995,1497,1504,1509,2000
12.501311,-3388235.921628,8446506.900491,0.356703,-1.262868,-0.187793,0.003252,0.000000,0.000000,0.000000,0.000766,0.004502,0.000085,38.330273,-7.175391,4.438477,0.000000,0.000000,0.000000,0.000000,0.006399,5.118000,0.033000,0.134000,0.038000,0.018000,0.024000,1010.601013,-0.356703,30.962475,995,1499,1503,1509,2016,995,1499,1503,1509,2000
12.601713,-3388235.921628,8446506.900491,0.356703,-1.263246,-0.188951,0.004959,0.000000,0.000000,0.000000,-0.001362,0.001309,-0.002043,38.330273,-7.175391,4.438477,0.000000,0.000000,0.000000,0.000000,0.008106,5.121000,0.033000,0.134000,0.040000,0.018000,0.024000,1010.601013,-0.356703,30.962475,995,1498,1503,1509,2016,995,1498,1503,1509,2000
12.707092,-3388235.921628,8446506.900491,0.356703,-1.254342,-0.188382,0.005388,0.000000,0.000000,0.000000,0.001830,-0.005076,0.000085,39.063869,-8.647266,1.242773,0.000000,0.000000,0.000000,0.000000,0.008534,5.118000,0.033000,0.134000,0.038000,0.020000,0.022000,1010.601013,-0.356703,30.962475,995,1498,1503,1509,2017,995,1498,1503,1509,2000
12.807921,-3388235.921628,8446506.900491,0.356703,-1.252361,-0.192009,0.010426,0.000000,0.000000,0.000000,-0.000298,0.003437,0.003278,39.063869,-8.647266,1.242773,0.000000,0.000000,0.000000,0.000000,0.013573,5.118000,0.033000,0.134000,0.040000,0.020000,0.024000,1010.601013,-0.356703,30.962475,995,1497,1504,1509,2016,995,1497,1504,1509,2000
12.908824,-3388235.921628,8446506.900491,0.356703,-1.248104,-0.197520,0.011830,0.000000,0.000000,0.000000,0.002895,-0.002948,0.004342,37.780079,-7.359375,3.905859,0.000000,0.000000,0.000000,0.000000,0.014977,5.118000,0.033000,0.134000,0.040000,0.022000,0.020000,1010.601013,-0.356703,30.962475,995,1497,1504,1508,2017,995,1497,1504,1508,2000
13.009430,-3388235.921628,8446506.900491,0.356703,-1.237676,-0.196423,0.011736,0.000000,0.000000,0.000000,-0.003491,0.001309,0.004342,37.780079,-7.359375,3.905859,0.000000,0.000000,0.000000,0.000000,0.014882,5.121000,0.033000,0.134000,0.040000,0.024000,0.024000,1010.601013,-0.356703,30.962475,995,1497,1504,1509,2016,995,1497,1504,1509,2000
13.111217,-3388235.921628,8446506.900491,0.356703,-1.245552,-0.219950,0.002658,0.000000,0.000000,0.000000,0.001830,0.000245,-0.002043,37.963478,-8.279297,5.148633,0.000000,0.000000,0.000000,0.000000,0.017509,5.118000,0.033000,0.134000,0.040000,0.016000,0.024000,1010.601013,-0.356703,30.962475,995,1498,1504,1508,2017,995,1498,1504,1508,2000
13.212849,-3388235.921628,8446506.900491,0.356703,-1.244833,-0.217514,0.004991,0.000000,0.000000,0.000000,-0.001362,0.002373,-0.000979,37.963478,-8.279297,5.148633,0.000000,0.000000,0.000000,0.000000,0.019842,5.115000,0.033000,0.134000,0.038000,0.018000,0.024000,1010.601013,-0.356703,30.962475,995,1499,1503,1509,2017,995,1499,1503,1509,2000
13.314110,-3388235.921628,8446506.900491,0.356703,-1.248667,-0.211543,0.004028,0.000000,0.000000,0.000000,0.003959,0.001309,0.003278,37.596680,-6.807422,4.083398,0.000000,0.000000,0.000000,0.000000,0.018879,5.121000,0.033000,0.134000,0.038000,0.018000,0.024000,1010.601013,-0.356703,30.962475,995,1498,1503,1509,2017,995,1498,1503,1509,2000
13.415078,-3388235.921628,8446506.900491,0.356703,-1.248742,-0.214717,0.004722,0.000000,0.000000,0.000000,-0.001362,-0.001884,-0.003108,37.596680,-6.807422,4.083398,0.000000,0.000000,0.000000,0.000000,0.019572,5.118000,0.033000,0.134000,0.040000,0.014000,0.022000,1010.601013,-0.356703,30.962475,995,1497,1504,1508,2017,995,1497,1504,1508,2000
13.516673,-3388235.921628,8446506.900491,0.128989,-1.250520,-0.218607,0.003643,0.000000,0.000000,0.000000,0.000766,0.000245,-0.000979,38.330273,-8.647266,3.018164,0.000000,0.000000,0.000000,0.000000,0.018494,5.118000,0.033000,0.134000,0.038000,0.016000,0.022000,1010.573730,-0.128989,30.977680,995,1498,1504,1508,2017,995,1498,1504,1509,2000
13.617178,-3388235.921628,8446506.900491,0.128989,-1.245873,-0.215020,0.005840,0.000000,0.000000,0.000000,0.000766,0.000245,0.000085,38.330273,-8.647266,3.018164,0.000000,0.000000,0.000000,0.000000,0.020691,5.118000,0.033000,0.134000,0.040000,0.018000,0.022000,1010.573730,-0.128989,30.977680,995,1497,1504,1509,2016,995,1497,1504,1509,2000
13.717367,-3388235.921628,8446506.900491,0.128989,-1.245053,-0.212563,0.008411,0.000000,0.000000,0.000000,0.000766,0.000245,0.000085,38.697071,-8.647266,4.793555,0.000000,0.000000,0.000000,0.000000,0.023262,5.121000,0.033000,0.134000,0.040000,0.020000,0.020000,1010.573730,-0.128989,30.977680,995,1498,1504,1509,2016,995,1498,1504,1509,2000
13.818035,-3388235.921628,8446506.900491,0.128989,-1.245377,-0.207764,0.006863,0.000000,0.000000,0.000000,-0.001362,-0.005076,-0.003108,38.697071,-8.647266,4.793555,0.000000,0.000000,0.000000,0.000000,0.021713,5.115000,0.033000,0.134000,0.040000,0.018000,0.028000,1010.573730,-0.128989,30.977680,995,1498,1503,1509,2017,995,1498,1503,1509,2000
13.918457,-3388235.921628,8446506.900491,0.128989,-1.247536,-0.201778,0.006380,0.000000,0.000000,0.000000,-0.001362,0.000245,0.000085,38.330273,-6.807422,3.728320,0.000000,0.000000,0.000000,0.000000,0.021231,5.109000,0.044000,0.134000,0.040000,0.018000,0.022000,1010.573730,-0.128989,30.977680,995,1497,1504,1508,2017,995,1497,1504,1508,2000
14.087213,-3388235.921628,8446506.900491,0.128989,-1.259860,-0.201432,0.009133,0.000000,0.000000,0.000000,0.001830,-0.001884,0.002214,37.413280,-6.623438,3.550781,0.000000,0.000000,0.000000,0.000000,0.029772,5.112000,0.044000,0.134000,0.040000,0.018000,0.022000,1010.573730,-0.128989,30.977680,995,1498,1504,1509,2016,995,1498,1504,1509,2000
14.188178,-3388235.921628,8446506.900491,0.128989,-1.261611,-0.195746,0.008694,0.000000,0.000000,0.000000,0.000766,-0.002948,0.001149,37.413280,-6.623438,3.550781,0.000000,0.000000,0.000000,0.000000,0.029333,5.106000,0.033000,0.134000,0.038000,0.022000,0.024000,1010.573730,-0.128989,30.977680,995,1498,1503,1509,2017,995,1498,1503,1509,2000
14.289655,-3388235.921628,8446506.900491,0.128989,-1.253539,-0.194863,0.008465,0.000000,0.000000,0.000000,0.000766,-0.000819,-0.000979,36.679688,-7.359375,2.840625,0.000000,0.000000,0.000000,0.000000,0.029104,5.106000,0.033000,0.134000,0.038000,0.022000,0.022000,1010.573730,-0.128989,30.977680,995,1498,1503,1509,2017,995,1498,1503,1509,2000
14.389883,-3388235.921628,8446506.900491,0.128989,-1.259369,-0.195279,0.010735,0.000000,0.000000,0.000000,0.001830,0.001309,0.004342,37.229885,-9.383204,3.373242,0.000000,0.000000,0.000000,0.000000,0.031374,5.109000,0.033000,0.134000,0.038000,0.016000,0.022000,1010.573730,-0.128989,30.977680,995,1497,1504,1509,2017,995,1497,1504,1509,2000
14.491314,-3388235.921628,8446506.900491,0.289968,-1.266394,-0.189386,0.015373,0.000000,0.000000,0.000000,0.001830,0.003437,0.000085,37.229885,-9.383204,3.373242,0.000000,0.000000,0.000000,0.000000,0.036013,5.109000,0.033000,0.134000,0.038000,0.018000,0.024000,1010.593018,-0.289968,31.000250,994,1498,1503,1509,2017,994,1498,1503,1509,2000
14.591563,-3388235.921628,8446506.900491,0.289968,-1.263556,-0.184140,0.013534,0.000000,0.000000,0.000000,-0.003491,-0.002948,0.002214,37.229885,-9.383204,3.373242,0.000000,0.000000,0.000000,0.000000,0.034173,5.112000,0.033000,0.134000,0.040000,0.014000,0.024000,1010.593018,-0.289968,31.000250,995,1498,1503,1509,2017,995,1498,1503,1509,2000
14.693194,-3388235.921628,8446506.900491,0.289968,-1.254933,-0.178164,0.012306,0.000000,0.000000,0.000000,0.000766,0.000245,0.005406,38.146877,-9.199219,1.775391,0.000000,0.000000,0.000000,0.000000,0.032945,5.109000,0.033000,0.134000,0.038000,0.022000,0.024000,1010.593018,-0.289968,31.000250,995,1497,1504,1509,2016,995,1497,1504,1509,2000
14.794815,-3388235.921628,8446506.900491,0.289968,-1.251236,-0.185386,0.010100,0.000000,0.000000,0.000000,0.005023,-0.005076,-0.000979,37.413280,-6.991406,2.840625,0.000000,0.000000,0.000000,0.000000,0.030739,5.109000,0.044000,0.134000,0.040000,0.020000,0.022000,1010.593018,-0.289968,31.000250,995,1498,1504,1508,2017,995,1498,1504,1508,2000
14.894909,-3388235.921628,8446506.900491,0.289968,-1.257057,-0.189462,0.011032,0.000000,0.000000,0.000000,-0.003491,-0.000819,-0.002043,37.413280,-6.991406,2.840625,0.000000,0.000000,0.000000,0.000000,0.031671,5.112000,0.044000,0.134000,0.038000,0.020000,0.020000,1010.593018,-0.289968,31.000250,995,1498,1503,1509,2017,995,1498,1503,1509,2000
14.995044,-3388235.921628,8446506.900491,0.289968,-1.254301,-0.194404,0.013291,0.000000,0.000000,0.000000,-0.001362,-0.004012,0.002214,36.863087,-7.175391,5.148633,0.000000,0.000000,0.000000,0.000000,0.033930,5.109000,0.033000,0.134000,0.040000,0.018000,0.024000,1010.593018,-0.289968,31.000250,994,1498,1504,1509,2016,994,1498,1504,1509,2000
15.096651,-3388235.921628,8446506.900491,0.289968,-1.242734,-0.168771,-0.007396,0.000000,0.000000,0.000000,0.003959,-0.004012,0.003278,36.863087,-7.175391,5.148633,0.000000,0.000000,0.000000,0.000000,0.026812,5.109000,0.044000,0.134000,0.040000,0.018000,0.022000,1010.593018,-0.289968,31.000250,995,1498,1504,1509,2016,995,1498,1504,1509,2000
15.196839,-3388235.921628,8446506.900491,0.289968,-1.246378,-0.169188,-0.008090,0.000000,0.000000,0.000000,-0.002426,-0.000819,-0.000979,38.880470,-8.831250,3.195703,0.000000,0.000000,0.000000,0.000000,0.026118,5.109000,0.044000,0.134000,0.038000,0.020000,0.024000,1010.593018,-0.289968,31.000250,995,1498,1504,1509,2016,995,1498,1504,1509,2000
15.298217,-3388235.921628,8446506.900491,0.289968,-1.245900,-0.169554,-0.005212,0.000000,0.000000,0.000000,-0.001362,0.002373,0.002214,38.880470,-8.831250,3.195703,0.000000,0.000000,0.000000,0.000000,0.028996,5.109000,0.044000,0.134000,0.038000,0.018000,0.020000,1010.593018,-0.289968,31.000250,995,1498,1503,1509,2017,995,1498,1503,1509,2000
15.398812,-3388235.921628,8446506.900491,0.289968,-1.242934,-0.168864,-0.000841,0.000000,0.000000,0.000000,-0.001362,0.000245,-0.002043,39.063869,-7.911328,4.438477,0.000000,0.000000,0.000000,0.000000,0.033367,5.109000,0.044000,0.134000,0.038000,0.020000,0.022000,1010.593018,-0.289968,31.000250,995,1497,1504,1509,2016,995,1497,1504,1509,2000
15.499320,-3388235.921628,8446506.900491,-0.155278,-1.240630,-0.170612,0.001268,0.000000,0.000000,0.000000,-0.001362,-0.002948,0.003278,37.780079,-8.095313,1.775391,0.000000,0.000000,0.000000,0.000000,0.035475,5.109000,0.044000,0.134000,0.038000,0.018000,0.020000,1010.539673,0.155278,31.006880,995,1497,1504,1509,2016,995,1497,1504,1509,2000
15.600064,-3388235.921628,8446506.900491,-0.155278,-1.236857,-0.174808,0.004017,0.000000,0.000000,0.000000,-0.002426,-0.001884,-0.000979,37.780079,-8.095313,1.775391,0.000000,0.000000,0.000000,0.000000,0.038225,5.109000,0.033000,0.134000,0.040000,0.016000,0.024000,1010.539673,0.155278,31.006880,996,1498,1503,1509,2017,996,1498,1503,1509,2000
15.700307,-3388235.921628,8446506.900491,-0.155278,-1.234724,-0.171547,0.006002,0.000000,0.000000,0.000000,-0.001362,0.002373,-0.002043,37.780079,-8.095313,1.775391,0.000000,0.000000,0.000000,0.000000,0.040210,5.112000,0.044000,0.134000,0.038000,0.022000,0.024000,1010.539673,0.155278,31.006880,995,1498,1504,1509,2016,995,1498,1504,1509,2000
15.801082,-3388235.921628,8446506.900491,-0.155278,-1.235292,-0.173125,0.006768,0.000000,0.000000,0.000000,0.001830,0.001309,-0.002043,37.780079,-8.095313,1.775391,0.000000,0.000000,0.000000,0.000000,0.040976,5.109000,0.033000,0.134000,0.038000,0.020000,0.024000,1010.539673,0.155278,31.006880,996,1497,1503,1509,2017,996,1497,1503,1509,2000
15.905771,-3388235.921628,8446506.900491,-0.155278,-1.232013,-0.173734,0.003153,0.000000,0.000000,0.000000,0.003959,0.002373,-0.002043,38.330273,-6.439454,1.952930,0.000000,0.000000,0.000000,0.000000,0.037361,5.118000,0.033000,0.134000,0.038000,0.016000,0.024000,1010.539673,0.155278,31.006880,995,1498,1503,1509,2017,995,1497,1504,1509,2000
16.007214,-3388235.921628,8446506.900491,-0.155278,-1.233488,-0.173281,0.003595,0.000000,0.000000,0.000000,0.002895,-0.004012,0.001149,38.330273,-6.439454,1.952930,0.000000,0.000000,0.000000,0.000000,0.037802,5.121000,0.033000,0.134000,0.040000,0.016000,0.020000,1010.539673,0.155278,31.006880,995,1498,1503,1509,2017,995,1498,1503,1509,2000
16.107397,-3388235.921628,8446506.900491,-0.155278,-1.262071,-0.216134,-0.000239,0.000000,0.000000,0.000000,-0.004555,0.003437,0.001149,38.330273,-6.439454,1.952930,0.000000,0.000000,0.000000,0.000000,0.037647,5.121000,0.033000,0.134000,0.038000,0.022000,0.022000,1010.539673,0.155278,31.006880,996,1497,1503,1509,2017,996,1497,1503,1509,2000
16.208890,-3388235.921628,8446506.900491,-0.155278,-1.259711,-0.212375,0.000622,0.000000,0.000000,0.000000,-0.004555,0.000245,0.003278,38.330273,-6.439454,1.952930,0.000000,0.000000,0.000000,0.000000,0.038509,5.118000,0.033000,0.134000,0.038000,0.022000,0.022000,1010.539673,0.155278,31.006880,995,1498,1504,1508,2017,995,1498,1504,1508,2000
16.309875,-3388235.921628,8446506.900491,-0.155278,-1.260214,-0.208324,0.001173,0.000000,0.000000,0.000000,0.002895,-0.001884,-0.002043,38.513672,-8.831250,4.616016,0.000000,0.000000,0.000000,0.000000,0.039059,5.115000,0.044000,0.134000,0.038000,0.016000,0.024000,1010.539673,0.155278,31.006880,995,1497,1504,1509,2016,995,1497,1504,1509,2000
16.411611,-3388235.921628,8446506.900491,-0.155278,-1.259618,-0.200675,0.002379,0.000000,0.000000,0.000000,0.000766,-0.001884,0.000085,38.513672,-8.831250,4.616016,0.000000,0.000000,0.000000,0.000000,0.040265,5.124000,0.033000,0.134000,0.038000,0.020000,0.024000,1010.539673,0.155278,31.006880,995,1497,1504,1509,2016,995,1497,1504,1509,2000
16.511927,-3388235.921628,8446506.900491,-0.350907,-1.262183,-0.204880,0.003149,0.000000,0.000000,0.000000,-0.002426,-0.000819,0.002214,38.513672,-8.831250,4.616016,0.000000,0.000000,0.000000,0.000000,0.041035,5.121000,0.033000,0.134000,0.040000,0.018000,0.020000,1010.516235,0.350907,30.995092,995,1497,1504,1509,2016,995,1497,1504,1509,2000
16.613131,-3388235.921628,8446506.900491,-0.350907,-1.259823,-0.194138,0.002919,0.000000,0.000000,0.000000,0.002895,0.000245,-0.003108,39.063869,-6.439454,1.242773,0.000000,0.000000,0.000000,0.000000,0.040806,5.118000,0.033000,0.134000,0.038000,0.018000,0.020000,1010.516235,0.350907,30.995092,995,1498,1503,1509,2017,995,1498,1503,1509,2000
16.714645,-3388235.921628,8446506.900491,-0.350907,-1.250609,-0.193101,0.003947,0.000000,0.000000,0.000000,0.001830,0.002373,0.002214,39.063869,-6.439454,1.242773,0.000000,0.000000,0.000000,0.000000,0.041833,5.121000,0.033000,0.134000,0.040000,0.022000,0.024000,1010.516235,0.350907,30.995092,995,1497,1504,1509,2016,995,1497,1504,1509,2000
16.814758,-3388235.921628,8446506.900491,-0.350907,-1.246345,-0.191816,0.004076,0.000000,0.000000,0.000000,0.001830,-0.002948,-0.000979,39.063869,-6.439454,1.242773,0.000000,0.000000,0.000000,0.000000,0.041962,5.121000,0.033000,0.134000,0.038000,0.024000,0.024000,1010.516235,0.350907,30.995092,995,1497,1504,1508,2017,995,1497,1504,1508,2000
16.916123,-3388235.921628,8446506.900491,-0.350907,-1.244067,-0.194506,0.002461,0.000000,0.000000,0.000000,-0.002426,-0.002948,0.001149,36.863087,-7.175391,3.728320,0.000000,0.000000,0.000000,0.000000,0.040347,5.121000,0.033000,0.134000,0.040000,0.016000,0.022000,1010.516235,0.350907,30.995092,995,1498,1503,1509,2017,995,1498,1503,1509,2000
17.017629,-3388235.921628,8446506.900491,-0.350907,-1.235345,-0.187978,-0.001522,0.000000,0.000000,0.000000,-0.000298,0.001309,0.001149,36.863087,-7.175391,3.728320,0.000000,0.000000,0.000000,0.000000,0.036364,5.112000,0.033000,0.134000,0.038000,0.020000,0.024000,1010.516235,0.350907,30.995092,995,1498,1504,1508,2017,995,1498,1504,1508,2000
17.119272,-3388235.921628,8446506.900491,-0.350907,-1.207870,-0.205820,0.005758,0.000000,0.000000,0.000000,0.003959,0.002373,0.002214,36.863087,-7.175391,3.728320,0.000000,0.000000,0.000000,0.000000,0.042400,5.118000,0.033000,0.134000,0.038000,0.018000,0.022000,1010.516235,0.350907,30.995092,995,1500,1503,1509,2017,995,1500,1503,1509,2000
17.219970,-3388235.921628,8446506.900491,-0.350907,-1.212183,-0.210660,0.009766,0.000000,0.000000,0.000000,-0.000298,-0.001884,-0.003108,36.679688,-9.567188,3.195703,0.000000,0.000000,0.000000,0.000000,0.046407,5.112000,0.033000,0.134000,0.038000,0.018000,0.024000,1010.516235,0.350907,30.995092,995,1497,1504,1509,2016,995,1497,1504,1509,2000
17.320212,-3388235.921628,8446506.900491,-0.350907,-1.212793,-0.212971,0.008742,0.000000,0.000000,0.000000,-0.001362,-0.001884,-0.000979,36.679688,-9.567188,3.195703,0.000000,0.000000,0.000000,0.000000,0.045383,5.124000,0.033000,0.134000,0.038000,0.020000,0.022000,1010.516235,0.350907,30.995092,995,1497,1504,1508,2017,995,1497,1504,1508,2000
17.421512,-3388235.921628,8446506.900491,-0.350907,-1.210279,-0.213413,0.013590,0.000000,0.000000,0.000000,0.001830,-0.000819,0.003278,36.679688,-9.567188,3.195703,0.000000,0.000000,0.000000,0.000000,0.050232,5.121000,0.033000,0.134000,0.038000,0.016000,0.024000,1010.516235,0.350907,30.995092,995,1498,1504,1509,2016,995,1498,1504,1509,2000
17.522583,-3388235.921628,8446506.900491,-0.350907,-1.207420,-0.206642,0.013145,0.000000,0.000000,0.000000,-0.000298,-0.002948,0.003278,36.679688,-9.567188,3.195703,0.000000,0.000000,0.000000,0.000000,0.049787,5.121000,0.033000,0.134000,0.038000,0.016000,0.022000,1010.516235,0.350907,30.995092,995,1498,1502,1509,2017,995,1498,1502,1509,2000
17.622855,-3388235.921628,8446506.900491,-0.339190,-1.215323,-0.206938,0.012948,0.000000,0.000000,0.000000,-0.003491,-0.000819,0.000085,37.780079,-8.463282,3.550781,0.000000,0.000000,0.000000,0.000000,0.049590,5.118000,0.044000,0.134000,0.038000,0.020000,0.020000,1010.517639,0.339190,30.989799,995,1497,1504,1508,2017,995,1497,1504,1508,2000
